var ehime={"type":"FeatureCollection","name":"ehime","features":[
{"type":"Feature","geometry":{"type":"Point","coordinates":[132.7618544,33.84199297]},"properties":{"Name":"城山公園","Jusho":"愛媛県松山市堀之内","kouzui":"×","gake":"×","takashio":"○","jishin":"○","tsunami":"○","kaji":"○","naisui":"×","kazan":"×"}}
,{"type":"Feature","geometry":{"type":"Point","coordinates":[132.7736788,33.845786239276]},"properties":{"Name":"東雲公園","Jusho":"愛媛県松山市東雲町7-2","kouzui":"×","gake":"○","takashio":"○","jishin":"○","tsunami":"○","kaji":"×","naisui":"×","kazan":"×"}}
,{"type":"Feature","geometry":{"type":"Point","coordinates":[132.781522,33.84437357]},"properties":{"Name":"持田若宮公園","Jusho":"愛媛県松山市持田町3-250-1","kouzui":"×","gake":"○","takashio":"○","jishin":"○","tsunami":"○","kaji":"×","naisui":"×","kazan":"×"}}
,{"type":"Feature","geometry":{"type":"Point","coordinates":[132.7729964,33.83718035]},"properties":{"Name":"八坂公園","Jusho":"愛媛県松山市三番町1-3-3","kouzui":"×","gake":"○","takashio":"○","jishin":"○","tsunami":"○","kaji":"×","naisui":"×","kazan":"×"}}
,{"type":"Feature","geometry":{"type":"Point","coordinates":[132.7860078,33.83129557]},"properties":{"Name":"枝松公園","Jusho":"愛媛県松山市枝松4丁目229-1 外","kouzui":"×","gake":"○","takashio":"○","jishin":"○","tsunami":"○","kaji":"×","naisui":"×","kazan":"×"}}
,{"type":"Feature","geometry":{"type":"Point","coordinates":[132.7845986,33.82431688]},"properties":{"Name":"川附公園（福音公園）","Jusho":"愛媛県松山市枝松6丁目14-4","kouzui":"○","gake":"○","takashio":"○","jishin":"○","tsunami":"○","kaji":"×","naisui":"×","kazan":"×"}}
,{"type":"Feature","geometry":{"type":"Point","coordinates":[132.7810031,33.82545125]},"properties":{"Name":"小坂公園","Jusho":"愛媛県松山市小坂5-306-3","kouzui":"×","gake":"○","takashio":"○","jishin":"○","tsunami":"○","kaji":"×","naisui":"×","kazan":"×"}}
,{"type":"Feature","geometry":{"type":"Point","coordinates":[132.7757263,33.83161151]},"properties":{"Name":"中村公園","Jusho":"愛媛県松山市中村3-367-1","kouzui":"×","gake":"○","takashio":"○","jishin":"○","tsunami":"○","kaji":"×","naisui":"×","kazan":"×"}}
,{"type":"Feature","geometry":{"type":"Point","coordinates":[132.7656567,33.82648217]},"properties":{"Name":"拓川市民運動広場","Jusho":"愛媛県松山市拓川町453-1","kouzui":"×","gake":"○","takashio":"○","jishin":"○","tsunami":"○","kaji":"×","naisui":"×","kazan":"×"}}
,{"type":"Feature","geometry":{"type":"Point","coordinates":[132.7552119,33.82685381]},"properties":{"Name":"小栗公園","Jusho":"愛媛県松山市小栗6丁目202-1","kouzui":"×","gake":"○","takashio":"○","jishin":"○","tsunami":"○","kaji":"×","naisui":"×","kazan":"×"}}
,{"type":"Feature","geometry":{"type":"Point","coordinates":[132.7503708,33.8274808]},"properties":{"Name":"空港通１，２公園","Jusho":"愛媛県松山市空港通1-247外","kouzui":"×","gake":"○","takashio":"○","jishin":"○","tsunami":"○","kaji":"×","naisui":"×","kazan":"×"}}
,{"type":"Feature","geometry":{"type":"Point","coordinates":[132.7459932,33.82417373]},"properties":{"Name":"土居田公園","Jusho":"愛媛県松山市土居田町423","kouzui":"×","gake":"○","takashio":"○","jishin":"○","tsunami":"○","kaji":"×","naisui":"×","kazan":"×"}}
,{"type":"Feature","geometry":{"type":"Point","coordinates":[132.7437885,33.82033215]},"properties":{"Name":"土居田本村公園","Jusho":"愛媛県松山市土居田町581-2","kouzui":"×","gake":"○","takashio":"○","jishin":"○","tsunami":"○","kaji":"×","naisui":"×","kazan":"×"}}
,{"type":"Feature","geometry":{"type":"Point","coordinates":[132.7363038,33.82351598]},"properties":{"Name":"針田公園","Jusho":"愛媛県松山市針田町107-5 外","kouzui":"×","gake":"○","takashio":"○","jishin":"○","tsunami":"○","kaji":"×","naisui":"×","kazan":"×"}}
,{"type":"Feature","geometry":{"type":"Point","coordinates":[132.7597269,33.8381426]},"properties":{"Name":"新玉公園","Jusho":"愛媛県松山市三番町6-4-21　外","kouzui":"×","gake":"○","takashio":"○","jishin":"○","tsunami":"○","kaji":"×","naisui":"×","kazan":"×"}}
,{"type":"Feature","geometry":{"type":"Point","coordinates":[132.7551114,33.83781724]},"properties":{"Name":"幸町公園","Jusho":"愛媛県松山市千舟町7-6-7","kouzui":"×","gake":"○","takashio":"○","jishin":"○","tsunami":"○","kaji":"×","naisui":"×","kazan":"×"}}
,{"type":"Feature","geometry":{"type":"Point","coordinates":[132.7554043,33.84249547]},"properties":{"Name":"南味酒公園","Jusho":"愛媛県松山市味酒町1丁目11","kouzui":"×","gake":"○","takashio":"○","jishin":"○","tsunami":"○","kaji":"×","naisui":"×","kazan":"×"}}
,{"type":"Feature","geometry":{"type":"Point","coordinates":[132.7424507,33.83748148]},"properties":{"Name":"南江戸公園","Jusho":"愛媛県松山市南江戸4丁目972","kouzui":"×","gake":"○","takashio":"○","jishin":"○","tsunami":"○","kaji":"×","naisui":"×","kazan":"×"}}
,{"type":"Feature","geometry":{"type":"Point","coordinates":[132.7395232,33.84386873]},"properties":{"Name":"松山総合公園","Jusho":"愛媛県松山市朝日ヶ丘1丁目 外","kouzui":"○","gake":"×","takashio":"○","jishin":"○","tsunami":"○","kaji":"○","naisui":"×","kazan":"×"}}
,{"type":"Feature","geometry":{"type":"Point","coordinates":[132.7436076,33.84760635]},"properties":{"Name":"朝日ケ丘公園","Jusho":"愛媛県松山市朝日ヶ丘2丁目1464","kouzui":"○","gake":"○","takashio":"○","jishin":"○","tsunami":"○","kaji":"×","naisui":"×","kazan":"×"}}
,{"type":"Feature","geometry":{"type":"Point","coordinates":[132.7497798,33.84643801]},"properties":{"Name":"愛光公園","Jusho":"愛媛県松山市愛光町395-1","kouzui":"×","gake":"○","takashio":"○","jishin":"○","tsunami":"○","kaji":"×","naisui":"×","kazan":"×"}}
,{"type":"Feature","geometry":{"type":"Point","coordinates":[132.7566385,33.85042199]},"properties":{"Name":"萱町公園","Jusho":"愛媛県松山市萱町5-10-1","kouzui":"×","gake":"○","takashio":"○","jishin":"○","tsunami":"○","kaji":"×","naisui":"×","kazan":"×"}}
,{"type":"Feature","geometry":{"type":"Point","coordinates":[132.7600655,33.85212692]},"properties":{"Name":"木屋町公園","Jusho":"愛媛県松山市木屋町3-4-3","kouzui":"×","gake":"○","takashio":"○","jishin":"○","tsunami":"○","kaji":"×","naisui":"×","kazan":"×"}}
,{"type":"Feature","geometry":{"type":"Point","coordinates":[132.762921,33.850132]},"properties":{"Name":"清水公園","Jusho":"愛媛県松山市清水町2-7-2","kouzui":"×","gake":"○","takashio":"○","jishin":"○","tsunami":"○","kaji":"×","naisui":"×","kazan":"×"}}
,{"type":"Feature","geometry":{"type":"Point","coordinates":[132.7561643,33.86487062]},"properties":{"Name":"姫原西公園","Jusho":"愛媛県松山市姫原3-392-4","kouzui":"○","gake":"○","takashio":"○","jishin":"○","tsunami":"○","kaji":"×","naisui":"×","kazan":"×"}}
,{"type":"Feature","geometry":{"type":"Point","coordinates":[132.7583447,33.85676054]},"properties":{"Name":"日分公園","Jusho":"愛媛県松山市山越1丁目531-12","kouzui":"○","gake":"○","takashio":"○","jishin":"○","tsunami":"○","kaji":"×","naisui":"×","kazan":"×"}}
,{"type":"Feature","geometry":{"type":"Point","coordinates":[132.7508023,33.86028398]},"properties":{"Name":"丁地公園","Jusho":"愛媛県松山市山越5丁目10-3","kouzui":"○","gake":"○","takashio":"○","jishin":"○","tsunami":"○","kaji":"×","naisui":"×","kazan":"×"}}
,{"type":"Feature","geometry":{"type":"Point","coordinates":[132.7529688,33.86044148]},"properties":{"Name":"山越公園","Jusho":"愛媛県松山市山越5丁目3-1","kouzui":"○","gake":"○","takashio":"○","jishin":"○","tsunami":"○","kaji":"×","naisui":"×","kazan":"×"}}
,{"type":"Feature","geometry":{"type":"Point","coordinates":[132.7510014,33.85682116]},"properties":{"Name":"高崎公園","Jusho":"愛媛県松山市山越6丁目13-1","kouzui":"○","gake":"○","takashio":"○","jishin":"○","tsunami":"○","kaji":"×","naisui":"×","kazan":"×"}}
,{"type":"Feature","geometry":{"type":"Point","coordinates":[132.8003325,33.8381456]},"properties":{"Name":"正円寺公園","Jusho":"愛媛県松山市正円寺3丁目54-4地内","kouzui":"○","gake":"○","takashio":"○","jishin":"○","tsunami":"○","kaji":"×","naisui":"×","kazan":"×"}}
,{"type":"Feature","geometry":{"type":"Point","coordinates":[132.8029739,33.84354609]},"properties":{"Name":"ひがしの北公園","Jusho":"愛媛県松山市東野3丁目甲278-1　外","kouzui":"○","gake":"○","takashio":"○","jishin":"○","tsunami":"○","kaji":"×","naisui":"×","kazan":"×"}}
,{"type":"Feature","geometry":{"type":"Point","coordinates":[132.7940325,33.83061868]},"properties":{"Name":"経石山公園","Jusho":"愛媛県松山市桑原4丁目408  外","kouzui":"○","gake":"○","takashio":"○","jishin":"○","tsunami":"○","kaji":"×","naisui":"×","kazan":"×"}}
,{"type":"Feature","geometry":{"type":"Point","coordinates":[132.8000167,33.83211844]},"properties":{"Name":"畑寺公園","Jusho":"愛媛県松山市畑寺1丁目508-1  外","kouzui":"×","gake":"×","takashio":"○","jishin":"○","tsunami":"○","kaji":"×","naisui":"×","kazan":"×"}}
,{"type":"Feature","geometry":{"type":"Point","coordinates":[132.798015,33.82392032]},"properties":{"Name":"三町三角公園","Jusho":"愛媛県松山市三町3丁目85-2","kouzui":"×","gake":"○","takashio":"○","jishin":"○","tsunami":"○","kaji":"×","naisui":"×","kazan":"×"}}
,{"type":"Feature","geometry":{"type":"Point","coordinates":[132.7866132,33.8485383]},"properties":{"Name":"道後公園","Jusho":"愛媛県松山市道後公園地内","kouzui":"×","gake":"×","takashio":"○","jishin":"○","tsunami":"○","kaji":"×","naisui":"×","kazan":"×"}}
,{"type":"Feature","geometry":{"type":"Point","coordinates":[132.7906429,33.85047419]},"properties":{"Name":"湯月公園","Jusho":"愛媛県松山市道後姫塚140-1","kouzui":"○","gake":"×","takashio":"○","jishin":"○","tsunami":"○","kaji":"×","naisui":"×","kazan":"×"}}
,{"type":"Feature","geometry":{"type":"Point","coordinates":[132.7774093,33.85657673]},"properties":{"Name":"祝谷公園","Jusho":"愛媛県松山市祝谷4丁目869-1 外","kouzui":"○","gake":"×","takashio":"○","jishin":"○","tsunami":"○","kaji":"×","naisui":"×","kazan":"×"}}
,{"type":"Feature","geometry":{"type":"Point","coordinates":[132.776197,33.86065722]},"properties":{"Name":"祝谷北公園","Jusho":"愛媛県松山市祝谷6丁目1093-1 外","kouzui":"○","gake":"×","takashio":"○","jishin":"○","tsunami":"○","kaji":"×","naisui":"×","kazan":"×"}}
,{"type":"Feature","geometry":{"type":"Point","coordinates":[132.7326574,33.83813697]},"properties":{"Name":"中津東公園","Jusho":"愛媛県松山市北斎院町乙７-２ 外","kouzui":"○","gake":"×","takashio":"○","jishin":"○","tsunami":"○","kaji":"×","naisui":"×","kazan":"×"}}
,{"type":"Feature","geometry":{"type":"Point","coordinates":[132.7295908,33.8343658]},"properties":{"Name":"北斎院公園","Jusho":"愛媛県松山市北斎院町242-3 外","kouzui":"×","gake":"○","takashio":"○","jishin":"○","tsunami":"○","kaji":"×","naisui":"×","kazan":"×"}}
,{"type":"Feature","geometry":{"type":"Point","coordinates":[132.718939,33.84133588]},"properties":{"Name":"津田公園","Jusho":"愛媛県松山市北斎院町810-1","kouzui":"○","gake":"○","takashio":"○","jishin":"○","tsunami":"○","kaji":"×","naisui":"×","kazan":"×"}}
,{"type":"Feature","geometry":{"type":"Point","coordinates":[132.7251053,33.83743269]},"properties":{"Name":"中津公園","Jusho":"愛媛県松山市北斎院町469-1","kouzui":"×","gake":"○","takashio":"○","jishin":"○","tsunami":"○","kaji":"×","naisui":"×","kazan":"×"}}
,{"type":"Feature","geometry":{"type":"Point","coordinates":[132.7282647,33.84619845]},"properties":{"Name":"福水公園","Jusho":"愛媛県松山市別府町927-1","kouzui":"○","gake":"○","takashio":"○","jishin":"○","tsunami":"○","kaji":"×","naisui":"×","kazan":"×"}}
,{"type":"Feature","geometry":{"type":"Point","coordinates":[132.7157177,33.84662545]},"properties":{"Name":"別府清水山公園","Jusho":"愛媛県松山市別府町755-2　外","kouzui":"×","gake":"○","takashio":"×","jishin":"○","tsunami":"○","kaji":"×","naisui":"×","kazan":"×"}}
,{"type":"Feature","geometry":{"type":"Point","coordinates":[132.7206981,33.84897051]},"properties":{"Name":"飯岡公園","Jusho":"愛媛県松山市別府町538-3","kouzui":"×","gake":"○","takashio":"×","jishin":"○","tsunami":"○","kaji":"×","naisui":"×","kazan":"×"}}
,{"type":"Feature","geometry":{"type":"Point","coordinates":[132.7348739,33.8311156]},"properties":{"Name":"南斎院公園","Jusho":"愛媛県松山市南斎院町232-3","kouzui":"×","gake":"○","takashio":"○","jishin":"○","tsunami":"○","kaji":"×","naisui":"×","kazan":"×"}}
,{"type":"Feature","geometry":{"type":"Point","coordinates":[132.7227332,33.85410177]},"properties":{"Name":"山西公園","Jusho":"愛媛県松山市山西町909","kouzui":"×","gake":"○","takashio":"×","jishin":"○","tsunami":"○","kaji":"×","naisui":"×","kazan":"×"}}
,{"type":"Feature","geometry":{"type":"Point","coordinates":[132.71904,33.85442282]},"properties":{"Name":"三本柳公園（清住公園）","Jusho":"愛媛県松山市清住1-8-4","kouzui":"×","gake":"○","takashio":"×","jishin":"○","tsunami":"×","kaji":"×","naisui":"×","kazan":"×"}}
,{"type":"Feature","geometry":{"type":"Point","coordinates":[132.7147449,33.85462742]},"properties":{"Name":"三津大可賀公園","Jusho":"愛媛県松山市大可賀1-5","kouzui":"×","gake":"○","takashio":"×","jishin":"○","tsunami":"○","kaji":"×","naisui":"×","kazan":"×"}}
,{"type":"Feature","geometry":{"type":"Point","coordinates":[132.7279028,33.82343039]},"properties":{"Name":"富久公園","Jusho":"愛媛県松山市富久町302-5  外","kouzui":"×","gake":"○","takashio":"○","jishin":"○","tsunami":"○","kaji":"×","naisui":"×","kazan":"×"}}
,{"type":"Feature","geometry":{"type":"Point","coordinates":[132.7088897,33.83838218]},"properties":{"Name":"北吉田公園","Jusho":"愛媛県松山市北吉田町1211","kouzui":"×","gake":"○","takashio":"×","jishin":"○","tsunami":"○","kaji":"×","naisui":"×","kazan":"×"}}
,{"type":"Feature","geometry":{"type":"Point","coordinates":[132.7211807,33.83197286]},"properties":{"Name":"高岡中央公園","Jusho":"愛媛県松山市高岡町582-5 外","kouzui":"×","gake":"○","takashio":"○","jishin":"○","tsunami":"○","kaji":"×","naisui":"×","kazan":"×"}}
,{"type":"Feature","geometry":{"type":"Point","coordinates":[132.7178298,33.83527803]},"properties":{"Name":"若宮公園","Jusho":"愛媛県松山市高岡町783-29","kouzui":"×","gake":"○","takashio":"○","jishin":"○","tsunami":"○","kaji":"×","naisui":"×","kazan":"×"}}
,{"type":"Feature","geometry":{"type":"Point","coordinates":[132.71394,33.83175094]},"properties":{"Name":"高岡第一公園","Jusho":"愛媛県松山市高岡町835-1","kouzui":"×","gake":"○","takashio":"○","jishin":"○","tsunami":"○","kaji":"×","naisui":"×","kazan":"×"}}
,{"type":"Feature","geometry":{"type":"Point","coordinates":[132.7243292,33.82597662]},"properties":{"Name":"高岡みなみ公園","Jusho":"愛媛県松山市高岡町46-1","kouzui":"×","gake":"○","takashio":"○","jishin":"○","tsunami":"○","kaji":"×","naisui":"×","kazan":"×"}}
,{"type":"Feature","geometry":{"type":"Point","coordinates":[132.7047234,33.82146225]},"properties":{"Name":"空港南公園","Jusho":"愛媛県松山市南吉田町2267","kouzui":"×","gake":"○","takashio":"×","jishin":"○","tsunami":"○","kaji":"×","naisui":"×","kazan":"×"}}
,{"type":"Feature","geometry":{"type":"Point","coordinates":[132.7024703,33.82303543]},"properties":{"Name":"空港南第二公園","Jusho":"愛媛県松山市南吉田町2428","kouzui":"×","gake":"○","takashio":"×","jishin":"○","tsunami":"○","kaji":"×","naisui":"×","kazan":"×"}}
,{"type":"Feature","geometry":{"type":"Point","coordinates":[132.7145923,33.82237868]},"properties":{"Name":"鶴ケ丘公園","Jusho":"愛媛県松山市南吉田町527-3","kouzui":"×","gake":"○","takashio":"×","jishin":"○","tsunami":"○","kaji":"×","naisui":"×","kazan":"×"}}
,{"type":"Feature","geometry":{"type":"Point","coordinates":[132.7054824,33.82668527]},"properties":{"Name":"南吉田公園","Jusho":"愛媛県松山市南吉田町1252-1","kouzui":"×","gake":"○","takashio":"×","jishin":"○","tsunami":"○","kaji":"×","naisui":"×","kazan":"×"}}
,{"type":"Feature","geometry":{"type":"Point","coordinates":[132.7090444,33.82378413]},"properties":{"Name":"南吉田第二公園","Jusho":"愛媛県松山市南吉田町2653","kouzui":"×","gake":"○","takashio":"×","jishin":"○","tsunami":"○","kaji":"×","naisui":"×","kazan":"×"}}
,{"type":"Feature","geometry":{"type":"Point","coordinates":[132.7092751,33.82351674]},"properties":{"Name":"南吉田第三公園","Jusho":"愛媛県松山市南吉田町2593-1","kouzui":"×","gake":"○","takashio":"×","jishin":"○","tsunami":"○","kaji":"×","naisui":"×","kazan":"×"}}
,{"type":"Feature","geometry":{"type":"Point","coordinates":[132.709387,33.826969]},"properties":{"Name":"南吉田中央公園","Jusho":"愛媛県松山市南吉田町1366","kouzui":"×","gake":"○","takashio":"×","jishin":"○","tsunami":"○","kaji":"×","naisui":"×","kazan":"×"}}
,{"type":"Feature","geometry":{"type":"Point","coordinates":[132.6996922,33.80868322]},"properties":{"Name":"大新田公園","Jusho":"愛媛県松山市西垣生町286","kouzui":"×","gake":"○","takashio":"×","jishin":"○","tsunami":"×","kaji":"×","naisui":"×","kazan":"×"}}
,{"type":"Feature","geometry":{"type":"Point","coordinates":[132.7036237,33.81621887]},"properties":{"Name":"西垣生公園","Jusho":"愛媛県松山市西垣生町1066-7","kouzui":"×","gake":"○","takashio":"×","jishin":"○","tsunami":"○","kaji":"×","naisui":"×","kazan":"×"}}
,{"type":"Feature","geometry":{"type":"Point","coordinates":[132.6992864,33.8105842]},"properties":{"Name":"住吉公園","Jusho":"愛媛県松山市西垣生町1369-1","kouzui":"×","gake":"○","takashio":"×","jishin":"○","tsunami":"×","kaji":"×","naisui":"×","kazan":"×"}}
,{"type":"Feature","geometry":{"type":"Point","coordinates":[132.71493,33.81623955]},"properties":{"Name":"東垣生公園","Jusho":"愛媛県松山市東垣生町758-2","kouzui":"×","gake":"○","takashio":"×","jishin":"○","tsunami":"○","kaji":"×","naisui":"×","kazan":"×"}}
,{"type":"Feature","geometry":{"type":"Point","coordinates":[132.7112521,33.81683929]},"properties":{"Name":"空港東公園","Jusho":"愛媛県松山市東垣生町950-1  外","kouzui":"×","gake":"○","takashio":"×","jishin":"○","tsunami":"○","kaji":"×","naisui":"×","kazan":"×"}}
,{"type":"Feature","geometry":{"type":"Point","coordinates":[132.7163005,33.81468887]},"properties":{"Name":"奥土居公園","Jusho":"愛媛県松山市東垣生町706-1","kouzui":"×","gake":"○","takashio":"×","jishin":"○","tsunami":"○","kaji":"×","naisui":"×","kazan":"×"}}
,{"type":"Feature","geometry":{"type":"Point","coordinates":[132.7170805,33.81547545]},"properties":{"Name":"八反地公園","Jusho":"愛媛県松山市東垣生町782","kouzui":"×","gake":"○","takashio":"×","jishin":"○","tsunami":"○","kaji":"×","naisui":"×","kazan":"×"}}
,{"type":"Feature","geometry":{"type":"Point","coordinates":[132.7149424,33.81686757]},"properties":{"Name":"空港東第二公園","Jusho":"愛媛県松山市東垣生町928-1","kouzui":"×","gake":"○","takashio":"×","jishin":"○","tsunami":"○","kaji":"×","naisui":"×","kazan":"×"}}
,{"type":"Feature","geometry":{"type":"Point","coordinates":[132.7143822,33.81561364]},"properties":{"Name":"空港東第三公園","Jusho":"愛媛県松山市東垣生町628-1","kouzui":"×","gake":"○","takashio":"×","jishin":"○","tsunami":"○","kaji":"×","naisui":"×","kazan":"×"}}
,{"type":"Feature","geometry":{"type":"Point","coordinates":[132.7150717,33.81786504]},"properties":{"Name":"空港東第四公園","Jusho":"愛媛県松山市東垣生町869-1","kouzui":"×","gake":"○","takashio":"×","jishin":"○","tsunami":"○","kaji":"×","naisui":"×","kazan":"×"}}
,{"type":"Feature","geometry":{"type":"Point","coordinates":[132.7313464,33.86360726]},"properties":{"Name":"東山公園","Jusho":"愛媛県松山市東山町4109-1  外","kouzui":"○","gake":"○","takashio":"×","jishin":"○","tsunami":"○","kaji":"×","naisui":"×","kazan":"×"}}
,{"type":"Feature","geometry":{"type":"Point","coordinates":[132.7259963,33.86311106]},"properties":{"Name":"会津公園","Jusho":"愛媛県松山市会津町11-6","kouzui":"×","gake":"○","takashio":"×","jishin":"○","tsunami":"×","kaji":"×","naisui":"×","kazan":"×"}}
,{"type":"Feature","geometry":{"type":"Point","coordinates":[132.7281126,33.86366341]},"properties":{"Name":"すみれ公園","Jusho":"愛媛県松山市会津町16-16","kouzui":"×","gake":"○","takashio":"×","jishin":"○","tsunami":"×","kaji":"×","naisui":"×","kazan":"×"}}
,{"type":"Feature","geometry":{"type":"Point","coordinates":[132.7192298,33.86665302]},"properties":{"Name":"たつみ公園","Jusho":"愛媛県松山市辰巳町2858-8　外","kouzui":"×","gake":"○","takashio":"×","jishin":"○","tsunami":"×","kaji":"×","naisui":"×","kazan":"×"}}
,{"type":"Feature","geometry":{"type":"Point","coordinates":[132.723813,33.8646204]},"properties":{"Name":"中須賀公園","Jusho":"愛媛県松山市中須賀1丁目11","kouzui":"×","gake":"○","takashio":"×","jishin":"○","tsunami":"×","kaji":"×","naisui":"×","kazan":"×"}}
,{"type":"Feature","geometry":{"type":"Point","coordinates":[132.7209856,33.86043552]},"properties":{"Name":"祓川公園","Jusho":"愛媛県松山市祓川2丁目2065-86","kouzui":"×","gake":"○","takashio":"×","jishin":"○","tsunami":"×","kaji":"×","naisui":"×","kazan":"×"}}
,{"type":"Feature","geometry":{"type":"Point","coordinates":[132.727683,33.86581205]},"properties":{"Name":"内浜公園","Jusho":"愛媛県松山市内浜町12-3","kouzui":"×","gake":"○","takashio":"×","jishin":"○","tsunami":"×","kaji":"×","naisui":"×","kazan":"×"}}
,{"type":"Feature","geometry":{"type":"Point","coordinates":[132.7233844,33.85694053]},"properties":{"Name":"宮前公園","Jusho":"愛媛県松山市古三津1-1479-2","kouzui":"×","gake":"○","takashio":"×","jishin":"○","tsunami":"×","kaji":"×","naisui":"×","kazan":"×"}}
,{"type":"Feature","geometry":{"type":"Point","coordinates":[132.7342035,33.85773163]},"properties":{"Name":"青葉台公園","Jusho":"愛媛県松山市青葉台44","kouzui":"○","gake":"○","takashio":"○","jishin":"○","tsunami":"○","kaji":"×","naisui":"×","kazan":"×"}}
,{"type":"Feature","geometry":{"type":"Point","coordinates":[132.716344,33.86364177]},"properties":{"Name":"三津住吉公園","Jusho":"愛媛県松山市住吉2丁目90-1 外","kouzui":"○","gake":"○","takashio":"×","jishin":"○","tsunami":"×","kaji":"×","naisui":"×","kazan":"×"}}
,{"type":"Feature","geometry":{"type":"Point","coordinates":[132.7175721,33.85768218]},"properties":{"Name":"西須賀公園","Jusho":"愛媛県松山市須賀町1-10","kouzui":"×","gake":"○","takashio":"×","jishin":"○","tsunami":"×","kaji":"×","naisui":"×","kazan":"×"}}
,{"type":"Feature","geometry":{"type":"Point","coordinates":[132.715309,33.87835315]},"properties":{"Name":"すみれ野北公園","Jusho":"愛媛県松山市石風呂町579","kouzui":"○","gake":"○","takashio":"○","jishin":"○","tsunami":"○","kaji":"×","naisui":"×","kazan":"×"}}
,{"type":"Feature","geometry":{"type":"Point","coordinates":[132.7181414,33.87317784]},"properties":{"Name":"すみれ野南公園","Jusho":"愛媛県松山市石風呂町230-1","kouzui":"○","gake":"○","takashio":"×","jishin":"○","tsunami":"○","kaji":"×","naisui":"×","kazan":"×"}}
,{"type":"Feature","geometry":{"type":"Point","coordinates":[132.713874,33.87362763]},"properties":{"Name":"新浜公園","Jusho":"愛媛県松山市新浜町1145-4　外","kouzui":"○","gake":"○","takashio":"×","jishin":"○","tsunami":"×","kaji":"×","naisui":"×","kazan":"×"}}
,{"type":"Feature","geometry":{"type":"Point","coordinates":[132.7032121,33.88680659]},"properties":{"Name":"ことひら公園","Jusho":"愛媛県松山市高浜町4丁目乙74","kouzui":"○","gake":"×","takashio":"×","jishin":"○","tsunami":"○","kaji":"×","naisui":"×","kazan":"×"}}
,{"type":"Feature","geometry":{"type":"Point","coordinates":[132.7076465,33.89521699]},"properties":{"Name":"高浜公園","Jusho":"愛媛県松山市高浜町6丁目2255-1","kouzui":"○","gake":"×","takashio":"×","jishin":"○","tsunami":"×","kaji":"×","naisui":"×","kazan":"×"}}
,{"type":"Feature","geometry":{"type":"Point","coordinates":[132.7154274,33.86871002]},"properties":{"Name":"観月山公園","Jusho":"愛媛県松山市港山町2021","kouzui":"○","gake":"×","takashio":"×","jishin":"○","tsunami":"○","kaji":"×","naisui":"×","kazan":"×"}}
,{"type":"Feature","geometry":{"type":"Point","coordinates":[132.7491282,33.86334038]},"properties":{"Name":"太郎丸公園","Jusho":"愛媛県松山市問屋町334-37","kouzui":"○","gake":"○","takashio":"○","jishin":"○","tsunami":"○","kaji":"×","naisui":"×","kazan":"×"}}
,{"type":"Feature","geometry":{"type":"Point","coordinates":[132.7408482,33.88165353]},"properties":{"Name":"安城寺西公園","Jusho":"愛媛県松山市安城寺町1334-1","kouzui":"○","gake":"○","takashio":"○","jishin":"○","tsunami":"○","kaji":"×","naisui":"×","kazan":"×"}}
,{"type":"Feature","geometry":{"type":"Point","coordinates":[132.7388951,33.8604024]},"properties":{"Name":"久万ノ台公園","Jusho":"愛媛県松山市久万ノ台乙1749-1 外","kouzui":"○","gake":"○","takashio":"○","jishin":"○","tsunami":"○","kaji":"×","naisui":"×","kazan":"×"}}
,{"type":"Feature","geometry":{"type":"Point","coordinates":[132.7373549,33.85777675]},"properties":{"Name":"久万ノ台緑地","Jusho":"愛媛県松山市久万ノ台1421-1","kouzui":"○","gake":"○","takashio":"○","jishin":"○","tsunami":"○","kaji":"×","naisui":"×","kazan":"×"}}
,{"type":"Feature","geometry":{"type":"Point","coordinates":[132.7458287,33.86699572]},"properties":{"Name":"西長戸東公園","Jusho":"愛媛県松山市西長戸町163-2 外","kouzui":"○","gake":"○","takashio":"○","jishin":"○","tsunami":"○","kaji":"×","naisui":"×","kazan":"×"}}
,{"type":"Feature","geometry":{"type":"Point","coordinates":[132.7366967,33.86637535]},"properties":{"Name":"西長戸公園","Jusho":"愛媛県松山市西長戸町558","kouzui":"○","gake":"○","takashio":"○","jishin":"○","tsunami":"○","kaji":"×","naisui":"×","kazan":"×"}}
,{"type":"Feature","geometry":{"type":"Point","coordinates":[132.7493929,33.87425029]},"properties":{"Name":"鴨川公園","Jusho":"愛媛県松山市鴨川3丁目1041-1","kouzui":"○","gake":"○","takashio":"○","jishin":"○","tsunami":"○","kaji":"×","naisui":"×","kazan":"×"}}
,{"type":"Feature","geometry":{"type":"Point","coordinates":[132.7543172,33.88202939]},"properties":{"Name":"谷町公園","Jusho":"愛媛県松山市谷町甲236","kouzui":"○","gake":"○","takashio":"○","jishin":"○","tsunami":"○","kaji":"×","naisui":"×","kazan":"×"}}
,{"type":"Feature","geometry":{"type":"Point","coordinates":[132.751311,33.891258]},"properties":{"Name":"平田公園","Jusho":"愛媛県松山市平田町乙393-1","kouzui":"○","gake":"○","takashio":"○","jishin":"○","tsunami":"○","kaji":"×","naisui":"×","kazan":"×"}}
,{"type":"Feature","geometry":{"type":"Point","coordinates":[132.7590802,33.86936626]},"properties":{"Name":"吉藤公園","Jusho":"愛媛県松山市吉藤2丁目481-1","kouzui":"○","gake":"○","takashio":"○","jishin":"○","tsunami":"○","kaji":"×","naisui":"×","kazan":"×"}}
,{"type":"Feature","geometry":{"type":"Point","coordinates":[132.7438914,33.89332107]},"properties":{"Name":"おおつか公園","Jusho":"愛媛県松山市馬木町2185","kouzui":"○","gake":"○","takashio":"×","jishin":"○","tsunami":"○","kaji":"×","naisui":"×","kazan":"×"}}
,{"type":"Feature","geometry":{"type":"Point","coordinates":[132.7458306,33.89153989]},"properties":{"Name":"ともくに公園","Jusho":"愛媛県松山市馬木町2250","kouzui":"○","gake":"○","takashio":"×","jishin":"○","tsunami":"○","kaji":"×","naisui":"×","kazan":"×"}}
,{"type":"Feature","geometry":{"type":"Point","coordinates":[132.7472173,33.8932231]},"properties":{"Name":"なかのちょう公園","Jusho":"愛媛県松山市馬木町2142","kouzui":"○","gake":"○","takashio":"×","jishin":"○","tsunami":"○","kaji":"×","naisui":"×","kazan":"×"}}
,{"type":"Feature","geometry":{"type":"Point","coordinates":[132.7473782,33.89016837]},"properties":{"Name":"むくのき公園","Jusho":"愛媛県松山市馬木町2055","kouzui":"○","gake":"○","takashio":"×","jishin":"○","tsunami":"○","kaji":"×","naisui":"×","kazan":"×"}}
,{"type":"Feature","geometry":{"type":"Point","coordinates":[132.7303137,33.89736611]},"properties":{"Name":"内新田公園","Jusho":"愛媛県松山市勝岡町63","kouzui":"○","gake":"○","takashio":"×","jishin":"○","tsunami":"×","kaji":"×","naisui":"×","kazan":"×"}}
,{"type":"Feature","geometry":{"type":"Point","coordinates":[132.7241929,33.90162053]},"properties":{"Name":"六町公園","Jusho":"愛媛県松山市勝岡町238","kouzui":"○","gake":"○","takashio":"×","jishin":"○","tsunami":"×","kaji":"×","naisui":"×","kazan":"×"}}
,{"type":"Feature","geometry":{"type":"Point","coordinates":[132.7280714,33.8988622]},"properties":{"Name":"太衛門公園","Jusho":"愛媛県松山市勝岡町181","kouzui":"○","gake":"○","takashio":"×","jishin":"○","tsunami":"×","kaji":"×","naisui":"×","kazan":"×"}}
,{"type":"Feature","geometry":{"type":"Point","coordinates":[132.7227447,33.88254669]},"properties":{"Name":"太山寺本村公園","Jusho":"愛媛県松山市太山寺町1587-1 外","kouzui":"○","gake":"×","takashio":"○","jishin":"○","tsunami":"○","kaji":"×","naisui":"×","kazan":"×"}}
,{"type":"Feature","geometry":{"type":"Point","coordinates":[132.7222806,33.89224797]},"properties":{"Name":"清和公園","Jusho":"愛媛県松山市太山寺町2244","kouzui":"○","gake":"×","takashio":"○","jishin":"○","tsunami":"○","kaji":"×","naisui":"×","kazan":"×"}}
,{"type":"Feature","geometry":{"type":"Point","coordinates":[132.7273044,33.88792183]},"properties":{"Name":"太山寺小山公園","Jusho":"愛媛県松山市太山寺町1355","kouzui":"○","gake":"○","takashio":"×","jishin":"○","tsunami":"×","kaji":"×","naisui":"×","kazan":"×"}}
,{"type":"Feature","geometry":{"type":"Point","coordinates":[132.7325347,33.88441267]},"properties":{"Name":"大渕公園","Jusho":"愛媛県松山市太山寺町乙168-1","kouzui":"○","gake":"×","takashio":"×","jishin":"○","tsunami":"○","kaji":"×","naisui":"×","kazan":"×"}}
,{"type":"Feature","geometry":{"type":"Point","coordinates":[132.737183,33.88982834]},"properties":{"Name":"和気公園","Jusho":"愛媛県松山市和気町1丁目100","kouzui":"○","gake":"○","takashio":"×","jishin":"○","tsunami":"×","kaji":"×","naisui":"×","kazan":"×"}}
,{"type":"Feature","geometry":{"type":"Point","coordinates":[132.7343143,33.89687791]},"properties":{"Name":"和気浜公園","Jusho":"愛媛県松山市和気町2丁目989-2 外","kouzui":"○","gake":"○","takashio":"×","jishin":"○","tsunami":"×","kaji":"×","naisui":"×","kazan":"×"}}
,{"type":"Feature","geometry":{"type":"Point","coordinates":[132.7361248,33.90127706]},"properties":{"Name":"和気松原公園","Jusho":"愛媛県松山市和気町2丁目809-1 外","kouzui":"○","gake":"○","takashio":"×","jishin":"○","tsunami":"×","kaji":"×","naisui":"×","kazan":"×"}}
,{"type":"Feature","geometry":{"type":"Point","coordinates":[132.7501593,33.89630432]},"properties":{"Name":"内宮公園","Jusho":"愛媛県松山市内宮町乙926-3","kouzui":"○","gake":"○","takashio":"×","jishin":"○","tsunami":"○","kaji":"×","naisui":"×","kazan":"×"}}
,{"type":"Feature","geometry":{"type":"Point","coordinates":[132.7638115,33.90108433]},"properties":{"Name":"権現公園","Jusho":"愛媛県松山市権現町甲162-1 外","kouzui":"○","gake":"○","takashio":"○","jishin":"○","tsunami":"○","kaji":"×","naisui":"×","kazan":"×"}}
,{"type":"Feature","geometry":{"type":"Point","coordinates":[132.7872221,33.90818781]},"properties":{"Name":"東大栗公園","Jusho":"愛媛県松山市東大栗町甲1273-1","kouzui":"○","gake":"×","takashio":"○","jishin":"○","tsunami":"○","kaji":"×","naisui":"×","kazan":"×"}}
,{"type":"Feature","geometry":{"type":"Point","coordinates":[132.7557199,33.89569478]},"properties":{"Name":"松尾公園","Jusho":"愛媛県松山市福角町乙929 外","kouzui":"○","gake":"×","takashio":"○","jishin":"○","tsunami":"○","kaji":"×","naisui":"×","kazan":"×"}}
,{"type":"Feature","geometry":{"type":"Point","coordinates":[132.7547103,33.90203697]},"properties":{"Name":"中筋公園","Jusho":"愛媛県松山市福角町1553","kouzui":"○","gake":"○","takashio":"○","jishin":"○","tsunami":"○","kaji":"×","naisui":"×","kazan":"×"}}
,{"type":"Feature","geometry":{"type":"Point","coordinates":[132.7512268,33.89604606]},"properties":{"Name":"松尾西公園","Jusho":"愛媛県松山市福角町甲51-１１７","kouzui":"○","gake":"○","takashio":"○","jishin":"○","tsunami":"○","kaji":"×","naisui":"×","kazan":"×"}}
,{"type":"Feature","geometry":{"type":"Point","coordinates":[132.7501179,33.9044592]},"properties":{"Name":"堀江中央公園","Jusho":"愛媛県松山市堀江町1569-１ 外","kouzui":"○","gake":"○","takashio":"×","jishin":"○","tsunami":"×","kaji":"×","naisui":"×","kazan":"×"}}
,{"type":"Feature","geometry":{"type":"Point","coordinates":[132.7544255,33.90670536]},"properties":{"Name":"堀江東公園","Jusho":"愛媛県松山市堀江町1466 外","kouzui":"○","gake":"○","takashio":"×","jishin":"○","tsunami":"×","kaji":"×","naisui":"×","kazan":"×"}}
,{"type":"Feature","geometry":{"type":"Point","coordinates":[132.7414758,33.9018568]},"properties":{"Name":"いつき公園","Jusho":"愛媛県松山市堀江町766-37","kouzui":"○","gake":"○","takashio":"×","jishin":"○","tsunami":"×","kaji":"×","naisui":"×","kazan":"×"}}
,{"type":"Feature","geometry":{"type":"Point","coordinates":[132.7420713,33.89947471]},"properties":{"Name":"大西第二区公園","Jusho":"愛媛県松山市堀江町甲519-2","kouzui":"○","gake":"○","takashio":"×","jishin":"○","tsunami":"×","kaji":"×","naisui":"×","kazan":"×"}}
,{"type":"Feature","geometry":{"type":"Point","coordinates":[132.748967,33.818464]},"properties":{"Name":"保免公園","Jusho":"愛媛県松山市保免中1丁目210-3","kouzui":"×","gake":"○","takashio":"○","jishin":"○","tsunami":"○","kaji":"×","naisui":"×","kazan":"×"}}
,{"type":"Feature","geometry":{"type":"Point","coordinates":[132.7272087,33.80978919]},"properties":{"Name":"余戸南であい公園","Jusho":"愛媛県松山市余戸南4-1710-2外","kouzui":"×","gake":"○","takashio":"○","jishin":"○","tsunami":"○","kaji":"×","naisui":"×","kazan":"×"}}
,{"type":"Feature","geometry":{"type":"Point","coordinates":[132.7332665,33.81181307]},"properties":{"Name":"余戸東すみれ公園","Jusho":"愛媛県松山市余戸東3-1082-2 外","kouzui":"×","gake":"○","takashio":"○","jishin":"○","tsunami":"○","kaji":"×","naisui":"×","kazan":"×"}}
,{"type":"Feature","geometry":{"type":"Point","coordinates":[132.7373637,33.81686232]},"properties":{"Name":"余戸東竹の宮公園","Jusho":"愛媛県松山市余戸東5丁目299-5 外","kouzui":"×","gake":"○","takashio":"○","jishin":"○","tsunami":"○","kaji":"×","naisui":"×","kazan":"×"}}
,{"type":"Feature","geometry":{"type":"Point","coordinates":[132.73215,33.816296]},"properties":{"Name":"余戸中新開公園","Jusho":"愛媛県松山市余戸中5丁目894-1 外","kouzui":"×","gake":"○","takashio":"○","jishin":"○","tsunami":"○","kaji":"×","naisui":"×","kazan":"×"}}
,{"type":"Feature","geometry":{"type":"Point","coordinates":[132.7229739,33.81418775]},"properties":{"Name":"余戸西さくら公園","Jusho":"愛媛県松山市余戸西2-2279-1　外","kouzui":"×","gake":"○","takashio":"×","jishin":"○","tsunami":"○","kaji":"×","naisui":"×","kazan":"×"}}
,{"type":"Feature","geometry":{"type":"Point","coordinates":[132.744676,33.80938]},"properties":{"Name":"松山中央公園","Jusho":"愛媛県松山市市坪西町625-1 外","kouzui":"×","gake":"○","takashio":"○","jishin":"○","tsunami":"○","kaji":"○","naisui":"×","kazan":"×"}}
,{"type":"Feature","geometry":{"type":"Point","coordinates":[132.6678842,33.89952967]},"properties":{"Name":"鷲ケ巣公園","Jusho":"愛媛県松山市由良町418-1 外","kouzui":"○","gake":"○","takashio":"×","jishin":"○","tsunami":"×","kaji":"×","naisui":"×","kazan":"×"}}
,{"type":"Feature","geometry":{"type":"Point","coordinates":[132.6808715,33.9039732]},"properties":{"Name":"由良公園","Jusho":"愛媛県松山市由良町1032-1 外","kouzui":"○","gake":"×","takashio":"×","jishin":"○","tsunami":"×","kaji":"×","naisui":"×","kazan":"×"}}
,{"type":"Feature","geometry":{"type":"Point","coordinates":[132.6884825,33.90428584]},"properties":{"Name":"門田公園","Jusho":"愛媛県松山市門田町290-2","kouzui":"○","gake":"×","takashio":"×","jishin":"○","tsunami":"×","kaji":"×","naisui":"×","kazan":"×"}}
,{"type":"Feature","geometry":{"type":"Point","coordinates":[132.6830188,33.87888914]},"properties":{"Name":"泊公園","Jusho":"愛媛県松山市泊町533-1","kouzui":"○","gake":"○","takashio":"×","jishin":"○","tsunami":"×","kaji":"×","naisui":"×","kazan":"×"}}
,{"type":"Feature","geometry":{"type":"Point","coordinates":[132.6696748,33.87312148]},"properties":{"Name":"御手洗公園","Jusho":"愛媛県松山市泊町91-5地先","kouzui":"○","gake":"×","takashio":"×","jishin":"○","tsunami":"×","kaji":"×","naisui":"×","kazan":"×"}}
,{"type":"Feature","geometry":{"type":"Point","coordinates":[132.7954547,33.81740187]},"properties":{"Name":"北久米七区公園","Jusho":"愛媛県松山市北久米町644","kouzui":"○","gake":"○","takashio":"○","jishin":"○","tsunami":"○","kaji":"×","naisui":"×","kazan":"×"}}
,{"type":"Feature","geometry":{"type":"Point","coordinates":[132.7914261,33.81241452]},"properties":{"Name":"北久米八区公園","Jusho":"愛媛県松山市北久米町1069-1　外","kouzui":"×","gake":"○","takashio":"○","jishin":"○","tsunami":"○","kaji":"×","naisui":"×","kazan":"×"}}
,{"type":"Feature","geometry":{"type":"Point","coordinates":[132.7998555,33.80561912]},"properties":{"Name":"来住公園","Jusho":"愛媛県松山市来住町983-3","kouzui":"×","gake":"○","takashio":"○","jishin":"○","tsunami":"○","kaji":"×","naisui":"×","kazan":"×"}}
,{"type":"Feature","geometry":{"type":"Point","coordinates":[132.8111239,33.80687401]},"properties":{"Name":"北窪田公園","Jusho":"愛媛県松山市久米窪田町938-1","kouzui":"×","gake":"○","takashio":"○","jishin":"○","tsunami":"○","kaji":"×","naisui":"×","kazan":"×"}}
,{"type":"Feature","geometry":{"type":"Point","coordinates":[132.812292,33.79525232]},"properties":{"Name":"たかい公園","Jusho":"愛媛県松山市高井町1105　外","kouzui":"×","gake":"○","takashio":"○","jishin":"○","tsunami":"○","kaji":"×","naisui":"×","kazan":"×"}}
,{"type":"Feature","geometry":{"type":"Point","coordinates":[132.8028618,33.81253802]},"properties":{"Name":"南久米公園","Jusho":"愛媛県松山市南久米町594　外","kouzui":"×","gake":"○","takashio":"○","jishin":"○","tsunami":"○","kaji":"×","naisui":"×","kazan":"×"}}
,{"type":"Feature","geometry":{"type":"Point","coordinates":[132.80547,33.818826]},"properties":{"Name":"日尾公園","Jusho":"愛媛県松山市南久米町乙１-１","kouzui":"○","gake":"○","takashio":"○","jishin":"○","tsunami":"○","kaji":"×","naisui":"×","kazan":"×"}}
,{"type":"Feature","geometry":{"type":"Point","coordinates":[132.802746,33.79624526]},"properties":{"Name":"南土居公園","Jusho":"愛媛県松山市南土居町239-1","kouzui":"×","gake":"○","takashio":"○","jishin":"○","tsunami":"○","kaji":"×","naisui":"×","kazan":"×"}}
,{"type":"Feature","geometry":{"type":"Point","coordinates":[132.8087473,33.81744505]},"properties":{"Name":"浄土寺公園","Jusho":"愛媛県松山市鷹子町333-1  外","kouzui":"○","gake":"○","takashio":"○","jishin":"○","tsunami":"○","kaji":"×","naisui":"×","kazan":"×"}}
,{"type":"Feature","geometry":{"type":"Point","coordinates":[132.8180897,33.87189758]},"properties":{"Name":"湯の山東第１公園","Jusho":"愛媛県松山市湯の山5丁目1-5","kouzui":"○","gake":"○","takashio":"○","jishin":"○","tsunami":"○","kaji":"×","naisui":"×","kazan":"×"}}
,{"type":"Feature","geometry":{"type":"Point","coordinates":[132.8185725,33.87120272]},"properties":{"Name":"湯の山東第２公園","Jusho":"愛媛県松山市湯の山東1丁目7","kouzui":"○","gake":"○","takashio":"○","jishin":"○","tsunami":"○","kaji":"×","naisui":"×","kazan":"×"}}
,{"type":"Feature","geometry":{"type":"Point","coordinates":[132.8191304,33.87039211]},"properties":{"Name":"湯の山東第３公園","Jusho":"愛媛県松山市湯の山東5丁目6","kouzui":"○","gake":"○","takashio":"○","jishin":"○","tsunami":"○","kaji":"×","naisui":"×","kazan":"×"}}
,{"type":"Feature","geometry":{"type":"Point","coordinates":[132.8213496,33.87253633]},"properties":{"Name":"湯の山東第４公園","Jusho":"愛媛県松山市湯の山東2丁目8","kouzui":"○","gake":"○","takashio":"○","jishin":"○","tsunami":"○","kaji":"×","naisui":"×","kazan":"×"}}
,{"type":"Feature","geometry":{"type":"Point","coordinates":[132.8279691,33.87167269]},"properties":{"Name":"湧ケ淵公園","Jusho":"愛媛県松山市末町乙231-1  外","kouzui":"○","gake":"○","takashio":"○","jishin":"○","tsunami":"○","kaji":"×","naisui":"×","kazan":"×"}}
,{"type":"Feature","geometry":{"type":"Point","coordinates":[132.8152794,33.86265015]},"properties":{"Name":"湯山公園","Jusho":"愛媛県松山市食場町甲316-23 外","kouzui":"○","gake":"×","takashio":"○","jishin":"○","tsunami":"○","kaji":"×","naisui":"×","kazan":"×"}}
,{"type":"Feature","geometry":{"type":"Point","coordinates":[132.8115722,33.85484919]},"properties":{"Name":"たかの夢公園","Jusho":"愛媛県松山市高野町甲76-4","kouzui":"○","gake":"×","takashio":"○","jishin":"○","tsunami":"○","kaji":"×","naisui":"×","kazan":"×"}}
,{"type":"Feature","geometry":{"type":"Point","coordinates":[132.8069588,33.84742287]},"properties":{"Name":"八白公園","Jusho":"愛媛県松山市溝辺町甲135","kouzui":"○","gake":"○","takashio":"○","jishin":"○","tsunami":"○","kaji":"×","naisui":"×","kazan":"×"}}
,{"type":"Feature","geometry":{"type":"Point","coordinates":[132.8033225,33.85328465]},"properties":{"Name":"溝辺公園","Jusho":"愛媛県松山市溝辺町甲721-4 外","kouzui":"○","gake":"×","takashio":"○","jishin":"○","tsunami":"○","kaji":"×","naisui":"×","kazan":"×"}}
,{"type":"Feature","geometry":{"type":"Point","coordinates":[132.8074828,33.85175897]},"properties":{"Name":"神前公園","Jusho":"愛媛県松山市溝辺町甲437-4","kouzui":"○","gake":"○","takashio":"○","jishin":"○","tsunami":"○","kaji":"×","naisui":"×","kazan":"×"}}
,{"type":"Feature","geometry":{"type":"Point","coordinates":[132.8138206,33.8682589]},"properties":{"Name":"湯の山西公園","Jusho":"愛媛県松山市湯の山1-12-1　外","kouzui":"○","gake":"○","takashio":"○","jishin":"○","tsunami":"○","kaji":"×","naisui":"×","kazan":"×"}}
,{"type":"Feature","geometry":{"type":"Point","coordinates":[132.8138142,33.86988877]},"properties":{"Name":"湯の山第２公園","Jusho":"愛媛県松山市湯の山2丁目10-1","kouzui":"○","gake":"○","takashio":"○","jishin":"○","tsunami":"○","kaji":"×","naisui":"×","kazan":"×"}}
,{"type":"Feature","geometry":{"type":"Point","coordinates":[132.8146527,33.87254175]},"properties":{"Name":"湯の山北公園","Jusho":"愛媛県松山市湯の山3-11-1　外","kouzui":"○","gake":"○","takashio":"○","jishin":"○","tsunami":"○","kaji":"×","naisui":"×","kazan":"×"}}
,{"type":"Feature","geometry":{"type":"Point","coordinates":[132.8171992,33.86904697]},"properties":{"Name":"湯の山第１公園","Jusho":"愛媛県松山市湯の山5丁目1-5","kouzui":"○","gake":"○","takashio":"○","jishin":"○","tsunami":"○","kaji":"×","naisui":"×","kazan":"×"}}
,{"type":"Feature","geometry":{"type":"Point","coordinates":[132.8169953,33.87142545]},"properties":{"Name":"湯の山東公園","Jusho":"愛媛県松山市湯の山8丁目16","kouzui":"○","gake":"○","takashio":"○","jishin":"○","tsunami":"○","kaji":"×","naisui":"×","kazan":"×"}}
,{"type":"Feature","geometry":{"type":"Point","coordinates":[132.7804135,33.8749606]},"properties":{"Name":"白水台公園","Jusho":"愛媛県松山市白水台2-12-6","kouzui":"○","gake":"○","takashio":"○","jishin":"○","tsunami":"○","kaji":"×","naisui":"×","kazan":"×"}}
,{"type":"Feature","geometry":{"type":"Point","coordinates":[132.780215,33.87856813]},"properties":{"Name":"白水台北公園","Jusho":"愛媛県松山市白水台4-22-7","kouzui":"○","gake":"○","takashio":"○","jishin":"○","tsunami":"○","kaji":"×","naisui":"×","kazan":"×"}}
,{"type":"Feature","geometry":{"type":"Point","coordinates":[132.7786123,33.87170963]},"properties":{"Name":"白水台南公園","Jusho":"愛媛県松山市白水台5-2-13","kouzui":"○","gake":"○","takashio":"○","jishin":"○","tsunami":"○","kaji":"×","naisui":"×","kazan":"×"}}
,{"type":"Feature","geometry":{"type":"Point","coordinates":[132.7769913,33.87543783]},"properties":{"Name":"白水台西公園","Jusho":"愛媛県松山市白水台6丁目20","kouzui":"○","gake":"○","takashio":"○","jishin":"○","tsunami":"○","kaji":"×","naisui":"×","kazan":"×"}}
,{"type":"Feature","geometry":{"type":"Point","coordinates":[132.8096238,33.87518635]},"properties":{"Name":"向陽第２公園","Jusho":"愛媛県松山市下伊台町489-102","kouzui":"○","gake":"×","takashio":"○","jishin":"○","tsunami":"○","kaji":"×","naisui":"×","kazan":"×"}}
,{"type":"Feature","geometry":{"type":"Point","coordinates":[132.793357,33.886466]},"properties":{"Name":"伊台本村公園","Jusho":"愛媛県松山市上伊台町181-3","kouzui":"○","gake":"×","takashio":"○","jishin":"○","tsunami":"○","kaji":"×","naisui":"×","kazan":"×"}}
,{"type":"Feature","geometry":{"type":"Point","coordinates":[132.8466084,33.81377705]},"properties":{"Name":"北梅本小山公園","Jusho":"愛媛県松山市北梅本町2481-1","kouzui":"×","gake":"○","takashio":"○","jishin":"○","tsunami":"○","kaji":"×","naisui":"×","kazan":"×"}}
,{"type":"Feature","geometry":{"type":"Point","coordinates":[132.8418878,33.80994392]},"properties":{"Name":"向井公園","Jusho":"愛媛県松山市北梅本町2145   外","kouzui":"×","gake":"○","takashio":"○","jishin":"○","tsunami":"○","kaji":"×","naisui":"×","kazan":"×"}}
,{"type":"Feature","geometry":{"type":"Point","coordinates":[132.8488347,33.81924565]},"properties":{"Name":"小野谷公園","Jusho":"愛媛県松山市北梅本町2720  外","kouzui":"×","gake":"×","takashio":"○","jishin":"○","tsunami":"○","kaji":"×","naisui":"×","kazan":"×"}}
,{"type":"Feature","geometry":{"type":"Point","coordinates":[132.857069,33.8056515]},"properties":{"Name":"太尺寺公園","Jusho":"愛媛県松山市北梅本町甲25","kouzui":"○","gake":"○","takashio":"○","jishin":"○","tsunami":"○","kaji":"×","naisui":"×","kazan":"×"}}
,{"type":"Feature","geometry":{"type":"Point","coordinates":[132.8395812,33.79969458]},"properties":{"Name":"南梅本公園","Jusho":"愛媛県松山市南梅本町225-5　外","kouzui":"○","gake":"○","takashio":"○","jishin":"○","tsunami":"○","kaji":"×","naisui":"×","kazan":"×"}}
,{"type":"Feature","geometry":{"type":"Point","coordinates":[132.8346795,33.8057847]},"properties":{"Name":"小野公園","Jusho":"愛媛県松山市水泥町839","kouzui":"×","gake":"○","takashio":"○","jishin":"○","tsunami":"○","kaji":"×","naisui":"×","kazan":"×"}}
,{"type":"Feature","geometry":{"type":"Point","coordinates":[132.8270114,33.81015908]},"properties":{"Name":"平井公園","Jusho":"愛媛県松山市平井町甲2520","kouzui":"×","gake":"○","takashio":"○","jishin":"○","tsunami":"○","kaji":"×","naisui":"×","kazan":"×"}}
,{"type":"Feature","geometry":{"type":"Point","coordinates":[132.8330034,33.81638113]},"properties":{"Name":"五楽公園","Jusho":"愛媛県松山市平井町甲541-1","kouzui":"○","gake":"○","takashio":"○","jishin":"○","tsunami":"○","kaji":"×","naisui":"×","kazan":"×"}}
,{"type":"Feature","geometry":{"type":"Point","coordinates":[132.8163416,33.80584884]},"properties":{"Name":"東鷹の子公園","Jusho":"愛媛県松山市平井町甲3157-87","kouzui":"×","gake":"○","takashio":"○","jishin":"○","tsunami":"○","kaji":"×","naisui":"×","kazan":"×"}}
,{"type":"Feature","geometry":{"type":"Point","coordinates":[132.832444,33.79966975]},"properties":{"Name":"梅西公園","Jusho":"愛媛県松山市南梅本町1048-4","kouzui":"○","gake":"○","takashio":"○","jishin":"○","tsunami":"○","kaji":"×","naisui":"×","kazan":"×"}}
,{"type":"Feature","geometry":{"type":"Point","coordinates":[132.783443,33.79171139]},"properties":{"Name":"三島公園","Jusho":"愛媛県松山市井門町934","kouzui":"×","gake":"○","takashio":"○","jishin":"○","tsunami":"○","kaji":"×","naisui":"×","kazan":"×"}}
,{"type":"Feature","geometry":{"type":"Point","coordinates":[132.8109859,33.79175088]},"properties":{"Name":"杖ノ淵公園","Jusho":"愛媛県松山市南高井町1352 外","kouzui":"×","gake":"○","takashio":"○","jishin":"○","tsunami":"○","kaji":"×","naisui":"×","kazan":"×"}}
,{"type":"Feature","geometry":{"type":"Point","coordinates":[132.7976668,33.79364941]},"properties":{"Name":"森松本村公園","Jusho":"愛媛県松山市森松町847-1","kouzui":"×","gake":"○","takashio":"○","jishin":"○","tsunami":"○","kaji":"×","naisui":"×","kazan":"×"}}
,{"type":"Feature","geometry":{"type":"Point","coordinates":[132.7745173,33.81976294]},"properties":{"Name":"天山公園","Jusho":"愛媛県松山市天山3-130-2　外","kouzui":"×","gake":"○","takashio":"○","jishin":"○","tsunami":"○","kaji":"×","naisui":"×","kazan":"×"}}
,{"type":"Feature","geometry":{"type":"Point","coordinates":[132.7902555,33.79857037]},"properties":{"Name":"土居公園","Jusho":"愛媛県松山市土居町1026-1　外","kouzui":"×","gake":"○","takashio":"○","jishin":"○","tsunami":"○","kaji":"×","naisui":"×","kazan":"×"}}
,{"type":"Feature","geometry":{"type":"Point","coordinates":[132.7848807626,33.81483525775]},"properties":{"Name":"星ヶ岡公園（東山古墳公園）","Jusho":"愛媛県松山市星岡町、東石井町地内","kouzui":"×","gake":"○","takashio":"○","jishin":"○","tsunami":"○","kaji":"×","naisui":"×","kazan":"×"}}
,{"type":"Feature","geometry":{"type":"Point","coordinates":[132.7651795,33.8196643]},"properties":{"Name":"朝生田公園","Jusho":"愛媛県松山市朝生田町6丁目2番 外","kouzui":"×","gake":"○","takashio":"○","jishin":"○","tsunami":"○","kaji":"×","naisui":"×","kazan":"×"}}
,{"type":"Feature","geometry":{"type":"Point","coordinates":[132.7704908,33.81497964]},"properties":{"Name":"西石井公園","Jusho":"愛媛県松山市西石井5-325-1  外","kouzui":"×","gake":"○","takashio":"○","jishin":"○","tsunami":"○","kaji":"×","naisui":"×","kazan":"×"}}
,{"type":"Feature","geometry":{"type":"Point","coordinates":[132.7808397,33.81538576]},"properties":{"Name":"東山古墳公園 (星ヶ岡西公園)","Jusho":"愛媛県松山市東石井3丁目乙20","kouzui":"×","gake":"×","takashio":"○","jishin":"○","tsunami":"○","kaji":"×","naisui":"×","kazan":"×"}}
,{"type":"Feature","geometry":{"type":"Point","coordinates":[132.7566055,33.81917315]},"properties":{"Name":"和泉公園","Jusho":"愛媛県松山市和泉北3丁目669-2","kouzui":"×","gake":"○","takashio":"○","jishin":"○","tsunami":"○","kaji":"×","naisui":"×","kazan":"×"}}
,{"type":"Feature","geometry":{"type":"Point","coordinates":[132.7627644,33.81392043]},"properties":{"Name":"北古川公園","Jusho":"愛媛県松山市古川北1丁目135-1","kouzui":"×","gake":"○","takashio":"○","jishin":"○","tsunami":"○","kaji":"×","naisui":"×","kazan":"×"}}
,{"type":"Feature","geometry":{"type":"Point","coordinates":[132.7638528,33.80495561]},"properties":{"Name":"古川南公園","Jusho":"愛媛県松山市古川南3-792-2　外","kouzui":"×","gake":"○","takashio":"○","jishin":"○","tsunami":"○","kaji":"×","naisui":"×","kazan":"×"}}
,{"type":"Feature","geometry":{"type":"Point","coordinates":[132.7587037,33.80793499]},"properties":{"Name":"古川公園","Jusho":"愛媛県松山市古川西2丁目1044-1","kouzui":"×","gake":"○","takashio":"○","jishin":"○","tsunami":"○","kaji":"×","naisui":"×","kazan":"×"}}
,{"type":"Feature","geometry":{"type":"Point","coordinates":[132.790841,33.80460022]},"properties":{"Name":"今在家公園","Jusho":"愛媛県松山市今在家3-313-1  外","kouzui":"×","gake":"○","takashio":"○","jishin":"○","tsunami":"○","kaji":"×","naisui":"×","kazan":"×"}}
,{"type":"Feature","geometry":{"type":"Point","coordinates":[132.759143,33.815376]},"properties":{"Name":"和泉南公園","Jusho":"愛媛県松山市和泉南4丁目404","kouzui":"×","gake":"○","takashio":"○","jishin":"○","tsunami":"○","kaji":"×","naisui":"×","kazan":"×"}}
,{"type":"Feature","geometry":{"type":"Point","coordinates":[132.7720277,33.80880115]},"properties":{"Name":"椿公園","Jusho":"愛媛県松山市居相4-274-4","kouzui":"×","gake":"○","takashio":"○","jishin":"○","tsunami":"○","kaji":"×","naisui":"×","kazan":"×"}}
,{"type":"Feature","geometry":{"type":"Point","coordinates":[132.7791906,33.80603524]},"properties":{"Name":"白山の杜公園","Jusho":"愛媛県松山市北井門1-101-1","kouzui":"×","gake":"○","takashio":"○","jishin":"○","tsunami":"○","kaji":"×","naisui":"×","kazan":"×"}}
,{"type":"Feature","geometry":{"type":"Point","coordinates":[132.7802465,33.81036808]},"properties":{"Name":"越智公園","Jusho":"愛媛県松山市越智3-221-1 外","kouzui":"×","gake":"○","takashio":"○","jishin":"○","tsunami":"○","kaji":"×","naisui":"×","kazan":"×"}}
,{"type":"Feature","geometry":{"type":"Point","coordinates":[132.7852675,33.80759582]},"properties":{"Name":"北土居公園","Jusho":"愛媛県松山市北土居4丁目319-2","kouzui":"×","gake":"○","takashio":"○","jishin":"○","tsunami":"○","kaji":"×","naisui":"×","kazan":"×"}}
,{"type":"Feature","geometry":{"type":"Point","coordinates":[132.8215749,33.7689447]},"properties":{"Name":"東方中央公園","Jusho":"愛媛県松山市東方町甲1481-1 外","kouzui":"○","gake":"○","takashio":"○","jishin":"○","tsunami":"○","kaji":"×","naisui":"×","kazan":"×"}}
,{"type":"Feature","geometry":{"type":"Point","coordinates":[132.8217886,33.77657594]},"properties":{"Name":"政友公園","Jusho":"愛媛県松山市東方町2258-1 外","kouzui":"×","gake":"○","takashio":"○","jishin":"○","tsunami":"○","kaji":"×","naisui":"×","kazan":"×"}}
,{"type":"Feature","geometry":{"type":"Point","coordinates":[132.840148,33.77145982]},"properties":{"Name":"津吉公園","Jusho":"愛媛県松山市津吉町乙15","kouzui":"○","gake":"×","takashio":"○","jishin":"○","tsunami":"○","kaji":"×","naisui":"×","kazan":"×"}}
,{"type":"Feature","geometry":{"type":"Point","coordinates":[132.8287139,33.77907841]},"properties":{"Name":"中野公園","Jusho":"愛媛県松山市中野町甲307","kouzui":"×","gake":"○","takashio":"○","jishin":"○","tsunami":"○","kaji":"×","naisui":"×","kazan":"×"}}
,{"type":"Feature","geometry":{"type":"Point","coordinates":[132.8021323,33.76370423]},"properties":{"Name":"西野公園","Jusho":"愛媛県松山市西野町甲441","kouzui":"○","gake":"×","takashio":"○","jishin":"○","tsunami":"○","kaji":"×","naisui":"×","kazan":"×"}}
,{"type":"Feature","geometry":{"type":"Point","coordinates":[132.7983572,33.77503936]},"properties":{"Name":"上野団地公園","Jusho":"愛媛県松山市上野町乙107-17","kouzui":"○","gake":"○","takashio":"○","jishin":"○","tsunami":"○","kaji":"×","naisui":"×","kazan":"×"}}
,{"type":"Feature","geometry":{"type":"Point","coordinates":[132.8040489,33.77197594]},"properties":{"Name":"上野町中組公園","Jusho":"愛媛県松山市上野町504-4","kouzui":"○","gake":"○","takashio":"○","jishin":"○","tsunami":"○","kaji":"×","naisui":"×","kazan":"×"}}
,{"type":"Feature","geometry":{"type":"Point","coordinates":[132.809872,33.77645413]},"properties":{"Name":"上野町今市公園","Jusho":"愛媛県松山市上野町甲1434-2　外","kouzui":"×","gake":"○","takashio":"○","jishin":"○","tsunami":"○","kaji":"×","naisui":"×","kazan":"×"}}
,{"type":"Feature","geometry":{"type":"Point","coordinates":[132.7960291,33.76878309]},"properties":{"Name":"県立総合運動公園","Jusho":"愛媛県松山市上野町、西野町地内","kouzui":"○","gake":"○","takashio":"○","jishin":"○","tsunami":"○","kaji":"○","naisui":"×","kazan":"×"}}
,{"type":"Feature","geometry":{"type":"Point","coordinates":[132.8092623,33.76592346]},"properties":{"Name":"恵原公園","Jusho":"愛媛県松山市恵原町甲445-1","kouzui":"○","gake":"○","takashio":"○","jishin":"○","tsunami":"○","kaji":"×","naisui":"×","kazan":"×"}}
,{"type":"Feature","geometry":{"type":"Point","coordinates":[132.8197648,33.75556962]},"properties":{"Name":"浄瑠璃公園","Jusho":"愛媛県松山市浄瑠璃町甲1040-4","kouzui":"○","gake":"×","takashio":"○","jishin":"○","tsunami":"○","kaji":"×","naisui":"×","kazan":"×"}}
,{"type":"Feature","geometry":{"type":"Point","coordinates":[132.8414387,33.72368989]},"properties":{"Name":"奥久谷公園","Jusho":"愛媛県松山市久谷町乙1067-1","kouzui":"○","gake":"○","takashio":"○","jishin":"○","tsunami":"○","kaji":"×","naisui":"×","kazan":"×"}}
,{"type":"Feature","geometry":{"type":"Point","coordinates":[132.8309003,33.73565066]},"properties":{"Name":"山口公園","Jusho":"愛媛県松山市久谷町615-1　外","kouzui":"○","gake":"×","takashio":"○","jishin":"○","tsunami":"○","kaji":"×","naisui":"×","kazan":"×"}}
,{"type":"Feature","geometry":{"type":"Point","coordinates":[132.8382987,33.74042768]},"properties":{"Name":"窪野公園","Jusho":"愛媛県松山市窪野町甲295-1","kouzui":"○","gake":"×","takashio":"○","jishin":"○","tsunami":"○","kaji":"×","naisui":"×","kazan":"×"}}
,{"type":"Feature","geometry":{"type":"Point","coordinates":[132.7670261,33.82856506]},"properties":{"Name":"石手川緑地","Jusho":"愛媛県松山市石手川河川敷","kouzui":"×","gake":"○","takashio":"○","jishin":"○","tsunami":"○","kaji":"○","naisui":"×","kazan":"×"}}
,{"type":"Feature","geometry":{"type":"Point","coordinates":[132.8098342,33.78473989]},"properties":{"Name":"重信川緑地","Jusho":"愛媛県松山市重信川河川敷","kouzui":"×","gake":"○","takashio":"○","jishin":"○","tsunami":"○","kaji":"○","naisui":"×","kazan":"×"}}
,{"type":"Feature","geometry":{"type":"Point","coordinates":[132.7946356,34.00193294]},"properties":{"Name":"味栗公園","Jusho":"愛媛県松山市浅海原甲279-1外3","kouzui":"○","gake":"×","takashio":"○","jishin":"○","tsunami":"○","kaji":"×","naisui":"×","kazan":"×"}}
,{"type":"Feature","geometry":{"type":"Point","coordinates":[132.8439168,33.99163659]},"properties":{"Name":"小山田公園","Jusho":"愛媛県松山市小山田甲331-1外1","kouzui":"○","gake":"×","takashio":"○","jishin":"○","tsunami":"○","kaji":"×","naisui":"×","kazan":"×"}}
,{"type":"Feature","geometry":{"type":"Point","coordinates":[132.8286785,33.97542176]},"properties":{"Name":"尾儀原公園","Jusho":"愛媛県松山市尾儀原甲49-3外1","kouzui":"○","gake":"×","takashio":"○","jishin":"○","tsunami":"○","kaji":"×","naisui":"×","kazan":"×"}}
,{"type":"Feature","geometry":{"type":"Point","coordinates":[132.8023647,33.97190711]},"properties":{"Name":"庄公園","Jusho":"愛媛県松山市庄甲291","kouzui":"×","gake":"○","takashio":"○","jishin":"○","tsunami":"○","kaji":"×","naisui":"×","kazan":"×"}}
,{"type":"Feature","geometry":{"type":"Point","coordinates":[132.7895622,33.9781234]},"properties":{"Name":"中通みんなの広場","Jusho":"愛媛県松山市中通甲312-1外5","kouzui":"×","gake":"○","takashio":"○","jishin":"○","tsunami":"○","kaji":"×","naisui":"×","kazan":"×"}}
,{"type":"Feature","geometry":{"type":"Point","coordinates":[132.7736915,33.9835598]},"properties":{"Name":"北条公園 (法橋運動広場)","Jusho":"愛媛県松山市下難波甲18-10","kouzui":"×","gake":"○","takashio":"×","jishin":"○","tsunami":"○","kaji":"×","naisui":"×","kazan":"×"}}
,{"type":"Feature","geometry":{"type":"Point","coordinates":[132.786323,33.96179042]},"properties":{"Name":"正岡松尾公園","Jusho":"愛媛県松山市中西外686-1","kouzui":"○","gake":"○","takashio":"○","jishin":"○","tsunami":"○","kaji":"×","naisui":"×","kazan":"×"}}
,{"type":"Feature","geometry":{"type":"Point","coordinates":[132.7820238,33.95903592]},"properties":{"Name":"河野別府公園 (ゲートボール場)","Jusho":"愛媛県松山市中西外966 外　4","kouzui":"○","gake":"○","takashio":"○","jishin":"○","tsunami":"○","kaji":"×","naisui":"×","kazan":"×"}}
,{"type":"Feature","geometry":{"type":"Point","coordinates":[132.7832009,33.97923435]},"properties":{"Name":"風早タウン公園","Jusho":"愛媛県松山市北条20-152","kouzui":"×","gake":"○","takashio":"○","jishin":"○","tsunami":"○","kaji":"×","naisui":"×","kazan":"×"}}
,{"type":"Feature","geometry":{"type":"Point","coordinates":[132.7746232,33.96406846]},"properties":{"Name":"新開公園","Jusho":"愛媛県松山市北条辻961-1","kouzui":"×","gake":"○","takashio":"×","jishin":"○","tsunami":"×","kaji":"×","naisui":"×","kazan":"×"}}
,{"type":"Feature","geometry":{"type":"Point","coordinates":[132.7718928,33.96597713]},"properties":{"Name":"新開浜公園","Jusho":"愛媛県松山市北条辻1278","kouzui":"×","gake":"○","takashio":"×","jishin":"○","tsunami":"○","kaji":"×","naisui":"×","kazan":"×"}}
,{"type":"Feature","geometry":{"type":"Point","coordinates":[132.7736867,33.97595654]},"properties":{"Name":"東町浦公園","Jusho":"愛媛県松山市北条辻1443-11","kouzui":"×","gake":"○","takashio":"×","jishin":"○","tsunami":"×","kaji":"×","naisui":"×","kazan":"×"}}
,{"type":"Feature","geometry":{"type":"Point","coordinates":[132.78120240704,33.957390973022]},"properties":{"Name":"河野別府公園 (北条文化の森公園)","Jusho":"愛媛県松山市河野別府921-1","kouzui":"○","gake":"○","takashio":"○","jishin":"○","tsunami":"○","kaji":"×","naisui":"×","kazan":"×"}}
,{"type":"Feature","geometry":{"type":"Point","coordinates":[132.7732099,33.95962179]},"properties":{"Name":"西ノ下公園 (柳原末広第一公園)","Jusho":"愛媛県松山市柳原901","kouzui":"×","gake":"○","takashio":"×","jishin":"○","tsunami":"×","kaji":"×","naisui":"×","kazan":"×"}}
,{"type":"Feature","geometry":{"type":"Point","coordinates":[132.7930683,33.94961233]},"properties":{"Name":"善応寺農村公園","Jusho":"愛媛県松山市善応寺甲388","kouzui":"○","gake":"○","takashio":"○","jishin":"○","tsunami":"○","kaji":"×","naisui":"×","kazan":"×"}}
,{"type":"Feature","geometry":{"type":"Point","coordinates":[132.7695967,33.95134771]},"properties":{"Name":"河野公園","Jusho":"愛媛県松山市片山228-3","kouzui":"○","gake":"○","takashio":"×","jishin":"○","tsunami":"×","kaji":"×","naisui":"×","kazan":"×"}}
,{"type":"Feature","geometry":{"type":"Point","coordinates":[132.7678692,33.94512929]},"properties":{"Name":"河野中須賀緑地","Jusho":"愛媛県松山市河野中須賀316-2","kouzui":"○","gake":"○","takashio":"×","jishin":"○","tsunami":"×","kaji":"×","naisui":"×","kazan":"×"}}
,{"type":"Feature","geometry":{"type":"Point","coordinates":[132.7621713,33.92071111]},"properties":{"Name":"光洋台緑地Ａ","Jusho":"愛媛県松山市光洋台3-34","kouzui":"○","gake":"×","takashio":"○","jishin":"○","tsunami":"○","kaji":"×","naisui":"×","kazan":"×"}}
,{"type":"Feature","geometry":{"type":"Point","coordinates":[132.7617099,33.92309042]},"properties":{"Name":"光洋台緑地Ｂ","Jusho":"愛媛県松山市光洋台7-58","kouzui":"○","gake":"×","takashio":"○","jishin":"○","tsunami":"○","kaji":"×","naisui":"×","kazan":"×"}}
,{"type":"Feature","geometry":{"type":"Point","coordinates":[132.764934,33.92400512]},"properties":{"Name":"光洋台緑地Ｃ","Jusho":"愛媛県松山市光洋台1-68","kouzui":"○","gake":"×","takashio":"○","jishin":"○","tsunami":"○","kaji":"×","naisui":"×","kazan":"×"}}
,{"type":"Feature","geometry":{"type":"Point","coordinates":[132.7657698,33.93977683]},"properties":{"Name":"久保公園","Jusho":"愛媛県松山市久保399-1","kouzui":"○","gake":"○","takashio":"×","jishin":"○","tsunami":"×","kaji":"×","naisui":"×","kazan":"×"}}
,{"type":"Feature","geometry":{"type":"Point","coordinates":[132.7747488,33.93346794]},"properties":{"Name":"安岡避難地","Jusho":"愛媛県松山市安岡甲64","kouzui":"○","gake":"○","takashio":"○","jishin":"○","tsunami":"○","kaji":"×","naisui":"×","kazan":"×"}}
,{"type":"Feature","geometry":{"type":"Point","coordinates":[132.7726577,33.93905791]},"properties":{"Name":"泉団地緑地","Jusho":"愛媛県松山市鹿峰136-2外","kouzui":"○","gake":"○","takashio":"○","jishin":"○","tsunami":"○","kaji":"×","naisui":"×","kazan":"×"}}
,{"type":"Feature","geometry":{"type":"Point","coordinates":[132.7332534,33.8456354]},"properties":{"Name":"松山商業高等学校 第２グラウンド","Jusho":"愛媛県松山市南斎院町乙11-2外","kouzui":"○","gake":"○","takashio":"○","jishin":"○","tsunami":"○","kaji":"×","naisui":"×","kazan":"×"}}
,{"type":"Feature","geometry":{"type":"Point","coordinates":[132.7544919,33.86216559]},"properties":{"Name":"愛媛大学山越運動場","Jusho":"愛媛県松山市山越4-11-10","kouzui":"○","gake":"○","takashio":"○","jishin":"○","tsunami":"○","kaji":"×","naisui":"×","kazan":"×"}}
,{"type":"Feature","geometry":{"type":"Point","coordinates":[132.7376076,33.86474775]},"properties":{"Name":"松山大学 久万ノ台グラウンド","Jusho":"愛媛県松山市久万ノ台1644、西長戸461","kouzui":"○","gake":"○","takashio":"○","jishin":"○","tsunami":"○","kaji":"×","naisui":"×","kazan":"×"}}
,{"type":"Feature","geometry":{"type":"Point","coordinates":[132.73403318286,33.86059884887]},"properties":{"Name":"松山少年鑑別所敷地内駐車場","Jusho":"愛媛県松山市吉野町3860","kouzui":"○","gake":"○","takashio":"○","jishin":"○","tsunami":"○","kaji":"×","naisui":"×","kazan":"×"}}
,{"type":"Feature","geometry":{"type":"Point","coordinates":[132.6252388,33.9571415]},"properties":{"Name":"長師グラウンド","Jusho":"愛媛県松山市長師156-1","kouzui":"○","gake":"○","takashio":"×","jishin":"○","tsunami":"×","kaji":"×","naisui":"×","kazan":"×"}}
,{"type":"Feature","geometry":{"type":"Point","coordinates":[132.6051973,33.98420823]},"properties":{"Name":"西中港多目的広場","Jusho":"愛媛県松山市饒甲147-1","kouzui":"○","gake":"×","takashio":"×","jishin":"○","tsunami":"○","kaji":"×","naisui":"×","kazan":"×"}}
,{"type":"Feature","geometry":{"type":"Point","coordinates":[132.7663793,33.83917905]},"properties":{"Name":"番町小学校グラウンド","Jusho":"愛媛県松山市二番町4-6-1","kouzui":"×","gake":"○","takashio":"○","jishin":"○","tsunami":"○","kaji":"×","naisui":"×","kazan":"×"}}
,{"type":"Feature","geometry":{"type":"Point","coordinates":[132.7747155,33.84931674]},"properties":{"Name":"東雲小学校グラウンド","Jusho":"愛媛県松山市文京町2-1","kouzui":"×","gake":"○","takashio":"○","jishin":"○","tsunami":"○","kaji":"×","naisui":"×","kazan":"×"}}
,{"type":"Feature","geometry":{"type":"Point","coordinates":[132.7823088,33.83927572]},"properties":{"Name":"八坂小学校グラウンド","Jusho":"愛媛県松山市湯渡町4-20","kouzui":"×","gake":"○","takashio":"○","jishin":"○","tsunami":"○","kaji":"×","naisui":"×","kazan":"×"}}
,{"type":"Feature","geometry":{"type":"Point","coordinates":[132.7798746,33.83421725]},"properties":{"Name":"素鵞小学校グラウンド","Jusho":"愛媛県松山市小坂1-4-48","kouzui":"×","gake":"○","takashio":"○","jishin":"○","tsunami":"○","kaji":"×","naisui":"×","kazan":"×"}}
,{"type":"Feature","geometry":{"type":"Point","coordinates":[132.7581863,33.8318661]},"properties":{"Name":"雄郡小学校グラウンド","Jusho":"愛媛県松山市土橋町1","kouzui":"×","gake":"○","takashio":"○","jishin":"○","tsunami":"○","kaji":"×","naisui":"×","kazan":"×"}}
,{"type":"Feature","geometry":{"type":"Point","coordinates":[132.7534552,33.82343493]},"properties":{"Name":"双葉小学校グラウンド","Jusho":"愛媛県松山市土居田町123-3","kouzui":"×","gake":"○","takashio":"○","jishin":"○","tsunami":"○","kaji":"×","naisui":"×","kazan":"×"}}
,{"type":"Feature","geometry":{"type":"Point","coordinates":[132.7340215,33.82296491]},"properties":{"Name":"たちばな小学校グラウンド","Jusho":"愛媛県松山市針田町209-1","kouzui":"×","gake":"○","takashio":"○","jishin":"○","tsunami":"○","kaji":"×","naisui":"×","kazan":"×"}}
,{"type":"Feature","geometry":{"type":"Point","coordinates":[132.7538595,33.83620032]},"properties":{"Name":"新玉小学校グラウンド","Jusho":"愛媛県松山市千舟町8-89","kouzui":"×","gake":"○","takashio":"○","jishin":"○","tsunami":"○","kaji":"×","naisui":"×","kazan":"×"}}
,{"type":"Feature","geometry":{"type":"Point","coordinates":[132.7533506,33.84763794]},"properties":{"Name":"味酒小学校グラウンド","Jusho":"愛媛県松山市宮西2-2-21","kouzui":"×","gake":"○","takashio":"○","jishin":"○","tsunami":"○","kaji":"×","naisui":"×","kazan":"×"}}
,{"type":"Feature","geometry":{"type":"Point","coordinates":[132.7679934,33.85199769]},"properties":{"Name":"清水小学校グラウンド","Jusho":"愛媛県松山市清水町3-15","kouzui":"×","gake":"○","takashio":"○","jishin":"○","tsunami":"○","kaji":"×","naisui":"×","kazan":"×"}}
,{"type":"Feature","geometry":{"type":"Point","coordinates":[132.7635238,33.86440788]},"properties":{"Name":"姫山小学校グラウンド","Jusho":"愛媛県松山市山越3-800","kouzui":"○","gake":"×","takashio":"○","jishin":"○","tsunami":"○","kaji":"×","naisui":"×","kazan":"×"}}
,{"type":"Feature","geometry":{"type":"Point","coordinates":[132.7946,33.83471669]},"properties":{"Name":"桑原小学校グラウンド","Jusho":"愛媛県松山市桑原3-7-27","kouzui":"×","gake":"○","takashio":"○","jishin":"○","tsunami":"○","kaji":"×","naisui":"×","kazan":"×"}}
,{"type":"Feature","geometry":{"type":"Point","coordinates":[132.7917087,33.84498638]},"properties":{"Name":"道後小学校グラウンド","Jusho":"愛媛県松山市石手4-10-5","kouzui":"×","gake":"○","takashio":"○","jishin":"○","tsunami":"○","kaji":"×","naisui":"×","kazan":"×"}}
,{"type":"Feature","geometry":{"type":"Point","coordinates":[132.7777068,33.8534425]},"properties":{"Name":"湯築小学校グラウンド","Jusho":"愛媛県松山市道後北代10-41","kouzui":"×","gake":"○","takashio":"○","jishin":"○","tsunami":"○","kaji":"×","naisui":"×","kazan":"×"}}
,{"type":"Feature","geometry":{"type":"Point","coordinates":[132.7251856,33.84389353]},"properties":{"Name":"味生小学校グラウンド","Jusho":"愛媛県松山市別府町166-4","kouzui":"×","gake":"○","takashio":"○","jishin":"○","tsunami":"○","kaji":"×","naisui":"×","kazan":"×"}}
,{"type":"Feature","geometry":{"type":"Point","coordinates":[132.7287556,33.84435913]},"properties":{"Name":"味生第二小学校グラウンド","Jusho":"愛媛県松山市別府町3-1","kouzui":"○","gake":"×","takashio":"○","jishin":"○","tsunami":"○","kaji":"×","naisui":"×","kazan":"×"}}
,{"type":"Feature","geometry":{"type":"Point","coordinates":[132.71587,33.83218201]},"properties":{"Name":"生石小学校グラウンド","Jusho":"愛媛県松山市高岡町630-3","kouzui":"×","gake":"○","takashio":"○","jishin":"○","tsunami":"○","kaji":"×","naisui":"×","kazan":"×"}}
,{"type":"Feature","geometry":{"type":"Point","coordinates":[132.7058208,33.81365027]},"properties":{"Name":"垣生小学校グラウンド","Jusho":"愛媛県松山市西垣生町730-1","kouzui":"×","gake":"○","takashio":"×","jishin":"○","tsunami":"○","kaji":"×","naisui":"×","kazan":"×"}}
,{"type":"Feature","geometry":{"type":"Point","coordinates":[132.7202933,33.85889123]},"properties":{"Name":"宮前小学校グラウンド","Jusho":"愛媛県松山市祓川1-3-39","kouzui":"×","gake":"○","takashio":"×","jishin":"○","tsunami":"×","kaji":"×","naisui":"×","kazan":"×"}}
,{"type":"Feature","geometry":{"type":"Point","coordinates":[132.7147698,33.85926984]},"properties":{"Name":"三津浜小学校グラウンド","Jusho":"愛媛県松山市梅田町2-42","kouzui":"○","gake":"○","takashio":"×","jishin":"○","tsunami":"○","kaji":"×","naisui":"×","kazan":"×"}}
,{"type":"Feature","geometry":{"type":"Point","coordinates":[132.7089672,33.87587317]},"properties":{"Name":"高浜小学校グラウンド","Jusho":"愛媛県松山市梅津寺町1352-2","kouzui":"○","gake":"×","takashio":"○","jishin":"○","tsunami":"○","kaji":"×","naisui":"×","kazan":"×"}}
,{"type":"Feature","geometry":{"type":"Point","coordinates":[132.7395465,33.87019803]},"properties":{"Name":"久枝小学校グラウンド","Jusho":"愛媛県松山市安城寺町586-1","kouzui":"×","gake":"○","takashio":"○","jishin":"○","tsunami":"○","kaji":"×","naisui":"×","kazan":"×"}}
,{"type":"Feature","geometry":{"type":"Point","coordinates":[132.7399555,33.86630067]},"properties":{"Name":"みどり小学校グラウンド","Jusho":"愛媛県松山市西長戸町493-2","kouzui":"×","gake":"○","takashio":"○","jishin":"○","tsunami":"○","kaji":"×","naisui":"×","kazan":"×"}}
,{"type":"Feature","geometry":{"type":"Point","coordinates":[132.7548337,33.87364451]},"properties":{"Name":"潮見小学校グラウンド","Jusho":"愛媛県松山市吉藤4-7-13","kouzui":"○","gake":"○","takashio":"○","jishin":"○","tsunami":"○","kaji":"×","naisui":"×","kazan":"×"}}
,{"type":"Feature","geometry":{"type":"Point","coordinates":[132.7319359,33.88930744]},"properties":{"Name":"和気小学校グラウンド","Jusho":"愛媛県松山市太山寺町671-3","kouzui":"○","gake":"○","takashio":"×","jishin":"○","tsunami":"×","kaji":"×","naisui":"×","kazan":"×"}}
,{"type":"Feature","geometry":{"type":"Point","coordinates":[132.7578341,33.90170721]},"properties":{"Name":"堀江小学校グラウンド","Jusho":"愛媛県松山市福角町甲1409-2","kouzui":"○","gake":"○","takashio":"○","jishin":"○","tsunami":"○","kaji":"×","naisui":"×","kazan":"×"}}
,{"type":"Feature","geometry":{"type":"Point","coordinates":[132.7370471,33.81519844]},"properties":{"Name":"余土小学校グラウンド","Jusho":"愛媛県松山市余戸東1-14-17","kouzui":"×","gake":"○","takashio":"○","jishin":"○","tsunami":"○","kaji":"×","naisui":"×","kazan":"×"}}
,{"type":"Feature","geometry":{"type":"Point","coordinates":[132.7292239,33.81837418]},"properties":{"Name":"さくら小学校グラウンド","Jusho":"愛媛県松山市余戸中4-11-1","kouzui":"×","gake":"○","takashio":"○","jishin":"○","tsunami":"○","kaji":"×","naisui":"×","kazan":"×"}}
,{"type":"Feature","geometry":{"type":"Point","coordinates":[132.6714975,33.89361531]},"properties":{"Name":"興居島小学校グラウンド","Jusho":"愛媛県松山市泊町甲425-3","kouzui":"○","gake":"○","takashio":"×","jishin":"○","tsunami":"×","kaji":"×","naisui":"×","kazan":"×"}}
,{"type":"Feature","geometry":{"type":"Point","coordinates":[132.6376051,33.89461085]},"properties":{"Name":"興居島小学校 釣島分校グラウンド","Jusho":"愛媛県松山市泊町1465","kouzui":"○","gake":"○","takashio":"×","jishin":"○","tsunami":"×","kaji":"×","naisui":"×","kazan":"×"}}
,{"type":"Feature","geometry":{"type":"Point","coordinates":[132.816471,33.80127305]},"properties":{"Name":"窪田小学校グラウンド","Jusho":"愛媛県松山市久米窪田町307","kouzui":"×","gake":"○","takashio":"○","jishin":"○","tsunami":"○","kaji":"×","naisui":"×","kazan":"×"}}
,{"type":"Feature","geometry":{"type":"Point","coordinates":[132.7983449,33.82010828]},"properties":{"Name":"北久米小学校グラウンド","Jusho":"愛媛県松山市福音寺町9","kouzui":"○","gake":"○","takashio":"○","jishin":"○","tsunami":"○","kaji":"×","naisui":"×","kazan":"×"}}
,{"type":"Feature","geometry":{"type":"Point","coordinates":[132.7899311,33.82126506]},"properties":{"Name":"福音小学校グラウンド","Jusho":"愛媛県松山市福音寺町355-1","kouzui":"○","gake":"○","takashio":"○","jishin":"○","tsunami":"○","kaji":"×","naisui":"×","kazan":"×"}}
,{"type":"Feature","geometry":{"type":"Point","coordinates":[132.8066113,33.81116986]},"properties":{"Name":"久米小学校グラウンド","Jusho":"愛媛県松山市鷹子町15-1","kouzui":"×","gake":"○","takashio":"○","jishin":"○","tsunami":"○","kaji":"×","naisui":"×","kazan":"×"}}
,{"type":"Feature","geometry":{"type":"Point","coordinates":[132.8148064,33.86082877]},"properties":{"Name":"湯山小学校グラウンド","Jusho":"愛媛県松山市食場町甲128","kouzui":"○","gake":"×","takashio":"○","jishin":"○","tsunami":"○","kaji":"×","naisui":"×","kazan":"×"}}
,{"type":"Feature","geometry":{"type":"Point","coordinates":[132.8720182,33.90115037]},"properties":{"Name":"日浦小学校グラウンド","Jusho":"愛媛県松山市河中町甲79-2","kouzui":"○","gake":"×","takashio":"○","jishin":"○","tsunami":"○","kaji":"×","naisui":"×","kazan":"×"}}
,{"type":"Feature","geometry":{"type":"Point","coordinates":[132.79856139254,33.878151434945]},"properties":{"Name":"伊台小学校グラウンド","Jusho":"愛媛県松山市下伊台町1438-1","kouzui":"○","gake":"×","takashio":"○","jishin":"○","tsunami":"○","kaji":"×","naisui":"×","kazan":"×"}}
,{"type":"Feature","geometry":{"type":"Point","coordinates":[132.8188621,33.90319173]},"properties":{"Name":"五明小学校グラウンド","Jusho":"愛媛県松山市菅沢町乙45-4","kouzui":"○","gake":"×","takashio":"○","jishin":"○","tsunami":"○","kaji":"×","naisui":"×","kazan":"×"}}
,{"type":"Feature","geometry":{"type":"Point","coordinates":[132.8379784,33.80719829]},"properties":{"Name":"小野小学校グラウンド","Jusho":"愛媛県松山市平井町3673","kouzui":"×","gake":"○","takashio":"○","jishin":"○","tsunami":"○","kaji":"×","naisui":"×","kazan":"×"}}
,{"type":"Feature","geometry":{"type":"Point","coordinates":[132.7982332,33.79253482]},"properties":{"Name":"浮穴小学校グラウンド","Jusho":"愛媛県松山市森松町832","kouzui":"×","gake":"○","takashio":"○","jishin":"○","tsunami":"○","kaji":"×","naisui":"×","kazan":"×"}}
,{"type":"Feature","geometry":{"type":"Point","coordinates":[132.7761877,33.81100923]},"properties":{"Name":"石井小学校グラウンド","Jusho":"愛媛県松山市東石井6-8-52","kouzui":"×","gake":"○","takashio":"○","jishin":"○","tsunami":"○","kaji":"×","naisui":"×","kazan":"×"}}
,{"type":"Feature","geometry":{"type":"Point","coordinates":[132.7672823,33.81857226]},"properties":{"Name":"石井北小学校グラウンド","Jusho":"愛媛県松山市和泉南1-3-32","kouzui":"×","gake":"○","takashio":"○","jishin":"○","tsunami":"○","kaji":"×","naisui":"×","kazan":"×"}}
,{"type":"Feature","geometry":{"type":"Point","coordinates":[132.7600288,33.81063935]},"properties":{"Name":"椿小学校グラウンド","Jusho":"愛媛県松山市和泉南6-1-47","kouzui":"×","gake":"○","takashio":"○","jishin":"○","tsunami":"○","kaji":"×","naisui":"×","kazan":"×"}}
,{"type":"Feature","geometry":{"type":"Point","coordinates":[132.7870463,33.80769579]},"properties":{"Name":"石井東小学校グラウンド","Jusho":"愛媛県松山市越智1-3-35","kouzui":"×","gake":"○","takashio":"○","jishin":"○","tsunami":"○","kaji":"×","naisui":"×","kazan":"×"}}
,{"type":"Feature","geometry":{"type":"Point","coordinates":[132.8182109,33.76866834]},"properties":{"Name":"荏原小学校グラウンド","Jusho":"愛媛県松山市東方町甲1245","kouzui":"○","gake":"○","takashio":"○","jishin":"○","tsunami":"○","kaji":"×","naisui":"×","kazan":"×"}}
,{"type":"Feature","geometry":{"type":"Point","coordinates":[132.8258733,33.74905182]},"properties":{"Name":"坂本小学校グラウンド","Jusho":"愛媛県松山市久谷町30","kouzui":"○","gake":"○","takashio":"○","jishin":"○","tsunami":"○","kaji":"×","naisui":"×","kazan":"×"}}
,{"type":"Feature","geometry":{"type":"Point","coordinates":[132.8033118,34.00966597]},"properties":{"Name":"浅海小学校グラウンド","Jusho":"愛媛県松山市浅海本谷甲728","kouzui":"○","gake":"○","takashio":"×","jishin":"○","tsunami":"○","kaji":"×","naisui":"×","kazan":"×"}}
,{"type":"Feature","geometry":{"type":"Point","coordinates":[132.8358154,33.97546757]},"properties":{"Name":"立岩小学校グラウンド","Jusho":"愛媛県松山市猿川原甲49","kouzui":"○","gake":"○","takashio":"○","jishin":"○","tsunami":"○","kaji":"×","naisui":"×","kazan":"×"}}
,{"type":"Feature","geometry":{"type":"Point","coordinates":[132.7947686,33.9830289]},"properties":{"Name":"難波小学校グラウンド","Jusho":"愛媛県松山市中通甲807-1","kouzui":"○","gake":"○","takashio":"○","jishin":"○","tsunami":"○","kaji":"×","naisui":"×","kazan":"×"}}
,{"type":"Feature","geometry":{"type":"Point","coordinates":[132.7944248,33.97034254]},"properties":{"Name":"正岡小学校グラウンド","Jusho":"愛媛県松山市八反地甲160","kouzui":"×","gake":"○","takashio":"○","jishin":"○","tsunami":"○","kaji":"×","naisui":"×","kazan":"×"}}
,{"type":"Feature","geometry":{"type":"Point","coordinates":[132.7782795,33.97494905]},"properties":{"Name":"北条小学校グラウンド","Jusho":"愛媛県松山市北条辻64","kouzui":"×","gake":"○","takashio":"×","jishin":"○","tsunami":"○","kaji":"×","naisui":"×","kazan":"×"}}
,{"type":"Feature","geometry":{"type":"Point","coordinates":[132.7855949,33.95048211]},"properties":{"Name":"河野小学校グラウンド","Jusho":"愛媛県松山市宮内甲9-1","kouzui":"○","gake":"○","takashio":"○","jishin":"○","tsunami":"○","kaji":"×","naisui":"×","kazan":"×"}}
,{"type":"Feature","geometry":{"type":"Point","coordinates":[132.7760837,33.93409605]},"properties":{"Name":"粟井小学校グラウンド","Jusho":"愛媛県松山市常竹甲100","kouzui":"○","gake":"×","takashio":"○","jishin":"○","tsunami":"○","kaji":"×","naisui":"×","kazan":"×"}}
,{"type":"Feature","geometry":{"type":"Point","coordinates":[132.6646239,33.95760524]},"properties":{"Name":"睦月小学校グラウンド","Jusho":"愛媛県松山市睦月甲1068-6","kouzui":"○","gake":"×","takashio":"×","jishin":"○","tsunami":"×","kaji":"×","naisui":"×","kazan":"×"}}
,{"type":"Feature","geometry":{"type":"Point","coordinates":[132.6893998,33.97540793]},"properties":{"Name":"野忽那小学校グラウンド","Jusho":"愛媛県松山市野忽那甲1540-1","kouzui":"○","gake":"×","takashio":"×","jishin":"○","tsunami":"×","kaji":"×","naisui":"×","kazan":"×"}}
,{"type":"Feature","geometry":{"type":"Point","coordinates":[132.6258154,33.96266523]},"properties":{"Name":"中島小学校グラウンド","Jusho":"愛媛県松山市長師564","kouzui":"○","gake":"×","takashio":"○","jishin":"○","tsunami":"○","kaji":"×","naisui":"×","kazan":"×"}}
,{"type":"Feature","geometry":{"type":"Point","coordinates":[132.5490908,33.97296094]},"properties":{"Name":"怒和小学校グラウンド","Jusho":"愛媛県松山市元怒和甲8-2","kouzui":"○","gake":"×","takashio":"×","jishin":"○","tsunami":"×","kaji":"×","naisui":"×","kazan":"×"}}
,{"type":"Feature","geometry":{"type":"Point","coordinates":[132.5081317,33.97546507]},"properties":{"Name":"津和地小学校グラウンド","Jusho":"愛媛県松山市津和地1588-1","kouzui":"○","gake":"×","takashio":"×","jishin":"○","tsunami":"×","kaji":"×","naisui":"×","kazan":"×"}}
,{"type":"Feature","geometry":{"type":"Point","coordinates":[132.5444245,33.93506128]},"properties":{"Name":"二神小学校グラウンド","Jusho":"愛媛県松山市二神甲227","kouzui":"○","gake":"○","takashio":"×","jishin":"○","tsunami":"×","kaji":"×","naisui":"×","kazan":"×"}}
,{"type":"Feature","geometry":{"type":"Point","coordinates":[132.774879,33.85024931]},"properties":{"Name":"東中学校グラウンド","Jusho":"愛媛県松山市文京町2-2","kouzui":"×","gake":"○","takashio":"○","jishin":"○","tsunami":"○","kaji":"×","naisui":"×","kazan":"×"}}
,{"type":"Feature","geometry":{"type":"Point","coordinates":[132.783771,33.82830368]},"properties":{"Name":"拓南中学校グラウンド","Jusho":"愛媛県松山市枝松5-4-39","kouzui":"×","gake":"○","takashio":"○","jishin":"○","tsunami":"○","kaji":"×","naisui":"×","kazan":"×"}}
,{"type":"Feature","geometry":{"type":"Point","coordinates":[132.7471237,33.8343588]},"properties":{"Name":"城西中学校グラウンド","Jusho":"愛媛県松山市竹原3-19-35","kouzui":"×","gake":"○","takashio":"○","jishin":"○","tsunami":"○","kaji":"×","naisui":"×","kazan":"×"}}
,{"type":"Feature","geometry":{"type":"Point","coordinates":[132.7542923,33.82449068]},"properties":{"Name":"雄新中学校グラウンド","Jusho":"愛媛県松山市土居田町1","kouzui":"×","gake":"○","takashio":"○","jishin":"○","tsunami":"○","kaji":"×","naisui":"×","kazan":"×"}}
,{"type":"Feature","geometry":{"type":"Point","coordinates":[132.7636833,33.85194334]},"properties":{"Name":"勝山中学校グラウンド","Jusho":"愛媛県松山市清水町3-148-2","kouzui":"×","gake":"○","takashio":"○","jishin":"○","tsunami":"○","kaji":"×","naisui":"×","kazan":"×"}}
,{"type":"Feature","geometry":{"type":"Point","coordinates":[132.805795,33.83624435]},"properties":{"Name":"桑原中学校グラウンド","Jusho":"愛媛県松山市畑寺町丙238-28","kouzui":"○","gake":"×","takashio":"○","jishin":"○","tsunami":"○","kaji":"×","naisui":"×","kazan":"×"}}
,{"type":"Feature","geometry":{"type":"Point","coordinates":[132.7893687,33.84530121]},"properties":{"Name":"道後中学校グラウンド","Jusho":"愛媛県松山市上市1-3-57","kouzui":"×","gake":"○","takashio":"○","jishin":"○","tsunami":"○","kaji":"×","naisui":"×","kazan":"×"}}
,{"type":"Feature","geometry":{"type":"Point","coordinates":[132.7227946,33.83749793]},"properties":{"Name":"津田中学校グラウンド","Jusho":"愛媛県松山市北斎院町1106","kouzui":"×","gake":"×","takashio":"○","jishin":"○","tsunami":"○","kaji":"×","naisui":"×","kazan":"×"}}
,{"type":"Feature","geometry":{"type":"Point","coordinates":[132.7174712,33.82570951]},"properties":{"Name":"西中学校グラウンド","Jusho":"愛媛県松山市高岡町409","kouzui":"×","gake":"○","takashio":"×","jishin":"○","tsunami":"○","kaji":"×","naisui":"×","kazan":"×"}}
,{"type":"Feature","geometry":{"type":"Point","coordinates":[132.7060858,33.80917279]},"properties":{"Name":"垣生中学校グラウンド","Jusho":"愛媛県松山市西垣生町418","kouzui":"×","gake":"○","takashio":"×","jishin":"○","tsunami":"○","kaji":"×","naisui":"×","kazan":"×"}}
,{"type":"Feature","geometry":{"type":"Point","coordinates":[132.7183327,33.85604567]},"properties":{"Name":"三津浜中学校グラウンド","Jusho":"愛媛県松山市若葉町8-48","kouzui":"×","gake":"○","takashio":"×","jishin":"○","tsunami":"×","kaji":"×","naisui":"×","kazan":"×"}}
,{"type":"Feature","geometry":{"type":"Point","coordinates":[132.7102154,33.87565469]},"properties":{"Name":"高浜中学校グラウンド","Jusho":"愛媛県松山市梅津寺町乙52","kouzui":"○","gake":"×","takashio":"○","jishin":"○","tsunami":"○","kaji":"×","naisui":"×","kazan":"×"}}
,{"type":"Feature","geometry":{"type":"Point","coordinates":[132.7505726,33.87348578]},"properties":{"Name":"鴨川中学校グラウンド","Jusho":"愛媛県松山市鴨川2-7-19","kouzui":"○","gake":"○","takashio":"○","jishin":"○","tsunami":"○","kaji":"×","naisui":"×","kazan":"×"}}
,{"type":"Feature","geometry":{"type":"Point","coordinates":[132.7348915,33.88241632]},"properties":{"Name":"北中学校グラウンド","Jusho":"愛媛県松山市太山寺町491-1","kouzui":"○","gake":"○","takashio":"×","jishin":"○","tsunami":"○","kaji":"×","naisui":"×","kazan":"×"}}
,{"type":"Feature","geometry":{"type":"Point","coordinates":[132.74979,33.89363466]},"properties":{"Name":"内宮中学校グラウンド","Jusho":"愛媛県松山市内宮町569-1","kouzui":"○","gake":"○","takashio":"○","jishin":"○","tsunami":"○","kaji":"×","naisui":"×","kazan":"×"}}
,{"type":"Feature","geometry":{"type":"Point","coordinates":[132.74221284634,33.813759987112]},"properties":{"Name":"余土中学校グラウンド","Jusho":"愛媛県松山市保免西4-5-23","kouzui":"×","gake":"○","takashio":"○","jishin":"○","tsunami":"○","kaji":"×","naisui":"×","kazan":"×"}}
,{"type":"Feature","geometry":{"type":"Point","coordinates":[132.7541525,33.80868393]},"properties":{"Name":"椿中学校グラウンド","Jusho":"愛媛県松山市市坪南1-1-20","kouzui":"×","gake":"○","takashio":"○","jishin":"○","tsunami":"○","kaji":"×","naisui":"×","kazan":"×"}}
,{"type":"Feature","geometry":{"type":"Point","coordinates":[132.6713688,33.89365984]},"properties":{"Name":"興居島中学校グラウンド","Jusho":"愛媛県松山市泊町甲425-3","kouzui":"○","gake":"○","takashio":"×","jishin":"○","tsunami":"×","kaji":"×","naisui":"×","kazan":"×"}}
,{"type":"Feature","geometry":{"type":"Point","coordinates":[132.801856,33.80169403]},"properties":{"Name":"久米中学校グラウンド","Jusho":"愛媛県松山市来住町689","kouzui":"×","gake":"○","takashio":"○","jishin":"○","tsunami":"○","kaji":"×","naisui":"×","kazan":"×"}}
,{"type":"Feature","geometry":{"type":"Point","coordinates":[132.8058222,33.85265926]},"properties":{"Name":"湯山中学校グラウンド","Jusho":"愛媛県松山市溝辺町甲508-1","kouzui":"×","gake":"×","takashio":"○","jishin":"○","tsunami":"○","kaji":"×","naisui":"×","kazan":"×"}}
,{"type":"Feature","geometry":{"type":"Point","coordinates":[132.8708725,33.90178287]},"properties":{"Name":"日浦中学校グラウンド","Jusho":"愛媛県松山市河中町188-1","kouzui":"○","gake":"○","takashio":"○","jishin":"○","tsunami":"○","kaji":"×","naisui":"×","kazan":"×"}}
,{"type":"Feature","geometry":{"type":"Point","coordinates":[132.8025546,33.87387799]},"properties":{"Name":"旭中学校グラウンド","Jusho":"愛媛県松山市下伊台町1105-1","kouzui":"○","gake":"○","takashio":"○","jishin":"○","tsunami":"○","kaji":"×","naisui":"×","kazan":"×"}}
,{"type":"Feature","geometry":{"type":"Point","coordinates":[132.8369197,33.80757748]},"properties":{"Name":"小野中学校グラウンド","Jusho":"愛媛県松山市平井町3690","kouzui":"×","gake":"○","takashio":"○","jishin":"○","tsunami":"○","kaji":"×","naisui":"×","kazan":"×"}}
,{"type":"Feature","geometry":{"type":"Point","coordinates":[132.7923915,33.79595563]},"properties":{"Name":"南第二中学校グラウンド","Jusho":"愛媛県松山市森松町943","kouzui":"×","gake":"○","takashio":"○","jishin":"○","tsunami":"○","kaji":"×","naisui":"×","kazan":"×"}}
,{"type":"Feature","geometry":{"type":"Point","coordinates":[132.7755132,33.80683037]},"properties":{"Name":"南中学校グラウンド","Jusho":"愛媛県松山市東石井7-2-52","kouzui":"×","gake":"○","takashio":"○","jishin":"○","tsunami":"○","kaji":"×","naisui":"×","kazan":"×"}}
,{"type":"Feature","geometry":{"type":"Point","coordinates":[132.8188234,33.75860636]},"properties":{"Name":"久谷中学校グラウンド","Jusho":"愛媛県松山市浄瑠璃町940","kouzui":"○","gake":"○","takashio":"○","jishin":"○","tsunami":"○","kaji":"×","naisui":"×","kazan":"×"}}
,{"type":"Feature","geometry":{"type":"Point","coordinates":[132.7824409,33.97078105]},"properties":{"Name":"北条北中学校グラウンド","Jusho":"愛媛県松山市北条辻365","kouzui":"×","gake":"○","takashio":"×","jishin":"○","tsunami":"○","kaji":"×","naisui":"×","kazan":"×"}}
,{"type":"Feature","geometry":{"type":"Point","coordinates":[132.7804368,33.94629316]},"properties":{"Name":"北条南中学校グラウンド","Jusho":"愛媛県松山市河野別府12","kouzui":"○","gake":"×","takashio":"○","jishin":"○","tsunami":"○","kaji":"×","naisui":"×","kazan":"×"}}
,{"type":"Feature","geometry":{"type":"Point","coordinates":[132.6256057,33.96403979]},"properties":{"Name":"中島中学校グラウンド","Jusho":"愛媛県松山市長師817","kouzui":"○","gake":"×","takashio":"○","jishin":"○","tsunami":"○","kaji":"×","naisui":"×","kazan":"×"}}
,{"type":"Feature","geometry":{"type":"Point","coordinates":[132.7190167,33.8609669]},"properties":{"Name":"三津浜幼稚園グラウンド","Jusho":"愛媛県松山市神田町1-41","kouzui":"×","gake":"○","takashio":"×","jishin":"○","tsunami":"×","kaji":"×","naisui":"×","kazan":"×"}}
,{"type":"Feature","geometry":{"type":"Point","coordinates":[132.81877092023,33.903311938887]},"properties":{"Name":"五明幼稚園グラウンド","Jusho":"愛媛県松山市菅沢町乙45-4","kouzui":"○","gake":"×","takashio":"○","jishin":"○","tsunami":"○","kaji":"×","naisui":"×","kazan":"×"}}
,{"type":"Feature","geometry":{"type":"Point","coordinates":[132.7743209,33.81246776]},"properties":{"Name":"石井幼稚園グラウンド","Jusho":"愛媛県松山市西石井6-4-29","kouzui":"×","gake":"○","takashio":"○","jishin":"○","tsunami":"○","kaji":"×","naisui":"×","kazan":"×"}}
,{"type":"Feature","geometry":{"type":"Point","coordinates":[132.8168902,33.76879372]},"properties":{"Name":"荏原幼稚園グラウンド","Jusho":"愛媛県松山市東方町甲1493-3","kouzui":"○","gake":"○","takashio":"○","jishin":"○","tsunami":"○","kaji":"×","naisui":"×","kazan":"×"}}
,{"type":"Feature","geometry":{"type":"Point","coordinates":[132.8250742,33.74942514]},"properties":{"Name":"坂本幼稚園グラウンド","Jusho":"愛媛県松山市久谷町24","kouzui":"○","gake":"○","takashio":"○","jishin":"○","tsunami":"○","kaji":"×","naisui":"×","kazan":"×"}}
,{"type":"Feature","geometry":{"type":"Point","coordinates":[132.7809061,33.84019015]},"properties":{"Name":"八雲保育園グラウンド","Jusho":"愛媛県松山市此花町1-8","kouzui":"×","gake":"○","takashio":"○","jishin":"○","tsunami":"○","kaji":"×","naisui":"×","kazan":"×"}}
,{"type":"Feature","geometry":{"type":"Point","coordinates":[132.7759057,33.83041343]},"properties":{"Name":"松山保育園グラウンド","Jusho":"愛媛県松山市中村3-5-29","kouzui":"×","gake":"○","takashio":"○","jishin":"○","tsunami":"○","kaji":"×","naisui":"×","kazan":"×"}}
,{"type":"Feature","geometry":{"type":"Point","coordinates":[132.7462402,33.85096337]},"properties":{"Name":"朝美保育園グラウンド","Jusho":"愛媛県松山市美沢2-7-39","kouzui":"×","gake":"○","takashio":"○","jishin":"○","tsunami":"○","kaji":"×","naisui":"×","kazan":"×"}}
,{"type":"Feature","geometry":{"type":"Point","coordinates":[132.7554524,33.85633676]},"properties":{"Name":"山越保育園グラウンド","Jusho":"愛媛県松山市山越1-19-40","kouzui":"○","gake":"○","takashio":"○","jishin":"○","tsunami":"○","kaji":"×","naisui":"×","kazan":"×"}}
,{"type":"Feature","geometry":{"type":"Point","coordinates":[132.7945902,33.83247794]},"properties":{"Name":"桑原保育園グラウンド","Jusho":"愛媛県松山市桑原4-10-22","kouzui":"○","gake":"○","takashio":"○","jishin":"○","tsunami":"○","kaji":"×","naisui":"×","kazan":"×"}}
,{"type":"Feature","geometry":{"type":"Point","coordinates":[132.7891894,33.84951193]},"properties":{"Name":"道後保育園グラウンド","Jusho":"愛媛県松山市道後姫塚123-1","kouzui":"○","gake":"×","takashio":"○","jishin":"○","tsunami":"○","kaji":"×","naisui":"×","kazan":"×"}}
,{"type":"Feature","geometry":{"type":"Point","coordinates":[132.7250139,33.84283469]},"properties":{"Name":"味生保育園グラウンド","Jusho":"愛媛県松山市北斎院町759-1","kouzui":"×","gake":"○","takashio":"○","jishin":"○","tsunami":"○","kaji":"×","naisui":"×","kazan":"×"}}
,{"type":"Feature","geometry":{"type":"Point","coordinates":[132.7127646,33.83062292]},"properties":{"Name":"生石保育園グラウンド","Jusho":"愛媛県松山市高岡町860-1","kouzui":"×","gake":"○","takashio":"×","jishin":"○","tsunami":"○","kaji":"×","naisui":"×","kazan":"×"}}
,{"type":"Feature","geometry":{"type":"Point","coordinates":[132.7245173,33.86454994]},"properties":{"Name":"中須賀保育園グラウンド","Jusho":"愛媛県松山市中須賀1-12-17","kouzui":"×","gake":"○","takashio":"×","jishin":"○","tsunami":"×","kaji":"×","naisui":"×","kazan":"×"}}
,{"type":"Feature","geometry":{"type":"Point","coordinates":[132.7083056,33.89305823]},"properties":{"Name":"高浜保育園グラウンド","Jusho":"愛媛県松山市高浜町6-1674","kouzui":"○","gake":"×","takashio":"×","jishin":"○","tsunami":"×","kaji":"×","naisui":"×","kazan":"×"}}
,{"type":"Feature","geometry":{"type":"Point","coordinates":[132.7484575,33.90478898]},"properties":{"Name":"堀江保育園グラウンド","Jusho":"愛媛県松山市堀江町甲1654-9","kouzui":"○","gake":"○","takashio":"×","jishin":"○","tsunami":"×","kaji":"×","naisui":"×","kazan":"×"}}
,{"type":"Feature","geometry":{"type":"Point","coordinates":[132.73619834924,33.815938743553]},"properties":{"Name":"余土保育園グラウンド","Jusho":"愛媛県松山市余戸東4-1-19","kouzui":"×","gake":"○","takashio":"○","jishin":"○","tsunami":"○","kaji":"×","naisui":"×","kazan":"×"}}
,{"type":"Feature","geometry":{"type":"Point","coordinates":[132.6740224,33.9017054]},"properties":{"Name":"もものはなこども園グラウンド","Jusho":"愛媛県松山市由良町479","kouzui":"○","gake":"○","takashio":"×","jishin":"○","tsunami":"×","kaji":"×","naisui":"×","kazan":"×"}}
,{"type":"Feature","geometry":{"type":"Point","coordinates":[132.8063672,33.8099833]},"properties":{"Name":"久米保育園グラウンド","Jusho":"愛媛県松山市鷹子町4-4","kouzui":"×","gake":"○","takashio":"○","jishin":"○","tsunami":"○","kaji":"×","naisui":"×","kazan":"×"}}
,{"type":"Feature","geometry":{"type":"Point","coordinates":[132.8065088,33.85290874]},"properties":{"Name":"小百合保育園グラウンド","Jusho":"愛媛県松山市溝辺町甲528","kouzui":"×","gake":"○","takashio":"○","jishin":"○","tsunami":"○","kaji":"×","naisui":"×","kazan":"×"}}
,{"type":"Feature","geometry":{"type":"Point","coordinates":[132.7991308,33.87786589]},"properties":{"Name":"伊台保育園グラウンド","Jusho":"愛媛県松山市下伊台町1493-1","kouzui":"○","gake":"○","takashio":"○","jishin":"○","tsunami":"○","kaji":"×","naisui":"×","kazan":"×"}}
,{"type":"Feature","geometry":{"type":"Point","coordinates":[132.8361545,33.80952295]},"properties":{"Name":"平井保育園グラウンド","Jusho":"愛媛県松山市平井町甲118","kouzui":"×","gake":"○","takashio":"○","jishin":"○","tsunami":"○","kaji":"×","naisui":"×","kazan":"×"}}
,{"type":"Feature","geometry":{"type":"Point","coordinates":[132.7993685,33.79223645]},"properties":{"Name":"浮穴保育園グラウンド","Jusho":"愛媛県松山市南高井町1608-2","kouzui":"×","gake":"○","takashio":"○","jishin":"○","tsunami":"○","kaji":"×","naisui":"×","kazan":"×"}}
,{"type":"Feature","geometry":{"type":"Point","coordinates":[132.7751928,33.81238886]},"properties":{"Name":"石井保育園グラウンド","Jusho":"愛媛県松山市西石井6-4-34","kouzui":"×","gake":"○","takashio":"○","jishin":"○","tsunami":"○","kaji":"×","naisui":"×","kazan":"×"}}
,{"type":"Feature","geometry":{"type":"Point","coordinates":[132.7627923,33.81282758]},"properties":{"Name":"つばき保育園グラウンド","Jusho":"愛媛県松山市古川北2-18-30","kouzui":"×","gake":"○","takashio":"○","jishin":"○","tsunami":"○","kaji":"×","naisui":"×","kazan":"×"}}
,{"type":"Feature","geometry":{"type":"Point","coordinates":[132.8019187,34.00995715]},"properties":{"Name":"浅海保育園グラウンド","Jusho":"愛媛県松山市浅海本谷甲719-1","kouzui":"○","gake":"○","takashio":"×","jishin":"○","tsunami":"×","kaji":"×","naisui":"×","kazan":"×"}}
,{"type":"Feature","geometry":{"type":"Point","coordinates":[132.7904171,33.97082539]},"properties":{"Name":"国津保育園グラウンド","Jusho":"愛媛県松山市八反地甲1647","kouzui":"×","gake":"○","takashio":"○","jishin":"○","tsunami":"○","kaji":"×","naisui":"×","kazan":"×"}}
,{"type":"Feature","geometry":{"type":"Point","coordinates":[132.7735144472,33.936442475109]},"properties":{"Name":"粟井保育園グラウンド","Jusho":"愛媛県松山市鹿峰63-2","kouzui":"○","gake":"○","takashio":"○","jishin":"○","tsunami":"○","kaji":"×","naisui":"×","kazan":"×"}}
,{"type":"Feature","geometry":{"type":"Point","coordinates":[132.6291272,33.97398555]},"properties":{"Name":"中島こども園グラウンド","Jusho":"愛媛県松山市中島大浦3040-1","kouzui":"○","gake":"○","takashio":"×","jishin":"○","tsunami":"×","kaji":"×","naisui":"×","kazan":"×"}}
,{"type":"Feature","geometry":{"type":"Point","coordinates":[132.5427031,33.97541901]},"properties":{"Name":"元怒和保育所グラウンド","Jusho":"愛媛県松山市元怒和甲925-1","kouzui":"○","gake":"×","takashio":"×","jishin":"○","tsunami":"○","kaji":"×","naisui":"×","kazan":"×"}}
,{"type":"Feature","geometry":{"type":"Point","coordinates":[132.5126026,33.98211582]},"properties":{"Name":"津和地保育所グラウンド","Jusho":"愛媛県松山市津和地420","kouzui":"○","gake":"×","takashio":"×","jishin":"○","tsunami":"×","kaji":"×","naisui":"×","kazan":"×"}}
,{"type":"Feature","geometry":{"type":"Point","coordinates":[132.7773883,33.84001712]},"properties":{"Name":"松山商業高等学校 グラウンド","Jusho":"愛媛県松山市旭町71","kouzui":"×","gake":"○","takashio":"○","jishin":"○","tsunami":"○","kaji":"×","naisui":"×","kazan":"×"}}
,{"type":"Feature","geometry":{"type":"Point","coordinates":[132.7702944,33.84327615]},"properties":{"Name":"松山東雲中学・高等学校 グラウンド","Jusho":"愛媛県松山市大街道3-2-24","kouzui":"○","gake":"×","takashio":"○","jishin":"○","tsunami":"○","kaji":"×","naisui":"×","kazan":"×"}}
,{"type":"Feature","geometry":{"type":"Point","coordinates":[132.7788723,33.84220563]},"properties":{"Name":"松山東高等学校 グラウンド","Jusho":"愛媛県松山市持田町2-2-12","kouzui":"×","gake":"○","takashio":"○","jishin":"○","tsunami":"○","kaji":"×","naisui":"×","kazan":"×"}}
,{"type":"Feature","geometry":{"type":"Point","coordinates":[132.7689963,33.84975722]},"properties":{"Name":"松山北高等学校 グラウンド","Jusho":"愛媛県松山市文京町4-1","kouzui":"×","gake":"○","takashio":"○","jishin":"○","tsunami":"○","kaji":"×","naisui":"×","kazan":"×"}}
,{"type":"Feature","geometry":{"type":"Point","coordinates":[132.7664536,33.85004235]},"properties":{"Name":"学校法人松山大学 グラウンド","Jusho":"愛媛県松山市文京町4-2","kouzui":"×","gake":"○","takashio":"○","jishin":"○","tsunami":"○","kaji":"×","naisui":"×","kazan":"×"}}
,{"type":"Feature","geometry":{"type":"Point","coordinates":[132.7615597,33.83221767]},"properties":{"Name":"松山工業高等学校 グラウンド","Jusho":"愛媛県松山市真砂町1","kouzui":"×","gake":"○","takashio":"○","jishin":"○","tsunami":"○","kaji":"×","naisui":"×","kazan":"×"}}
,{"type":"Feature","geometry":{"type":"Point","coordinates":[132.7629596,33.83286936]},"properties":{"Name":"松山南高等学校 グラウンド","Jusho":"愛媛県松山市末広町11-1","kouzui":"×","gake":"○","takashio":"○","jishin":"○","tsunami":"○","kaji":"×","naisui":"×","kazan":"×"}}
,{"type":"Feature","geometry":{"type":"Point","coordinates":[132.764785,33.823214]},"properties":{"Name":"聖カタリナ学園高等学校 グラウンド","Jusho":"愛媛県松山市朝生田町4-9-9","kouzui":"×","gake":"○","takashio":"○","jishin":"○","tsunami":"○","kaji":"×","naisui":"×","kazan":"×"}}
,{"type":"Feature","geometry":{"type":"Point","coordinates":[132.7350722,33.84520539]},"properties":{"Name":"学校法人愛光学園 グラウンド","Jusho":"愛媛県松山市衣山5-1610-1","kouzui":"○","gake":"×","takashio":"○","jishin":"○","tsunami":"○","kaji":"×","naisui":"×","kazan":"×"}}
,{"type":"Feature","geometry":{"type":"Point","coordinates":[132.7655169,33.85501806]},"properties":{"Name":"学校法人松山大学 御幸キャンパスグラウンド","Jusho":"愛媛県松山市御幸1-320-1　外","kouzui":"○","gake":"×","takashio":"○","jishin":"○","tsunami":"○","kaji":"×","naisui":"×","kazan":"×"}}
,{"type":"Feature","geometry":{"type":"Point","coordinates":[132.7941717,33.83825519]},"properties":{"Name":"愛媛大学附属高等学校 グラウンド","Jusho":"愛媛県松山市樽味3-2-40","kouzui":"×","gake":"○","takashio":"○","jishin":"○","tsunami":"○","kaji":"×","naisui":"×","kazan":"×"}}
,{"type":"Feature","geometry":{"type":"Point","coordinates":[132.7965033,33.83288688]},"properties":{"Name":"松山東雲女子大学 ・短期大学グラウンド","Jusho":"愛媛県松山市桑原3-2-1","kouzui":"○","gake":"○","takashio":"○","jishin":"○","tsunami":"○","kaji":"×","naisui":"×","kazan":"×"}}
,{"type":"Feature","geometry":{"type":"Point","coordinates":[132.7888691,33.82817703]},"properties":{"Name":"愛媛慈恵会 地域交流ホームグラウンド","Jusho":"愛媛県松山市束本2-13-3","kouzui":"×","gake":"○","takashio":"○","jishin":"○","tsunami":"○","kaji":"×","naisui":"×","kazan":"×"}}
,{"type":"Feature","geometry":{"type":"Point","coordinates":[132.7837564,33.84350514]},"properties":{"Name":"愛媛大学教育学部附属 小学校グラウンド","Jusho":"愛媛県松山市持田町1-5-22","kouzui":"×","gake":"○","takashio":"○","jishin":"○","tsunami":"○","kaji":"×","naisui":"×","kazan":"×"}}
,{"type":"Feature","geometry":{"type":"Point","coordinates":[132.7825225,33.84190115]},"properties":{"Name":"愛媛大学教育学部附属 中学校グラウンド","Jusho":"愛媛県松山市持田町1-5-22","kouzui":"×","gake":"○","takashio":"○","jishin":"○","tsunami":"○","kaji":"×","naisui":"×","kazan":"×"}}
,{"type":"Feature","geometry":{"type":"Point","coordinates":[132.7261571,33.85163489]},"properties":{"Name":"学校法人新田学園 グラウンド","Jusho":"愛媛県松山市山西町663","kouzui":"×","gake":"×","takashio":"×","jishin":"○","tsunami":"○","kaji":"×","naisui":"×","kazan":"×"}}
,{"type":"Feature","geometry":{"type":"Point","coordinates":[132.7331803,33.82679938]},"properties":{"Name":"済美平成中等教育学校 グラウンド","Jusho":"愛媛県松山市空港通5-6-3","kouzui":"×","gake":"○","takashio":"○","jishin":"○","tsunami":"○","kaji":"×","naisui":"×","kazan":"×"}}
,{"type":"Feature","geometry":{"type":"Point","coordinates":[132.6982064,33.81281531]},"properties":{"Name":"木の実幼稚園グラウンド","Jusho":"愛媛県松山市西垣生町1690-1","kouzui":"×","gake":"○","takashio":"×","jishin":"○","tsunami":"×","kaji":"×","naisui":"×","kazan":"×"}}
,{"type":"Feature","geometry":{"type":"Point","coordinates":[132.74916703068,33.856428846184]},"properties":{"Name":"松山盲学校グラウンド","Jusho":"愛媛県松山市久万ノ台112","kouzui":"×","gake":"○","takashio":"○","jishin":"○","tsunami":"○","kaji":"×","naisui":"×","kazan":"×"}}
,{"type":"Feature","geometry":{"type":"Point","coordinates":[132.7411481,33.85678964]},"properties":{"Name":"学校法人松山聖陵学園 松山聖陵高等学校グラウンド","Jusho":"愛媛県松山市久万ノ台1112","kouzui":"○","gake":"○","takashio":"○","jishin":"○","tsunami":"○","kaji":"×","naisui":"×","kazan":"×"}}
,{"type":"Feature","geometry":{"type":"Point","coordinates":[132.7375535,33.85993135]},"properties":{"Name":"松山西中等教育学校 グラウンド","Jusho":"愛媛県松山市久万ノ台1485-4","kouzui":"○","gake":"○","takashio":"○","jishin":"○","tsunami":"○","kaji":"×","naisui":"×","kazan":"×"}}
,{"type":"Feature","geometry":{"type":"Point","coordinates":[132.7453131,33.88921748]},"properties":{"Name":"松山聾学校グラウンド","Jusho":"愛媛県松山市馬木町2325","kouzui":"○","gake":"○","takashio":"×","jishin":"○","tsunami":"○","kaji":"×","naisui":"×","kazan":"×"}}
,{"type":"Feature","geometry":{"type":"Point","coordinates":[132.7895775,33.81591438]},"properties":{"Name":"学校法人松山学院 松山学院高等学校グラウンド","Jusho":"愛媛県松山市北久米町815","kouzui":"×","gake":"×","takashio":"○","jishin":"○","tsunami":"○","kaji":"×","naisui":"×","kazan":"×"}}
,{"type":"Feature","geometry":{"type":"Point","coordinates":[132.7682185,33.80012386]},"properties":{"Name":"松山中央高等学校グラウンド","Jusho":"愛媛県松山市井門町1220","kouzui":"×","gake":"○","takashio":"○","jishin":"○","tsunami":"○","kaji":"×","naisui":"×","kazan":"×"}}
,{"type":"Feature","geometry":{"type":"Point","coordinates":[132.78108317116,33.975710335765]},"properties":{"Name":"聖カタリナ大学グラウンド","Jusho":"愛媛県松山市北条690","kouzui":"×","gake":"○","takashio":"×","jishin":"○","tsunami":"○","kaji":"×","naisui":"×","kazan":"×"}}
,{"type":"Feature","geometry":{"type":"Point","coordinates":[132.7753432,33.9691084]},"properties":{"Name":"北条高等学校グラウンド","Jusho":"愛媛県松山市北条辻600-1","kouzui":"×","gake":"○","takashio":"×","jishin":"○","tsunami":"○","kaji":"×","naisui":"×","kazan":"×"}}
,{"type":"Feature","geometry":{"type":"Point","coordinates":[132.62638,33.97321069]},"properties":{"Name":"松山北高等学校 中島分校グラウンド","Jusho":"愛媛県松山市中島大浦3100-1","kouzui":"○","gake":"×","takashio":"×","jishin":"○","tsunami":"○","kaji":"×","naisui":"×","kazan":"×"}}
,{"type":"Feature","geometry":{"type":"Point","coordinates":[132.8039559,33.82551562]},"properties":{"Name":"松山市畑寺福祉センター グラウンド","Jusho":"愛媛県松山市畑寺4-8-5","kouzui":"×","gake":"×","takashio":"○","jishin":"○","tsunami":"○","kaji":"×","naisui":"×","kazan":"×"}}
,{"type":"Feature","geometry":{"type":"Point","coordinates":[132.7257726,33.89832845]},"properties":{"Name":"和気公民館勝岡分館 グラウンド","Jusho":"愛媛県松山市勝岡町112","kouzui":"○","gake":"○","takashio":"×","jishin":"○","tsunami":"×","kaji":"×","naisui":"×","kazan":"×"}}
,{"type":"Feature","geometry":{"type":"Point","coordinates":[132.6801679,33.88116592]},"properties":{"Name":"泊小学校跡グラウンド","Jusho":"愛媛県松山市泊町618-1","kouzui":"○","gake":"×","takashio":"×","jishin":"○","tsunami":"×","kaji":"×","naisui":"×","kazan":"×"}}
,{"type":"Feature","geometry":{"type":"Point","coordinates":[132.6286402,33.96620363]},"properties":{"Name":"中島Ｂ＆Ｇ海洋センター グラウンド","Jusho":"愛媛県松山市小浜甲1101-1","kouzui":"○","gake":"×","takashio":"○","jishin":"○","tsunami":"○","kaji":"×","naisui":"×","kazan":"×"}}
,{"type":"Feature","geometry":{"type":"Point","coordinates":[132.6376181,33.99449384]},"properties":{"Name":"城山小学校跡グラウンド","Jusho":"愛媛県松山市中島粟井甲876","kouzui":"○","gake":"○","takashio":"○","jishin":"○","tsunami":"○","kaji":"×","naisui":"×","kazan":"×"}}
,{"type":"Feature","geometry":{"type":"Point","coordinates":[133.00495713717,34.062362040236]},"properties":{"Name":"吹揚小学校運動場","Jusho":"愛媛県今治市黄金町3-3","kouzui":"×","gake":"○","takashio":"×","jishin":"×","tsunami":"×","kaji":"×","naisui":"×","kazan":"×"}}
,{"type":"Feature","geometry":{"type":"Point","coordinates":[132.99849360506,34.061959155636]},"properties":{"Name":"旧日吉小学校運動場","Jusho":"愛媛県今治市南宝来町1-6-1","kouzui":"×","gake":"○","takashio":"×","jishin":"×","tsunami":"○","kaji":"×","naisui":"×","kazan":"×"}}
,{"type":"Feature","geometry":{"type":"Point","coordinates":[133.01307179232,34.059755834434]},"properties":{"Name":"旧城東小学校運動場","Jusho":"愛媛県今治市東門町4-3-16","kouzui":"×","gake":"○","takashio":"×","jishin":"×","tsunami":"×","kaji":"×","naisui":"×","kazan":"×"}}
,{"type":"Feature","geometry":{"type":"Point","coordinates":[132.99219370745,34.071105771022]},"properties":{"Name":"別宮小学校運動場","Jusho":"愛媛県今治市別宮町5-1-７","kouzui":"×","gake":"○","takashio":"×","jishin":"×","tsunami":"×","kaji":"×","naisui":"×","kazan":"×"}}
,{"type":"Feature","geometry":{"type":"Point","coordinates":[132.99316708506,34.072045704711]},"properties":{"Name":"中央体育館駐車場","Jusho":"愛媛県今治市別宮町6-2-2","kouzui":"×","gake":"○","takashio":"×","jishin":"×","tsunami":"×","kaji":"×","naisui":"×","kazan":"×"}}
,{"type":"Feature","geometry":{"type":"Point","coordinates":[132.9803670484,34.069267460288]},"properties":{"Name":"岡山理科大学今治キャンパスグラウンド","Jusho":"愛媛県今治市いこいの丘1-3","kouzui":"○","gake":"○","takashio":"×","jishin":"×","tsunami":"○","kaji":"×","naisui":"×","kazan":"×"}}
,{"type":"Feature","geometry":{"type":"Point","coordinates":[132.98966948318,34.059434287895]},"properties":{"Name":"常盤小学校運動場","Jusho":"愛媛県今治市中日吉町2-6-55","kouzui":"×","gake":"○","takashio":"×","jishin":"×","tsunami":"○","kaji":"×","naisui":"×","kazan":"×"}}
,{"type":"Feature","geometry":{"type":"Point","coordinates":[132.99280544853,34.061115815784]},"properties":{"Name":"日吉中学校運動場","Jusho":"愛媛県今治市中日吉町1-3-70","kouzui":"×","gake":"○","takashio":"×","jishin":"×","tsunami":"○","kaji":"×","naisui":"×","kazan":"×"}}
,{"type":"Feature","geometry":{"type":"Point","coordinates":[132.98874430012,34.065750192446]},"properties":{"Name":"今治北高等学校運動場","Jusho":"愛媛県今治市宮下町2-2-14","kouzui":"○","gake":"×","takashio":"×","jishin":"×","tsunami":"○","kaji":"×","naisui":"×","kazan":"×"}}
,{"type":"Feature","geometry":{"type":"Point","coordinates":[132.9869488169,34.057704452805]},"properties":{"Name":"今治西高等学校運動場","Jusho":"愛媛県今治市中日吉町3-5-47","kouzui":"×","gake":"○","takashio":"×","jishin":"×","tsunami":"○","kaji":"×","naisui":"×","kazan":"×"}}
,{"type":"Feature","geometry":{"type":"Point","coordinates":[132.989034662,34.055079729477]},"properties":{"Name":"今治南高等学校運動場","Jusho":"愛媛県今治市常盤町7-2-17","kouzui":"×","gake":"○","takashio":"×","jishin":"×","tsunami":"○","kaji":"×","naisui":"×","kazan":"×"}}
,{"type":"Feature","geometry":{"type":"Point","coordinates":[132.98556874107,34.089641261069]},