var fukui={"type":"FeatureCollection","name":"fukui","features":[
{"type":"Feature","geometry":{"type":"Point","coordinates":[136.220065449,36.0601126588]},"properties":{"Name":"柴田公園","Jusho":"福井県福井市中央1丁目21","kouzui":"×","gake":"×","takashio":"×","jishin":"○","tsunami":"×","kaji":"×","naisui":"×","kazan":"×"}}
,{"type":"Feature","geometry":{"type":"Point","coordinates":[136.213779,36.064895]},"properties":{"Name":"錦公園","Jusho":"福井県福井市順化2丁目11","kouzui":"×","gake":"×","takashio":"×","jishin":"○","tsunami":"×","kaji":"×","naisui":"×","kazan":"×"}}
,{"type":"Feature","geometry":{"type":"Point","coordinates":[136.21934087838,36.067897006048]},"properties":{"Name":"神明公園","Jusho":"福井県福井市宝永4丁目8","kouzui":"×","gake":"×","takashio":"×","jishin":"○","tsunami":"×","kaji":"×","naisui":"×","kazan":"×"}}
,{"type":"Feature","geometry":{"type":"Point","coordinates":[136.223649,36.068397]},"properties":{"Name":"御泉水公園","Jusho":"福井県福井市宝永3丁目12","kouzui":"×","gake":"×","takashio":"×","jishin":"○","tsunami":"×","kaji":"×","naisui":"×","kazan":"×"}}
,{"type":"Feature","geometry":{"type":"Point","coordinates":[136.22647839208,36.063428034566]},"properties":{"Name":"日之出公園","Jusho":"福井県福井市日之出1丁目15","kouzui":"×","gake":"×","takashio":"×","jishin":"○","tsunami":"×","kaji":"×","naisui":"×","kazan":"×"}}
,{"type":"Feature","geometry":{"type":"Point","coordinates":[136.21877677826,36.059186761709]},"properties":{"Name":"豊島公園","Jusho":"福井県福井市中央2丁目6","kouzui":"×","gake":"×","takashio":"×","jishin":"○","tsunami":"×","kaji":"×","naisui":"×","kazan":"×"}}
,{"type":"Feature","geometry":{"type":"Point","coordinates":[136.21289,36.05965]},"properties":{"Name":"左内公園","Jusho":"福井県福井市左内町7","kouzui":"×","gake":"○","takashio":"×","jishin":"○","tsunami":"×","kaji":"×","naisui":"×","kazan":"×"}}
,{"type":"Feature","geometry":{"type":"Point","coordinates":[136.209558,36.062828]},"properties":{"Name":"つくも公園","Jusho":"福井県福井市つくも2丁目9","kouzui":"×","gake":"○","takashio":"×","jishin":"○","tsunami":"×","kaji":"×","naisui":"×","kazan":"×"}}
,{"type":"Feature","geometry":{"type":"Point","coordinates":[136.209558,36.06636]},"properties":{"Name":"照手公園","Jusho":"福井県福井市照手2丁目3","kouzui":"×","gake":"×","takashio":"×","jishin":"○","tsunami":"×","kaji":"×","naisui":"×","kazan":"×"}}
,{"type":"Feature","geometry":{"type":"Point","coordinates":[136.211773334,36.067110394]},"properties":{"Name":"妙国公園","Jusho":"福井県福井市照手1丁目9","kouzui":"×","gake":"×","takashio":"×","jishin":"○","tsunami":"×","kaji":"×","naisui":"×","kazan":"×"}}
,{"type":"Feature","geometry":{"type":"Point","coordinates":[136.29132624926,36.06440196231]},"properties":{"Name":"河南公園","Jusho":"福井県福井市春山2丁目7","kouzui":"×","gake":"×","takashio":"×","jishin":"○","tsunami":"×","kaji":"×","naisui":"×","kazan":"×"}}
,{"type":"Feature","geometry":{"type":"Point","coordinates":[136.215077479,36.0712076968]},"properties":{"Name":"春山公園","Jusho":"福井県福井市田原2丁目2","kouzui":"×","gake":"×","takashio":"×","jishin":"○","tsunami":"×","kaji":"×","naisui":"×","kazan":"×"}}
,{"type":"Feature","geometry":{"type":"Point","coordinates":[136.217291,36.072167]},"properties":{"Name":"田原公園","Jusho":"福井県福井市田原1丁目6","kouzui":"×","gake":"×","takashio":"×","jishin":"○","tsunami":"×","kaji":"×","naisui":"×","kazan":"×"}}
,{"type":"Feature","geometry":{"type":"Point","coordinates":[136.221641,36.072402]},"properties":{"Name":"尾上公園","Jusho":"福井県福井市松本4丁目9","kouzui":"×","gake":"×","takashio":"×","jishin":"○","tsunami":"×","kaji":"×","naisui":"×","kazan":"×"}}
,{"type":"Feature","geometry":{"type":"Point","coordinates":[136.22932,36.06907]},"properties":{"Name":"松ヶ枝公園","Jusho":"福井県福井市宝永1丁目15","kouzui":"×","gake":"×","takashio":"×","jishin":"○","tsunami":"×","kaji":"×","naisui":"×","kazan":"×"}}
,{"type":"Feature","geometry":{"type":"Point","coordinates":[136.229053,36.061939]},"properties":{"Name":"白山公園","Jusho":"福井県福井市日之出3丁目3","kouzui":"×","gake":"×","takashio":"×","jishin":"○","tsunami":"×","kaji":"×","naisui":"×","kazan":"×"}}
,{"type":"Feature","geometry":{"type":"Point","coordinates":[136.227957,36.058434]},"properties":{"Name":"城勝公園","Jusho":"福井県福井市御幸1丁目10","kouzui":"×","gake":"×","takashio":"×","jishin":"○","tsunami":"×","kaji":"×","naisui":"×","kazan":"×"}}
,{"type":"Feature","geometry":{"type":"Point","coordinates":[136.216067,36.054877]},"properties":{"Name":"毛矢公園","Jusho":"福井県福井市西木田1丁目16","kouzui":"×","gake":"×","takashio":"×","jishin":"○","tsunami":"×","kaji":"×","naisui":"×","kazan":"×"}}
,{"type":"Feature","geometry":{"type":"Point","coordinates":[136.208237,36.059873]},"properties":{"Name":"緑公園","Jusho":"福井県福井市足羽1丁目18","kouzui":"×","gake":"×","takashio":"×","jishin":"○","tsunami":"×","kaji":"×","naisui":"×","kazan":"×"}}
,{"type":"Feature","geometry":{"type":"Point","coordinates":[136.206529,36.062959]},"properties":{"Name":"有楽公園","Jusho":"福井県福井市有楽町1","kouzui":"×","gake":"○","takashio":"×","jishin":"○","tsunami":"×","kaji":"×","naisui":"×","kazan":"×"}}
,{"type":"Feature","geometry":{"type":"Point","coordinates":[136.20762368782,36.0656514403]},"properties":{"Name":"三秀公園","Jusho":"福井県福井市照手3丁目1","kouzui":"×","gake":"×","takashio":"×","jishin":"○","tsunami":"×","kaji":"×","naisui":"×","kazan":"×"}}
,{"type":"Feature","geometry":{"type":"Point","coordinates":[136.205627,36.066752]},"properties":{"Name":"湊公園","Jusho":"福井県福井市照手4丁目7","kouzui":"×","gake":"×","takashio":"×","jishin":"○","tsunami":"×","kaji":"×","naisui":"×","kazan":"×"}}
,{"type":"Feature","geometry":{"type":"Point","coordinates":[136.205111,36.06942]},"properties":{"Name":"東明里公園","Jusho":"福井県福井市花月4丁目9","kouzui":"×","gake":"×","takashio":"×","jishin":"○","tsunami":"×","kaji":"×","naisui":"×","kazan":"×"}}
,{"type":"Feature","geometry":{"type":"Point","coordinates":[136.209075,36.071696]},"properties":{"Name":"乾公園","Jusho":"福井県福井市乾徳2丁目11","kouzui":"×","gake":"×","takashio":"×","jishin":"○","tsunami":"×","kaji":"×","naisui":"×","kazan":"×"}}
,{"type":"Feature","geometry":{"type":"Point","coordinates":[136.222318,36.075044]},"properties":{"Name":"松本公園","Jusho":"福井県福井市松本3丁目24","kouzui":"×","gake":"×","takashio":"×","jishin":"○","tsunami":"×","kaji":"×","naisui":"×","kazan":"×"}}
,{"type":"Feature","geometry":{"type":"Point","coordinates":[136.22940703,36.0737099691]},"properties":{"Name":"進放公園","Jusho":"福井県福井市松本1丁目24","kouzui":"×","gake":"×","takashio":"×","jishin":"○","tsunami":"×","kaji":"×","naisui":"×","kazan":"×"}}
,{"type":"Feature","geometry":{"type":"Point","coordinates":[136.233145,36.063509]},"properties":{"Name":"稲荷公園","Jusho":"福井県福井市日之出4丁目9","kouzui":"×","gake":"×","takashio":"×","jishin":"○","tsunami":"×","kaji":"×","naisui":"×","kazan":"×"}}
,{"type":"Feature","geometry":{"type":"Point","coordinates":[136.23327885392,36.061844230529]},"properties":{"Name":"城東公園","Jusho":"福井県福井市城東1丁目17","kouzui":"×","gake":"×","takashio":"×","jishin":"○","tsunami":"×","kaji":"×","naisui":"×","kazan":"×"}}
,{"type":"Feature","geometry":{"type":"Point","coordinates":[136.22112281485,36.05268054348]},"properties":{"Name":"春日公園","Jusho":"福井県福井市春日1丁目16","kouzui":"×","gake":"×","takashio":"×","jishin":"○","tsunami":"×","kaji":"×","naisui":"×","kazan":"×"}}
,{"type":"Feature","geometry":{"type":"Point","coordinates":[136.216292,36.052941]},"properties":{"Name":"豊公園","Jusho":"福井県福井市西木田1丁目11","kouzui":"×","gake":"×","takashio":"×","jishin":"○","tsunami":"×","kaji":"×","naisui":"×","kazan":"×"}}
,{"type":"Feature","geometry":{"type":"Point","coordinates":[136.21353779556,36.053188101678]},"properties":{"Name":"寿公園","Jusho":"福井県福井市西木田2丁目6","kouzui":"×","gake":"○","takashio":"×","jishin":"○","tsunami":"×","kaji":"×","naisui":"×","kazan":"×"}}
,{"type":"Feature","geometry":{"type":"Point","coordinates":[136.210460147,36.0542727467]},"properties":{"Name":"不動公園","Jusho":"福井県福井市西木田3丁目15","kouzui":"×","gake":"○","takashio":"×","jishin":"○","tsunami":"×","kaji":"×","naisui":"×","kazan":"×"}}
,{"type":"Feature","geometry":{"type":"Point","coordinates":[136.203855,36.06084]},"properties":{"Name":"桃園公園","Jusho":"福井県福井市足羽2丁目18","kouzui":"×","gake":"○","takashio":"×","jishin":"○","tsunami":"×","kaji":"×","naisui":"×","kazan":"×"}}
,{"type":"Feature","geometry":{"type":"Point","coordinates":[136.237592,36.071434]},"properties":{"Name":"志比口公園","Jusho":"福井県福井市志比口2丁目12","kouzui":"×","gake":"×","takashio":"×","jishin":"○","tsunami":"×","kaji":"×","naisui":"×","kazan":"×"}}
,{"type":"Feature","geometry":{"type":"Point","coordinates":[136.200278,36.069734]},"properties":{"Name":"丹鳥公園","Jusho":"福井県福井市学園2丁目3","kouzui":"×","gake":"×","takashio":"×","jishin":"○","tsunami":"×","kaji":"×","naisui":"×","kazan":"×"}}
,{"type":"Feature","geometry":{"type":"Point","coordinates":[136.23161208829,36.074382352487]},"properties":{"Name":"北弘公園","Jusho":"福井県福井市松本1丁目31","kouzui":"×","gake":"×","takashio":"×","jishin":"○","tsunami":"×","kaji":"×","naisui":"×","kazan":"×"}}
,{"type":"Feature","geometry":{"type":"Point","coordinates":[136.227441,36.083231]},"properties":{"Name":"大願寺公園","Jusho":"福井県福井市大願寺3丁目6","kouzui":"×","gake":"×","takashio":"×","jishin":"○","tsunami":"×","kaji":"×","naisui":"×","kazan":"×"}}
,{"type":"Feature","geometry":{"type":"Point","coordinates":[136.207496,36.080197]},"properties":{"Name":"牧の島公園","Jusho":"福井県福井市大宮4丁目4","kouzui":"×","gake":"×","takashio":"×","jishin":"○","tsunami":"×","kaji":"×","naisui":"×","kazan":"×"}}
,{"type":"Feature","geometry":{"type":"Point","coordinates":[136.21426,36.08173]},"properties":{"Name":"重藤公園","Jusho":"福井県福井市大宮3丁目19","kouzui":"×","gake":"×","takashio":"×","jishin":"○","tsunami":"×","kaji":"×","naisui":"×","kazan":"×"}}
,{"type":"Feature","geometry":{"type":"Point","coordinates":[136.218782823,36.0806298188]},"properties":{"Name":"経田公園","Jusho":"福井県福井市大宮2丁目5","kouzui":"×","gake":"×","takashio":"×","jishin":"○","tsunami":"×","kaji":"×","naisui":"×","kazan":"×"}}
,{"type":"Feature","geometry":{"type":"Point","coordinates":[136.22334015569,36.079593821323]},"properties":{"Name":"宮前公園","Jusho":"福井県福井市文京1丁目40","kouzui":"×","gake":"×","takashio":"×","jishin":"○","tsunami":"×","kaji":"×","naisui":"×","kazan":"×"}}
,{"type":"Feature","geometry":{"type":"Point","coordinates":[136.23636242,36.0736415622]},"properties":{"Name":"西開発公園","Jusho":"福井県福井市西開発1丁目601","kouzui":"×","gake":"○","takashio":"×","jishin":"○","tsunami":"×","kaji":"×","naisui":"×","kazan":"×"}}
,{"type":"Feature","geometry":{"type":"Point","coordinates":[136.22809378,36.052707559]},"properties":{"Name":"西板垣公園","Jusho":"福井県福井市西板垣町601","kouzui":"×","gake":"×","takashio":"×","jishin":"○","tsunami":"×","kaji":"×","naisui":"×","kazan":"×"}}
,{"type":"Feature","geometry":{"type":"Point","coordinates":[136.219708,36.04907]},"properties":{"Name":"木田公園","Jusho":"福井県福井市木田町60-2","kouzui":"×","gake":"×","takashio":"×","jishin":"○","tsunami":"×","kaji":"×","naisui":"×","kazan":"×"}}
,{"type":"Feature","geometry":{"type":"Point","coordinates":[136.20263,36.057231]},"properties":{"Name":"小山谷公園","Jusho":"福井県福井市足羽4丁目8","kouzui":"×","gake":"○","takashio":"×","jishin":"○","tsunami":"×","kaji":"×","naisui":"×","kazan":"×"}}
,{"type":"Feature","geometry":{"type":"Point","coordinates":[136.206593,36.084513]},"properties":{"Name":"福万公園","Jusho":"福井県福井市二の宮5丁目10","kouzui":"×","gake":"×","takashio":"×","jishin":"○","tsunami":"×","kaji":"×","naisui":"×","kazan":"×"}}
,{"type":"Feature","geometry":{"type":"Point","coordinates":[136.210009,36.084042]},"properties":{"Name":"二の宮公園","Jusho":"福井県福井市二の宮4丁目15","kouzui":"×","gake":"×","takashio":"×","jishin":"○","tsunami":"×","kaji":"×","naisui":"×","kazan":"×"}}
,{"type":"Feature","geometry":{"type":"Point","coordinates":[136.225476,36.087076]},"properties":{"Name":"幾久北公園","Jusho":"福井県福井市二の宮2丁目21","kouzui":"×","gake":"×","takashio":"×","jishin":"○","tsunami":"×","kaji":"×","naisui":"×","kazan":"×"}}
,{"type":"Feature","geometry":{"type":"Point","coordinates":[136.229348297,36.0867524561]},"properties":{"Name":"幾代公園","Jusho":"福井県福井市二の宮1丁目8","kouzui":"×","gake":"×","takashio":"×","jishin":"○","tsunami":"×","kaji":"×","naisui":"×","kazan":"×"}}
,{"type":"Feature","geometry":{"type":"Point","coordinates":[136.248041479,36.0621287867]},"properties":{"Name":"上北野公園","Jusho":"福井県福井市上北野1丁目4","kouzui":"×","gake":"×","takashio":"×","jishin":"○","tsunami":"×","kaji":"×","naisui":"×","kazan":"×"}}
,{"type":"Feature","geometry":{"type":"Point","coordinates":[136.190353,36.065653]},"properties":{"Name":"渡公園","Jusho":"福井県福井市渡町101","kouzui":"×","gake":"○","takashio":"×","jishin":"○","tsunami":"×","kaji":"×","naisui":"×","kazan":"×"}}
,{"type":"Feature","geometry":{"type":"Point","coordinates":[136.187711,36.063822]},"properties":{"Name":"河原公園","Jusho":"福井県福井市渡町355","kouzui":"×","gake":"○","takashio":"×","jishin":"○","tsunami":"×","kaji":"×","naisui":"×","kazan":"×"}}
,{"type":"Feature","geometry":{"type":"Point","coordinates":[136.183458,36.060657]},"properties":{"Name":"社北公園","Jusho":"福井県福井市渡町661","kouzui":"×","gake":"○","takashio":"×","jishin":"○","tsunami":"×","kaji":"×","naisui":"×","kazan":"×"}}
,{"type":"Feature","geometry":{"type":"Point","coordinates":[136.225734,36.096886]},"properties":{"Name":"高木公園","Jusho":"福井県福井市高木1丁目401","kouzui":"×","gake":"×","takashio":"×","jishin":"○","tsunami":"×","kaji":"×","naisui":"×","kazan":"×"}}
,{"type":"Feature","geometry":{"type":"Point","coordinates":[136.183715,36.048625]},"properties":{"Name":"道守公園","Jusho":"福井県福井市福新町2009","kouzui":"×","gake":"○","takashio":"×","jishin":"○","tsunami":"×","kaji":"×","naisui":"×","kazan":"×"}}
,{"type":"Feature","geometry":{"type":"Point","coordinates":[136.185133,36.048049]},"properties":{"Name":"福公園","Jusho":"福井県福井市福新町905","kouzui":"×","gake":"○","takashio":"×","jishin":"○","tsunami":"×","kaji":"×","naisui":"×","kazan":"×"}}
,{"type":"Feature","geometry":{"type":"Point","coordinates":[136.207077,36.027594]},"properties":{"Name":"下荒井公園","Jusho":"福井県福井市下荒井町4字75","kouzui":"×","gake":"○","takashio":"×","jishin":"○","tsunami":"×","kaji":"×","naisui":"×","kazan":"×"}}
,{"type":"Feature","geometry":{"type":"Point","coordinates":[136.222801,36.107636]},"properties":{"Name":"八重巻公園","Jusho":"福井県福井市栄町2字24","kouzui":"×","gake":"×","takashio":"×","jishin":"○","tsunami":"×","kaji":"×","naisui":"×","kazan":"×"}}
,{"type":"Feature","geometry":{"type":"Point","coordinates":[136.239847,36.115248]},"properties":{"Name":"栗森公園","Jusho":"福井県福井市栗森町浜226","kouzui":"×","gake":"×","takashio":"×","jishin":"○","tsunami":"×","kaji":"×","naisui":"×","kazan":"×"}}
,{"type":"Feature","geometry":{"type":"Point","coordinates":[136.181428,36.047866]},"properties":{"Name":"江守公園","Jusho":"福井県福井市運動公園2丁目1701","kouzui":"×","gake":"○","takashio":"×","jishin":"○","tsunami":"×","kaji":"×","naisui":"×","kazan":"×"}}
,{"type":"Feature","geometry":{"type":"Point","coordinates":[136.179462,36.049776]},"properties":{"Name":"社中央公園","Jusho":"福井県福井市運動公園1丁目4101","kouzui":"×","gake":"○","takashio":"×","jishin":"○","tsunami":"×","kaji":"×","naisui":"×","kazan":"×"}}
,{"type":"Feature","geometry":{"type":"Point","coordinates":[136.179740683,36.0526911989]},"properties":{"Name":"桜公園","Jusho":"福井県福井市運動公園1丁目1701","kouzui":"×","gake":"○","takashio":"×","jishin":"○","tsunami":"×","kaji":"×","naisui":"×","kazan":"×"}}
,{"type":"Feature","geometry":{"type":"Point","coordinates":[136.19828,36.071696]},"properties":{"Name":"境公園","Jusho":"福井県福井市日光2丁目23","kouzui":"×","gake":"×","takashio":"×","jishin":"○","tsunami":"×","kaji":"×","naisui":"×","kazan":"×"}}
,{"type":"Feature","geometry":{"type":"Point","coordinates":[136.20105117,36.0731083491]},"properties":{"Name":"日光公園","Jusho":"福井県福井市日光2丁目9","kouzui":"×","gake":"×","takashio":"×","jishin":"○","tsunami":"×","kaji":"×","naisui":"×","kazan":"×"}}
,{"type":"Feature","geometry":{"type":"Point","coordinates":[136.23584,36.05903]},"properties":{"Name":"城之橋公園","Jusho":"福井県福井市城東4丁目7","kouzui":"×","gake":"×","takashio":"×","jishin":"○","tsunami":"×","kaji":"×","naisui":"×","kazan":"×"}}
,{"type":"Feature","geometry":{"type":"Point","coordinates":[136.23969,36.05891]},"properties":{"Name":"下北野公園","Jusho":"福井県福井市城東4丁目23","kouzui":"×","gake":"×","takashio":"×","jishin":"○","tsunami":"×","kaji":"×","naisui":"×","kazan":"×"}}
,{"type":"Feature","geometry":{"type":"Point","coordinates":[136.23325,36.05433]},"properties":{"Name":"勝見公園","Jusho":"福井県福井市勝見3丁目18","kouzui":"×","gake":"×","takashio":"×","jishin":"○","tsunami":"×","kaji":"×","naisui":"×","kazan":"×"}}
,{"type":"Feature","geometry":{"type":"Point","coordinates":[136.235709,36.052132]},"properties":{"Name":"西方西公園","Jusho":"福井県福井市西方1丁目15","kouzui":"×","gake":"×","takashio":"×","jishin":"○","tsunami":"×","kaji":"×","naisui":"×","kazan":"×"}}
,{"type":"Feature","geometry":{"type":"Point","coordinates":[136.23975,36.0505]},"properties":{"Name":"西方東公園","Jusho":"福井県福井市西方2丁目23","kouzui":"×","gake":"×","takashio":"×","jishin":"○","tsunami":"×","kaji":"×","naisui":"×","kazan":"×"}}
,{"type":"Feature","geometry":{"type":"Point","coordinates":[136.235207,36.046768]},"properties":{"Name":"板垣公園","Jusho":"福井県福井市馬垣町1字下馬境403","kouzui":"×","gake":"×","takashio":"×","jishin":"○","tsunami":"×","kaji":"×","naisui":"×","kazan":"×"}}
,{"type":"Feature","geometry":{"type":"Point","coordinates":[136.237688,36.044832]},"properties":{"Name":"下馬公園","Jusho":"福井県福井市下馬1丁目401","kouzui":"×","gake":"×","takashio":"×","jishin":"○","tsunami":"×","kaji":"×","naisui":"×","kazan":"×"}}
,{"type":"Feature","geometry":{"type":"Point","coordinates":[136.220771,36.041719]},"properties":{"Name":"多郎丸公園","Jusho":"福井県福井市花堂東1丁目7","kouzui":"×","gake":"×","takashio":"×","jishin":"○","tsunami":"×","kaji":"×","naisui":"×","kazan":"×"}}
,{"type":"Feature","geometry":{"type":"Point","coordinates":[136.221061,36.03845]},"properties":{"Name":"来光寺公園","Jusho":"福井県福井市花堂東1丁目28","kouzui":"×","gake":"×","takashio":"×","jishin":"○","tsunami":"×","kaji":"×","naisui":"×","kazan":"×"}}
,{"type":"Feature","geometry":{"type":"Point","coordinates":[136.217614,36.039914]},"properties":{"Name":"琴田公園","Jusho":"福井県福井市花堂北1丁目16","kouzui":"×","gake":"○","takashio":"×","jishin":"○","tsunami":"×","kaji":"×","naisui":"×","kazan":"×"}}
,{"type":"Feature","geometry":{"type":"Point","coordinates":[136.210944,36.039548]},"properties":{"Name":"池田公園","Jusho":"福井県福井市花堂中2丁目7","kouzui":"×","gake":"○","takashio":"×","jishin":"○","tsunami":"×","kaji":"×","naisui":"×","kazan":"×"}}
,{"type":"Feature","geometry":{"type":"Point","coordinates":[136.216067,36.033924]},"properties":{"Name":"六反島公園","Jusho":"福井県福井市花堂南1丁目7","kouzui":"×","gake":"○","takashio":"×","jishin":"○","tsunami":"×","kaji":"×","naisui":"×","kazan":"×"}}
,{"type":"Feature","geometry":{"type":"Point","coordinates":[136.20814,36.030498]},"properties":{"Name":"大島公園","Jusho":"福井県福井市大島町7字山崎901","kouzui":"×","gake":"○","takashio":"×","jishin":"○","tsunami":"×","kaji":"×","naisui":"×","kazan":"×"}}
,{"type":"Feature","geometry":{"type":"Point","coordinates":[136.186487,36.035572]},"properties":{"Name":"種池公園","Jusho":"福井県福井市種池町3字丁田9","kouzui":"×","gake":"○","takashio":"×","jishin":"○","tsunami":"×","kaji":"×","naisui":"×","kazan":"×"}}
,{"type":"Feature","geometry":{"type":"Point","coordinates":[136.185584,36.039051]},"properties":{"Name":"商工公園","Jusho":"福井県福井市渕町20字19-6","kouzui":"×","gake":"○","takashio":"×","jishin":"○","tsunami":"×","kaji":"×","naisui":"×","kazan":"×"}}
,{"type":"Feature","geometry":{"type":"Point","coordinates":[136.177045,36.054537]},"properties":{"Name":"東下野公園","Jusho":"福井県福井市運動公園3丁目801","kouzui":"×","gake":"○","takashio":"×","jishin":"○","tsunami":"×","kaji":"×","naisui":"×","kazan":"×"}}
,{"type":"Feature","geometry":{"type":"Point","coordinates":[136.199214,36.058931]},"properties":{"Name":"南明里公園","Jusho":"福井県福井市明里町7","kouzui":"×","gake":"○","takashio":"×","jishin":"○","tsunami":"×","kaji":"×","naisui":"×","kazan":"×"}}
,{"type":"Feature","geometry":{"type":"Point","coordinates":[136.186293,36.067484]},"properties":{"Name":"西学園公園","Jusho":"福井県福井市西学園1丁目701","kouzui":"×","gake":"○","takashio":"×","jishin":"○","tsunami":"×","kaji":"×","naisui":"×","kazan":"×"}}
,{"type":"Feature","geometry":{"type":"Point","coordinates":[136.21271,36.08491]},"properties":{"Name":"喜多町公園","Jusho":"福井県福井市二の宮4丁目21","kouzui":"×","gake":"×","takashio":"×","jishin":"○","tsunami":"×","kaji":"×","naisui":"×","kazan":"×"}}
,{"type":"Feature","geometry":{"type":"Point","coordinates":[136.2093,36.088227]},"properties":{"Name":"新田塚公園","Jusho":"福井県福井市新田塚町604","kouzui":"×","gake":"×","takashio":"×","jishin":"○","tsunami":"×","kaji":"×","naisui":"×","kazan":"×"}}
,{"type":"Feature","geometry":{"type":"Point","coordinates":[136.227342166,36.114513783013]},"properties":{"Name":"えのはた公園","Jusho":"福井県福井市上森田1丁目201","kouzui":"×","gake":"×","takashio":"×","jishin":"○","tsunami":"×","kaji":"×","naisui":"×","kazan":"×"}}
,{"type":"Feature","geometry":{"type":"Point","coordinates":[136.23028709068,36.112648067755]},"properties":{"Name":"亀田公園","Jusho":"福井県福井市上森田2丁目601","kouzui":"×","gake":"×","takashio":"×","jishin":"○","tsunami":"×","kaji":"×","naisui":"×","kazan":"×"}}
,{"type":"Feature","geometry":{"type":"Point","coordinates":[136.233242,36.11326]},"properties":{"Name":"上森田公園","Jusho":"福井県福井市上森田3丁目601","kouzui":"×","gake":"×","takashio":"×","jishin":"○","tsunami":"×","kaji":"×","naisui":"×","kazan":"×"}}
,{"type":"Feature","geometry":{"type":"Point","coordinates":[136.23197337059,36.110539919334]},"properties":{"Name":"ひえまき公園","Jusho":"福井県福井市上森田3丁目1601","kouzui":"×","gake":"×","takashio":"×","jishin":"○","tsunami":"×","kaji":"×","naisui":"×","kazan":"×"}}
,{"type":"Feature","geometry":{"type":"Point","coordinates":[136.235014,36.10952]},"properties":{"Name":"九頭竜公園","Jusho":"福井県福井市上森田5丁目701","kouzui":"×","gake":"×","takashio":"×","jishin":"○","tsunami":"×","kaji":"×","naisui":"×","kazan":"×"}}
,{"type":"Feature","geometry":{"type":"Point","coordinates":[136.241619,36.114228]},"properties":{"Name":"浜公園","Jusho":"福井県福井市栗森町浜604","kouzui":"×","gake":"×","takashio":"×","jishin":"○","tsunami":"×","kaji":"×","naisui":"×","kazan":"×"}}
,{"type":"Feature","geometry":{"type":"Point","coordinates":[136.22623468688,36.103340072229]},"properties":{"Name":"古市公園","Jusho":"福井県福井市古市3丁目902","kouzui":"×","gake":"×","takashio":"×","jishin":"○","tsunami":"×","kaji":"×","naisui":"×","kazan":"×"}}
,{"type":"Feature","geometry":{"type":"Point","coordinates":[136.23134,36.099658]},"properties":{"Name":"舟橋公園","Jusho":"福井県福井市高木北2丁目1012","kouzui":"×","gake":"×","takashio":"×","jishin":"○","tsunami":"×","kaji":"×","naisui":"×","kazan":"×"}}
,{"type":"Feature","geometry":{"type":"Point","coordinates":[136.232269748,36.0974798963]},"properties":{"Name":"中藤公園","Jusho":"福井県福井市高木北2丁目109","kouzui":"×","gake":"×","takashio":"×","jishin":"○","tsunami":"×","kaji":"×","naisui":"×","kazan":"×"}}
,{"type":"Feature","geometry":{"type":"Point","coordinates":[136.25177687,36.0711865778]},"properties":{"Name":"南四ツ居公園","Jusho":"福井県福井市南四ツ居町1字山口108","kouzui":"×","gake":"×","takashio":"×","jishin":"○","tsunami":"×","kaji":"×","naisui":"×","kazan":"×"}}
,{"type":"Feature","geometry":{"type":"Point","coordinates":[136.257183,36.055975]},"properties":{"Name":"問屋公園","Jusho":"福井県福井市問屋2丁目54","kouzui":"×","gake":"×","takashio":"×","jishin":"○","tsunami":"×","kaji":"×","naisui":"×","kazan":"×"}}
,{"type":"Feature","geometry":{"type":"Point","coordinates":[136.2394348221,36.077047370701]},"properties":{"Name":"芝原公園","Jusho":"福井県福井市開発1丁目301","kouzui":"×","gake":"○","takashio":"×","jishin":"○","tsunami":"×","kaji":"×","naisui":"×","kazan":"×"}}
,{"type":"Feature","geometry":{"type":"Point","coordinates":[136.238687,36.081296]},"properties":{"Name":"緑ヶ丘公園","Jusho":"福井県福井市開発4丁目701","kouzui":"×","gake":"○","takashio":"×","jishin":"○","tsunami":"×","kaji":"×","naisui":"×","kazan":"×"}}
,{"type":"Feature","geometry":{"type":"Point","coordinates":[136.233693,36.093773]},"properties":{"Name":"光公園","Jusho":"福井県福井市高木中央2丁目901","kouzui":"×","gake":"×","takashio":"×","jishin":"○","tsunami":"×","kaji":"×","naisui":"×","kazan":"×"}}
,{"type":"Feature","geometry":{"type":"Point","coordinates":[136.20510256679,36.049306262826]},"properties":{"Name":"月見公園","Jusho":"福井県福井市みのり4丁目7","kouzui":"×","gake":"○","takashio":"×","jishin":"○","tsunami":"×","kaji":"×","naisui":"×","kazan":"×"}}
,{"type":"Feature","geometry":{"type":"Point","coordinates":[136.244809,36.088515]},"properties":{"Name":"市場公園","Jusho":"福井県福井市高柳町44字左来1番7","kouzui":"×","gake":"×","takashio":"×","jishin":"○","tsunami":"×","kaji":"×","naisui":"×","kazan":"×"}}
,{"type":"Feature","geometry":{"type":"Point","coordinates":[136.245035,36.069865]},"properties":{"Name":"円山公園","Jusho":"福井県福井市円山1丁目1008","kouzui":"×","gake":"×","takashio":"×","jishin":"○","tsunami":"×","kaji":"×","naisui":"×","kazan":"×"}}
,{"type":"Feature","geometry":{"type":"Point","coordinates":[136.245050536,36.0585842143]},"properties":{"Name":"北公園","Jusho":"福井県福井市成和1丁目301","kouzui":"×","gake":"×","takashio":"×","jishin":"○","tsunami":"×","kaji":"×","naisui":"×","kazan":"×"}}
,{"type":"Feature","geometry":{"type":"Point","coordinates":[136.20582768272,36.076298496632]},"properties":{"Name":"丸田公園","Jusho":"福井県福井市文京5丁目9","kouzui":"×","gake":"×","takashio":"×","jishin":"○","tsunami":"×","kaji":"×","naisui":"×","kazan":"×"}}
,{"type":"Feature","geometry":{"type":"Point","coordinates":[136.19847,36.08051]},"properties":{"Name":"夕道公園","Jusho":"福井県福井市大宮6丁目12","kouzui":"×","gake":"×","takashio":"×","jishin":"○","tsunami":"×","kaji":"×","naisui":"×","kazan":"×"}}
,{"type":"Feature","geometry":{"type":"Point","coordinates":[136.198409,36.077817]},"properties":{"Name":"川田公園","Jusho":"福井県福井市文京6丁目32","kouzui":"×","gake":"×","takashio":"×","jishin":"○","tsunami":"×","kaji":"×","naisui":"×","kazan":"×"}}
,{"type":"Feature","geometry":{"type":"Point","coordinates":[136.19931,36.07535]},"properties":{"Name":"西端公園","Jusho":"福井県福井市文京6丁目12","kouzui":"×","gake":"×","takashio":"×","jishin":"○","tsunami":"×","kaji":"×","naisui":"×","kazan":"×"}}
,{"type":"Feature","geometry":{"type":"Point","coordinates":[136.1953,36.0772]},"properties":{"Name":"太田公園","Jusho":"福井県福井市文京7丁目16","kouzui":"×","gake":"○","takashio":"×","jishin":"○","tsunami":"×","kaji":"×","naisui":"×","kazan":"×"}}
,{"type":"Feature","geometry":{"type":"Point","coordinates":[136.233854,36.068452]},"properties":{"Name":"金町公園","Jusho":"福井県福井市志比口1丁目9","kouzui":"×","gake":"×","takashio":"×","jishin":"○","tsunami":"×","kaji":"×","naisui":"×","kazan":"×"}}
,{"type":"Feature","geometry":{"type":"Point","coordinates":[136.235658,36.065863]},"properties":{"Name":"四ツ井公園","Jusho":"福井県福井市四ツ井1丁目8","kouzui":"×","gake":"×","takashio":"×","jishin":"○","tsunami":"×","kaji":"×","naisui":"×","kazan":"×"}}
,{"type":"Feature","geometry":{"type":"Point","coordinates":[136.242683,36.060317]},"properties":{"Name":"荒川公園","Jusho":"福井県福井市南四ツ居2丁目4","kouzui":"×","gake":"×","takashio":"×","jishin":"○","tsunami":"×","kaji":"×","naisui":"×","kazan":"×"}}
,{"type":"Feature","geometry":{"type":"Point","coordinates":[136.243166,36.065366]},"properties":{"Name":"北四ツ居公園","Jusho":"福井県福井市北四ツ居1丁目3","kouzui":"×","gake":"×","takashio":"×","jishin":"○","tsunami":"×","kaji":"×","naisui":"×","kazan":"×"}}
,{"type":"Feature","geometry":{"type":"Point","coordinates":[136.241362,36.068138]},"properties":{"Name":"中島公園","Jusho":"福井県福井市米松2丁目3","kouzui":"×","gake":"×","takashio":"×","jishin":"○","tsunami":"×","kaji":"×","naisui":"×","kazan":"×"}}
,{"type":"Feature","geometry":{"type":"Point","coordinates":[136.240975,36.071565]},"properties":{"Name":"平岡公園","Jusho":"福井県福井市米松2丁目14","kouzui":"×","gake":"×","takashio":"×","jishin":"○","tsunami":"×","kaji":"×","naisui":"×","kazan":"×"}}
,{"type":"Feature","geometry":{"type":"Point","coordinates":[136.186229,36.002038]},"properties":{"Name":"杉の木台公園","Jusho":"福井県福井市中野2丁目901","kouzui":"○","gake":"○","takashio":"×","jishin":"○","tsunami":"×","kaji":"×","naisui":"×","kazan":"×"}}
,{"type":"Feature","geometry":{"type":"Point","coordinates":[136.18744148597,35.999492854617]},"properties":{"Name":"立花公園","Jusho":"福井県福井市三十八社町709","kouzui":"○","gake":"○","takashio":"×","jishin":"○","tsunami":"×","kaji":"×","naisui":"×","kazan":"×"}}
,{"type":"Feature","geometry":{"type":"Point","coordinates":[136.180494768,36.0413339377]},"properties":{"Name":"希望ヶ丘公園","Jusho":"福井県福井市下江守町53字モクロシ23-2","kouzui":"×","gake":"○","takashio":"×","jishin":"○","tsunami":"×","kaji":"×","naisui":"×","kazan":"×"}}
,{"type":"Feature","geometry":{"type":"Point","coordinates":[136.2486198293,36.069764032487]},"properties":{"Name":"丸山公園","Jusho":"福井県福井市北四ツ居町30字円命102","kouzui":"×","gake":"×","takashio":"×","jishin":"○","tsunami":"×","kaji":"×","naisui":"×","kazan":"×"}}
,{"type":"Feature","geometry":{"type":"Point","coordinates":[136.23106,36.08196]},"properties":{"Name":"大江田公園","Jusho":"福井県福井市大願寺1丁目6","kouzui":"×","gake":"×","takashio":"×","jishin":"○","tsunami":"×","kaji":"×","naisui":"×","kazan":"×"}}
,{"type":"Feature","geometry":{"type":"Point","coordinates":[136.186938,36.061521]},"properties":{"Name":"若杉浜公園","Jusho":"福井県福井市若杉浜2丁目402","kouzui":"×","gake":"○","takashio":"×","jishin":"○","tsunami":"×","kaji":"×","naisui":"×","kazan":"×"}}
,{"type":"Feature","geometry":{"type":"Point","coordinates":[136.21838028479,36.104860825571]},"properties":{"Name":"天池公園","Jusho":"福井県福井市天池町38字41-11","kouzui":"×","gake":"×","takashio":"×","jishin":"○","tsunami":"×","kaji":"×","naisui":"×","kazan":"×"}}
,{"type":"Feature","geometry":{"type":"Point","coordinates":[136.193124,36.068426]},"properties":{"Name":"豊岡公園","Jusho":"福井県福井市豊岡1丁目5","kouzui":"×","gake":"○","takashio":"×","jishin":"○","tsunami":"×","kaji":"×","naisui":"×","kazan":"×"}}
,{"type":"Feature","geometry":{"type":"Point","coordinates":[136.191932,36.073265]},"properties":{"Name":"三条公園","Jusho":"福井県福井市菅谷2丁目8","kouzui":"×","gake":"○","takashio":"×","jishin":"○","tsunami":"×","kaji":"×","naisui":"×","kazan":"×"}}
,{"type":"Feature","geometry":{"type":"Point","coordinates":[136.19951,36.06491]},"properties":{"Name":"御蔵公園","Jusho":"福井県福井市光陽2丁目20","kouzui":"×","gake":"×","takashio":"×","jishin":"○","tsunami":"×","kaji":"×","naisui":"×","kazan":"×"}}
,{"type":"Feature","geometry":{"type":"Point","coordinates":[136.196282,36.066098]},"properties":{"Name":"北江公園","Jusho":"福井県福井市光陽3丁目5","kouzui":"×","gake":"×","takashio":"×","jishin":"○","tsunami":"×","kaji":"×","naisui":"×","kazan":"×"}}
,{"type":"Feature","geometry":{"type":"Point","coordinates":[136.214552,36.027359]},"properties":{"Name":"若宮公園","Jusho":"福井県福井市江端町11字29","kouzui":"×","gake":"○","takashio":"×","jishin":"○","tsunami":"×","kaji":"×","naisui":"×","kazan":"×"}}
,{"type":"Feature","geometry":{"type":"Point","coordinates":[136.217452,36.031413]},"properties":{"Name":"向田公園","Jusho":"福井県福井市江端町2字11","kouzui":"×","gake":"○","takashio":"×","jishin":"○","tsunami":"×","kaji":"×","naisui":"×","kazan":"×"}}
,{"type":"Feature","geometry":{"type":"Point","coordinates":[136.182265,36.031439]},"properties":{"Name":"江守の里公園","Jusho":"福井県福井市江守の里1丁目201","kouzui":"×","gake":"○","takashio":"×","jishin":"○","tsunami":"×","kaji":"×","naisui":"×","kazan":"×"}}
,{"type":"Feature","geometry":{"type":"Point","coordinates":[136.180461,36.029556]},"properties":{"Name":"花園公園","Jusho":"福井県福井市江守の里1丁目701","kouzui":"×","gake":"○","takashio":"×","jishin":"○","tsunami":"×","kaji":"×","naisui":"×","kazan":"×"}}
,{"type":"Feature","geometry":{"type":"Point","coordinates":[136.212684,36.094976]},"properties":{"Name":"灯明寺公園","Jusho":"福井県福井市灯明寺2丁目1504","kouzui":"×","gake":"×","takashio":"×","jishin":"○","tsunami":"×","kaji":"×","naisui":"×","kazan":"×"}}
,{"type":"Feature","geometry":{"type":"Point","coordinates":[136.210815,36.089614]},"properties":{"Name":"明新公園","Jusho":"福井県福井市灯明寺1丁目801","kouzui":"×","gake":"×","takashio":"×","jishin":"○","tsunami":"×","kaji":"×","naisui":"×","kazan":"×"}}
,{"type":"Feature","geometry":{"type":"Point","coordinates":[136.218387,36.089483]},"properties":{"Name":"ひばり公園","Jusho":"福井県福井市経田2丁目1206","kouzui":"×","gake":"×","takashio":"×","jishin":"○","tsunami":"×","kaji":"×","naisui":"×","kazan":"×"}}
,{"type":"Feature","geometry":{"type":"Point","coordinates":[136.22235,36.088646]},"properties":{"Name":"ちどり公園","Jusho":"福井県福井市経田1丁目301","kouzui":"×","gake":"×","takashio":"×","jishin":"○","tsunami":"×","kaji":"×","naisui":"×","kazan":"×"}}
,{"type":"Feature","geometry":{"type":"Point","coordinates":[136.218967,36.084539]},"properties":{"Name":"かもめ公園","Jusho":"福井県福井市二の宮3丁目17","kouzui":"×","gake":"×","takashio":"×","jishin":"○","tsunami":"×","kaji":"×","naisui":"×","kazan":"×"}}
,{"type":"Feature","geometry":{"type":"Point","coordinates":[136.243198,36.05472]},"properties":{"Name":"深町公園","Jusho":"福井県福井市成和1丁目2001","kouzui":"×","gake":"×","takashio":"×","jishin":"○","tsunami":"×","kaji":"×","naisui":"×","kazan":"×"}}
,{"type":"Feature","geometry":{"type":"Point","coordinates":[136.243302304,36.0509322527]},"properties":{"Name":"渕上公園","Jusho":"福井県福井市和田2丁目401","kouzui":"×","gake":"×","takashio":"×","jishin":"○","tsunami":"×","kaji":"×","naisui":"×","kazan":"×"}}
,{"type":"Feature","geometry":{"type":"Point","coordinates":[136.195913386,36.0602212087]},"properties":{"Name":"加茂河原公園","Jusho":"福井県福井市加茂河原1丁目5-1","kouzui":"○","gake":"○","takashio":"×","jishin":"○","tsunami":"×","kaji":"×","naisui":"×","kazan":"×"}}
,{"type":"Feature","geometry":{"type":"Point","coordinates":[136.235272,36.078994]},"properties":{"Name":"若草公園","Jusho":"福井県福井市西開発2丁目405","kouzui":"×","gake":"○","takashio":"×","jishin":"○","tsunami":"×","kaji":"×","naisui":"×","kazan":"×"}}
,{"type":"Feature","geometry":{"type":"Point","coordinates":[136.232726,36.082525]},"properties":{"Name":"若泉公園","Jusho":"福井県福井市西開発3丁目512","kouzui":"×","gake":"○","takashio":"×","jishin":"○","tsunami":"×","kaji":"×","naisui":"×","kazan":"×"}}
,{"type":"Feature","geometry":{"type":"Point","coordinates":[136.18845429,36.0673319014]},"properties":{"Name":"水越公園","Jusho":"福井県福井市水越2丁目101","kouzui":"×","gake":"○","takashio":"×","jishin":"○","tsunami":"×","kaji":"×","naisui":"×","kazan":"×"}}
,{"type":"Feature","geometry":{"type":"Point","coordinates":[136.23192,36.087417]},"properties":{"Name":"高木中央１号公園","Jusho":"福井県福井市高木中央1丁目3401","kouzui":"×","gake":"×","takashio":"×","jishin":"○","tsunami":"×","kaji":"×","naisui":"×","kazan":"×"}}
,{"type":"Feature","geometry":{"type":"Point","coordinates":[136.191513,36.060553]},"properties":{"Name":"熊野公園","Jusho":"福井県福井市加茂河原4丁目720","kouzui":"×","gake":"○","takashio":"×","jishin":"○","tsunami":"×","kaji":"×","naisui":"×","kazan":"×"}}
,{"type":"Feature","geometry":{"type":"Point","coordinates":[136.20398274101,36.090822036173]},"properties":{"Name":"新田塚中央公園","Jusho":"福井県福井市新田塚2丁目61","kouzui":"×","gake":"×","takashio":"×","jishin":"○","tsunami":"×","kaji":"×","naisui":"×","kazan":"×"}}
,{"type":"Feature","geometry":{"type":"Point","coordinates":[136.235755,36.090922]},"properties":{"Name":"高木中央２号公園","Jusho":"福井県福井市高木中央2丁目3601","kouzui":"×","gake":"×","takashio":"×","jishin":"○","tsunami":"×","kaji":"×","naisui":"×","kazan":"×"}}
,{"type":"Feature","geometry":{"type":"Point","coordinates":[136.185907,36.065497]},"properties":{"Name":"飯塚公園","Jusho":"福井県福井市飯塚町7字54","kouzui":"×","gake":"○","takashio":"×","jishin":"○","tsunami":"×","kaji":"×","naisui":"×","kazan":"×"}}
,{"type":"Feature","geometry":{"type":"Point","coordinates":[136.177271,36.05315]},"properties":{"Name":"久喜津公園","Jusho":"福井県福井市運動公園4丁目1401","kouzui":"×","gake":"○","takashio":"×","jishin":"○","tsunami":"×","kaji":"×","naisui":"×","kazan":"×"}}
,{"type":"Feature","geometry":{"type":"Point","coordinates":[136.209912,36.049122]},"properties":{"Name":"みのり中央公園","Jusho":"福井県福井市みのり3丁目24","kouzui":"×","gake":"○","takashio":"×","jishin":"○","tsunami":"×","kaji":"×","naisui":"×","kazan":"×"}}
,{"type":"Feature","geometry":{"type":"Point","coordinates":[136.235787,36.096545]},"properties":{"Name":"北前公園","Jusho":"福井県福井市高木北4丁目304","kouzui":"×","gake":"×","takashio":"×","jishin":"○","tsunami":"×","kaji":"×","naisui":"×","kazan":"×"}}
,{"type":"Feature","geometry":{"type":"Point","coordinates":[136.227731,36.04376]},"properties":{"Name":"南板垣公園","Jusho":"福井県福井市板垣5丁目301","kouzui":"×","gake":"×","takashio":"×","jishin":"○","tsunami":"×","kaji":"×","naisui":"×","kazan":"×"}}
,{"type":"Feature","geometry":{"type":"Point","coordinates":[136.244165,36.079831]},"properties":{"Name":"砂田公園","Jusho":"福井県福井市開発3丁目2801","kouzui":"×","gake":"○","takashio":"×","jishin":"○","tsunami":"×","kaji":"×","naisui":"×","kazan":"×"}}
,{"type":"Feature","geometry":{"type":"Point","coordinates":[136.252092,36.052705]},"properties":{"Name":"沖田１号公園","Jusho":"福井県福井市問屋町3丁目506","kouzui":"×","gake":"×","takashio":"×","jishin":"○","tsunami":"×","kaji":"×","naisui":"×","kazan":"×"}}
,{"type":"Feature","geometry":{"type":"Point","coordinates":[136.25554,36.052287]},"properties":{"Name":"沖田２号公園","Jusho":"福井県福井市問屋町4丁目801","kouzui":"×","gake":"×","takashio":"×","jishin":"○","tsunami":"×","kaji":"×","naisui":"×","kazan":"×"}}
,{"type":"Feature","geometry":{"type":"Point","coordinates":[136.200568,36.027647]},"properties":{"Name":"寺端公園","Jusho":"福井県福井市下荒井町10字404","kouzui":"×","gake":"○","takashio":"×","jishin":"○","tsunami":"×","kaji":"×","naisui":"×","kazan":"×"}}
,{"type":"Feature","geometry":{"type":"Point","coordinates":[136.200665,36.024063]},"properties":{"Name":"引目公園","Jusho":"福井県福井市引目町8字101","kouzui":"×","gake":"○","takashio":"×","jishin":"○","tsunami":"×","kaji":"×","naisui":"×","kazan":"×"}}
,{"type":"Feature","geometry":{"type":"Point","coordinates":[136.204306,36.024874]},"properties":{"Name":"下荒井南公園","Jusho":"福井県福井市下荒井町7字307","kouzui":"×","gake":"○","takashio":"×","jishin":"○","tsunami":"×","kaji":"×","naisui":"×","kazan":"×"}}
,{"type":"Feature","geometry":{"type":"Point","coordinates":[136.243037,36.07745]},"properties":{"Name":"啓蒙公園","Jusho":"福井県福井市開発1丁目1605","kouzui":"×","gake":"○","takashio":"×","jishin":"○","tsunami":"×","kaji":"×","naisui":"×","kazan":"×"}}
,{"type":"Feature","geometry":{"type":"Point","coordinates":[136.251834,36.082002]},"properties":{"Name":"鉾田公園","Jusho":"福井県福井市新保3丁目901","kouzui":"×","gake":"○","takashio":"×","jishin":"○","tsunami":"×","kaji":"×","naisui":"×","kazan":"×"}}
,{"type":"Feature","geometry":{"type":"Point","coordinates":[136.253413,36.08072]},"properties":{"Name":"新保東公園","Jusho":"福井県福井市新保3丁目1901","kouzui":"×","gake":"○","takashio":"×","jishin":"○","tsunami":"×","kaji":"×","naisui":"×","kazan":"×"}}
,{"type":"Feature","geometry":{"type":"Point","coordinates":[136.248161,36.077424]},"properties":{"Name":"堂前公園","Jusho":"福井県福井市丸山2丁目2101","kouzui":"×","gake":"×","takashio":"×","jishin":"○","tsunami":"×","kaji":"×","naisui":"×","kazan":"×"}}
,{"type":"Feature","geometry":{"type":"Point","coordinates":[136.245454,36.074521]},"properties":{"Name":"丸山中央公園","Jusho":"福井県福井市丸山2丁目705","kouzui":"×","gake":"○","takashio":"×","jishin":"○","tsunami":"×","kaji":"×","naisui":"×","kazan":"×"}}
,{"type":"Feature","geometry":{"type":"Point","coordinates":[136.24206118872,36.073160186162]},"properties":{"Name":"丸山西公園","Jusho":"福井県福井市丸山1丁目501","kouzui":"×","gake":"○","takashio":"×","jishin":"○","tsunami":"×","kaji":"×","naisui":"×","kazan":"×"}}
,{"type":"Feature","geometry":{"type":"Point","coordinates":[136.206271,36.039705]},"properties":{"Name":"西谷東公園","Jusho":"福井県福井市西谷1丁目701","kouzui":"×","gake":"○","takashio":"×","jishin":"○","tsunami":"×","kaji":"×","naisui":"×","kazan":"×"}}
,{"type":"Feature","geometry":{"type":"Point","coordinates":[136.205562,36.03811]},"properties":{"Name":"西谷南公園","Jusho":"福井県福井市西谷2丁目701","kouzui":"×","gake":"○","takashio":"×","jishin":"○","tsunami":"×","kaji":"×","naisui":"×","kazan":"×"}}
,{"type":"Feature","geometry":{"type":"Point","coordinates":[136.21605,36.04861]},"properties":{"Name":"昭和町公園","Jusho":"福井県福井市みのり1丁目14","kouzui":"×","gake":"×","takashio":"×","jishin":"○","tsunami":"×","kaji":"×","naisui":"×","kazan":"×"}}
,{"type":"Feature","geometry":{"type":"Point","coordinates":[136.216518,36.117498]},"properties":{"Name":"つくし野中央公園","Jusho":"福井県福井市つくし野2丁目801","kouzui":"×","gake":"×","takashio":"×","jishin":"○","tsunami":"×","kaji":"×","naisui":"×","kazan":"×"}}
,{"type":"Feature","geometry":{"type":"Point","coordinates":[136.215326,36.120244]},"properties":{"Name":"つくし野北公園","Jusho":"福井県福井市つくし野1丁目303","kouzui":"×","gake":"×","takashio":"×","jishin":"○","tsunami":"×","kaji":"×","naisui":"×","kazan":"×"}}
,{"type":"Feature","geometry":{"type":"Point","coordinates":[136.213876,36.117498]},"properties":{"Name":"つくし野西公園","Jusho":"福井県福井市つくし野3丁目501","kouzui":"×","gake":"×","takashio":"×","jishin":"○","tsunami":"×","kaji":"×","naisui":"×","kazan":"×"}}
,{"type":"Feature","geometry":{"type":"Point","coordinates":[136.205992,36.088257]},"properties":{"Name":"新田塚元町公園","Jusho":"福井県福井市新田塚1丁目4","kouzui":"×","gake":"×","takashio":"×","jishin":"○","tsunami":"×","kaji":"×","naisui":"×","kazan":"×"}}
,{"type":"Feature","geometry":{"type":"Point","coordinates":[136.20439192594,36.096557147963]},"properties":{"Name":"灯新公園","Jusho":"福井県福井市灯明寺町3字1-8","kouzui":"×","gake":"×","takashio":"×","jishin":"○","tsunami":"×","kaji":"×","naisui":"×","kazan":"×"}}
,{"type":"Feature","geometry":{"type":"Point","coordinates":[136.2350825015,36.102085303294]},"properties":{"Name":"寺前公園","Jusho":"福井県福井市寺前町4字6-10","kouzui":"×","gake":"×","takashio":"×","jishin":"○","tsunami":"×","kaji":"×","naisui":"×","kazan":"×"}}
,{"type":"Feature","geometry":{"type":"Point","coordinates":[136.23801,36.09803]},"properties":{"Name":"高柳新町公園","Jusho":"福井県福井市高柳町8字24-8","kouzui":"×","gake":"×","takashio":"×","jishin":"○","tsunami":"×","kaji":"×","naisui":"×","kazan":"×"}}
,{"type":"Feature","geometry":{"type":"Point","coordinates":[136.262234606,36.0856976133]},"properties":{"Name":"若栄公園","Jusho":"福井県福井市若栄町1001","kouzui":"×","gake":"○","takashio":"×","jishin":"○","tsunami":"×","kaji":"×","naisui":"×","kazan":"×"}}
,{"type":"Feature","geometry":{"type":"Point","coordinates":[136.19298323,36.08206776]},"properties":{"Name":"三郎丸団地公園","Jusho":"福井県福井市三郎丸町28字1-38","kouzui":"×","gake":"○","takashio":"×","jishin":"○","tsunami":"×","kaji":"×","naisui":"×","kazan":"×"}}
,{"type":"Feature","geometry":{"type":"Point","coordinates":[136.192996,36.077294]},"properties":{"Name":"三郎丸公園","Jusho":"福井県福井市三郎丸1丁目801","kouzui":"×","gake":"○","takashio":"×","jishin":"○","tsunami":"×","kaji":"×","naisui":"×","kazan":"×"}}
,{"type":"Feature","geometry":{"type":"Point","coordinates":[136.191739,36.080066]},"properties":{"Name":"祇王公園","Jusho":"福井県福井市三郎丸2丁目2501","kouzui":"×","gake":"○","takashio":"×","jishin":"○","tsunami":"×","kaji":"×","naisui":"×","kazan":"×"}}
,{"type":"Feature","geometry":{"type":"Point","coordinates":[136.182808043,36.0591142794]},"properties":{"Name":"新堀北公園","Jusho":"福井県福井市若杉町28字28-4","kouzui":"×","gake":"○","takashio":"×","jishin":"○","tsunami":"×","kaji":"×","naisui":"×","kazan":"×"}}
,{"type":"Feature","geometry":{"type":"Point","coordinates":[136.179788,36.057088]},"properties":{"Name":"高塚公園","Jusho":"福井県福井市高塚町809","kouzui":"×","gake":"○","takashio":"×","jishin":"○","tsunami":"×","kaji":"×","naisui":"×","kazan":"×"}}
,{"type":"Feature","geometry":{"type":"Point","coordinates":[136.207111,36.041689]},"properties":{"Name":"コモンライフ花堂公園","Jusho":"福井県福井市花堂北2丁目28","kouzui":"×","gake":"×","takashio":"×","jishin":"○","tsunami":"×","kaji":"×","naisui":"×","kazan":"×"}}
,{"type":"Feature","geometry":{"type":"Point","coordinates":[136.208193,36.028597]},"properties":{"Name":"江端団地２号公園","Jusho":"福井県福井市江端町1006","kouzui":"×","gake":"○","takashio":"×","jishin":"○","tsunami":"×","kaji":"×","naisui":"×","kazan":"×"}}
,{"type":"Feature","geometry":{"type":"Point","coordinates":[136.194349,36.046297]},"properties":{"Name":"陽光台公園","Jusho":"福井県福井市福町36字150","kouzui":"○","gake":"○","takashio":"×","jishin":"○","tsunami":"×","kaji":"×","naisui":"×","kazan":"×"}}
,{"type":"Feature","geometry":{"type":"Point","coordinates":[136.218419,36.036305]},"properties":{"Name":"大町１号公園","Jusho":"福井県福井市大町1丁目1","kouzui":"×","gake":"×","takashio":"×","jishin":"○","tsunami":"×","kaji":"×","naisui":"×","kazan":"×"}}
,{"type":"Feature","geometry":{"type":"Point","coordinates":[136.221931,36.035023]},"properties":{"Name":"大町２号公園","Jusho":"福井県福井市大町2丁目1","kouzui":"×","gake":"×","takashio":"×","jishin":"○","tsunami":"×","kaji":"×","naisui":"×","kazan":"×"}}
,{"type":"Feature","geometry":{"type":"Point","coordinates":[136.21085043852,36.038197005292]},"properties":{"Name":"サンライフ花堂公園","Jusho":"福井県福井市花堂中2丁目13","kouzui":"×","gake":"○","takashio":"×","jishin":"○","tsunami":"×","kaji":"×","naisui":"×","kazan":"×"}}
,{"type":"Feature","geometry":{"type":"Point","coordinates":[136.232178,36.101672]},"properties":{"Name":"舟橋第２公園","Jusho":"福井県福井市舟橋3丁目701","kouzui":"×","gake":"×","takashio":"×","jishin":"○","tsunami":"×","kaji":"×","naisui":"×","kazan":"×"}}
,{"type":"Feature","geometry":{"type":"Point","coordinates":[136.187852,35.994353]},"properties":{"Name":"江尻ヶ丘北公園","Jusho":"福井県福井市江尻ヶ丘町290","kouzui":"○","gake":"○","takashio":"×","jishin":"○","tsunami":"×","kaji":"×","naisui":"×","kazan":"×"}}
,{"type":"Feature","geometry":{"type":"Point","coordinates":[136.187601,35.991518]},"properties":{"Name":"江尻ヶ丘南公園","Jusho":"福井県福井市江尻ヶ丘町13","kouzui":"○","gake":"○","takashio":"×","jishin":"○","tsunami":"×","kaji":"×","naisui":"×","kazan":"×"}}
,{"type":"Feature","geometry":{"type":"Point","coordinates":[136.194015093,36.057071628743]},"properties":{"Name":"若茂公園","Jusho":"福井県福井市加茂河原町20字25-21","kouzui":"×","gake":"×","takashio":"×","jishin":"○","tsunami":"×","kaji":"×","naisui":"×","kazan":"×"}}
,{"type":"Feature","geometry":{"type":"Point","coordinates":[136.19441,36.003972]},"properties":{"Name":"杉の木台第３公園","Jusho":"福井県福井市浅水二日町401","kouzui":"○","gake":"○","takashio":"×","jishin":"○","tsunami":"×","kaji":"×","naisui":"×","kazan":"×"}}
,{"type":"Feature","geometry":{"type":"Point","coordinates":[136.1920870894,36.085378306152]},"properties":{"Name":"三ツ屋公園","Jusho":"福井県福井市三ツ屋2丁目302","kouzui":"×","gake":"○","takashio":"×","jishin":"○","tsunami":"×","kaji":"×","naisui":"×","kazan":"×"}}
,{"type":"Feature","geometry":{"type":"Point","coordinates":[136.17893353638,36.059683702059]},"properties":{"Name":"狐橋公園","Jusho":"福井県福井市狐橋2丁目401","kouzui":"×","gake":"○","takashio":"×","jishin":"○","tsunami":"×","kaji":"×","naisui":"×","kazan":"×"}}
,{"type":"Feature","geometry":{"type":"Point","coordinates":[136.187679,36.077241]},"properties":{"Name":"薬師公園","Jusho":"福井県福井市三郎丸2丁目501","kouzui":"×","gake":"○","takashio":"×","jishin":"○","tsunami":"×","kaji":"×","naisui":"×","kazan":"×"}}
,{"type":"Feature","geometry":{"type":"Point","coordinates":[136.194703,36.083624]},"properties":{"Name":"小鳩公園","Jusho":"福井県福井市三郎丸4丁目403","kouzui":"×","gake":"○","takashio":"×","jishin":"○","tsunami":"×","kaji":"×","naisui":"×","kazan":"×"}}
,{"type":"Feature","geometry":{"type":"Point","coordinates":[136.246016826,36.0679800225]},"properties":{"Name":"江添公園","Jusho":"福井県福井市北四ツ居3丁目13","kouzui":"×","gake":"×","takashio":"×","jishin":"○","tsunami":"×","kaji":"×","naisui":"×","kazan":"×"}}
,{"type":"Feature","geometry":{"type":"Point","coordinates":[136.249427,36.065434]},"properties":{"Name":"久保公園","Jusho":"福井県福井市大東2丁目6","kouzui":"×","gake":"×","takashio":"×","jishin":"○","tsunami":"×","kaji":"×","naisui":"×","kazan":"×"}}
,{"type":"Feature","geometry":{"type":"Point","coordinates":[136.245047,36.061986]},"properties":{"Name":"西代公園","Jusho":"福井県福井市南四ツ居1丁目7","kouzui":"×","gake":"×","takashio":"×","jishin":"○","tsunami":"×","kaji":"×","naisui":"×","kazan":"×"}}
,{"type":"Feature","geometry":{"type":"Point","coordinates":[136.249584,36.061978]},"properties":{"Name":"西浜公園","Jusho":"福井県福井市上北野1丁目21","kouzui":"×","gake":"×","takashio":"×","jishin":"○","tsunami":"×","kaji":"×","naisui":"×","kazan":"×"}}
,{"type":"Feature","geometry":{"type":"Point","coordinates":[136.246143,36.059702]},"properties":{"Name":"東窪公園","Jusho":"福井県福井市南四ツ居2丁目17","kouzui":"×","gake":"×","takashio":"×","jishin":"○","tsunami":"×","kaji":"×","naisui":"×","kazan":"×"}}
,{"type":"Feature","geometry":{"type":"Point","coordinates":[136.281415,36.081109]},"properties":{"Name":"流通センター公園","Jusho":"福井県福井市重立町28字61","kouzui":"×","gake":"○","takashio":"×","jishin":"○","tsunami":"×","kaji":"×","naisui":"×","kazan":"×"}}
,{"type":"Feature","geometry":{"type":"Point","coordinates":[136.26928667492,36.017161574764]},"properties":{"Name":"東郷福田公園","Jusho":"福井県福井市東郷二ヶ町14字1-5","kouzui":"×","gake":"○","takashio":"×","jishin":"○","tsunami":"×","kaji":"×","naisui":"×","kazan":"×"}}
,{"type":"Feature","geometry":{"type":"Point","coordinates":[136.27349863195,36.007057052466]},"properties":{"Name":"栃泉団地公園","Jusho":"福井県福井市栃泉町104字9-54","kouzui":"○","gake":"×","takashio":"×","jishin":"○","tsunami":"×","kaji":"×","naisui":"×","kazan":"×"}}
,{"type":"Feature","geometry":{"type":"Point","coordinates":[136.228443,36.081345]},"properties":{"Name":"大願寺２号公園","Jusho":"福井県福井市大願寺3丁目2","kouzui":"×","gake":"×","takashio":"×","jishin":"○","tsunami":"×","kaji":"×","naisui":"×","kazan":"×"}}
,{"type":"Feature","geometry":{"type":"Point","coordinates":[136.196519999,36.0800215257]},"properties":{"Name":"堀の宮公園","Jusho":"福井県福井市堀ノ宮1丁目401","kouzui":"×","gake":"○","takashio":"×","jishin":"○","tsunami":"×","kaji":"×","naisui":"×","kazan":"×"}}
,{"type":"Feature","geometry":{"type":"Point","coordinates":[136.18751511496,36.010217973793]},"properties":{"Name":"青葉台西公園","Jusho":"福井県福井市冬野町26字143","kouzui":"○","gake":"×","takashio":"×","jishin":"○","tsunami":"×","kaji":"×","naisui":"×","kazan":"×"}}
,{"type":"Feature","geometry":{"type":"Point","coordinates":[136.22517928411,36.050948727482]},"properties":{"Name":"一本木公園","Jusho":"福井県福井市春日3丁目1306","kouzui":"×","gake":"×","takashio":"×","jishin":"○","tsunami":"×","kaji":"×","naisui":"×","kazan":"×"}}
,{"type":"Feature","geometry":{"type":"Point","coordinates":[136.23481187379,36.061416033206]},"properties":{"Name":"東篁公園","Jusho":"福井県福井市城東2丁目301","kouzui":"×","gake":"×","takashio":"×","jishin":"○","tsunami":"×","kaji":"×","naisui":"×","kazan":"×"}}
,{"type":"Feature","geometry":{"type":"Point","coordinates":[136.229407,36.046114]},"properties":{"Name":"板垣西公園","Jusho":"福井県福井市板垣4丁目501","kouzui":"×","gake":"×","takashio":"×","jishin":"○","tsunami":"×","kaji":"×","naisui":"×","kazan":"×"}}
,{"type":"Feature","geometry":{"type":"Point","coordinates":[136.2329677811,36.045294838507]},"properties":{"Name":"板垣東公園","Jusho":"福井県福井市板垣3丁目1101","kouzui":"×","gake":"×","takashio":"×","jishin":"○","tsunami":"×","kaji":"×","naisui":"×","kazan":"×"}}
,{"type":"Feature","geometry":{"type":"Point","coordinates":[136.201569,36.087985]},"properties":{"Name":"秋桜公園","Jusho":"福井県福井市新田塚2丁目27","kouzui":"×","gake":"×","takashio":"×","jishin":"○","tsunami":"×","kaji":"×","naisui":"×","kazan":"×"}}
,{"type":"Feature","geometry":{"type":"Point","coordinates":[136.20238926153,36.091306587193]},"properties":{"Name":"上伏東公園","Jusho":"福井県福井市新田塚2丁目75","kouzui":"×","gake":"×","takashio":"×","jishin":"○","tsunami":"×","kaji":"×","naisui":"×","kazan":"×"}}
,{"type":"Feature","geometry":{"type":"Point","coordinates":[136.213431652,36.0493167928]},"properties":{"Name":"みのり２丁目公園","Jusho":"福井県福井市みのり2丁目11","kouzui":"×","gake":"○","takashio":"×","jishin":"○","tsunami":"×","kaji":"×","naisui":"×","kazan":"×"}}
,{"type":"Feature","geometry":{"type":"Point","coordinates":[136.18618486969,36.070857928649]},"properties":{"Name":"大瀬公園","Jusho":"福井県福井市大瀬町19字101","kouzui":"×","gake":"○","takashio":"×","jishin":"○","tsunami":"×","kaji":"×","naisui":"×","kazan":"×"}}
,{"type":"Feature","geometry":{"type":"Point","coordinates":[136.206923,36.090496]},"properties":{"Name":"新田塚１丁目公園","Jusho":"福井県福井市新田塚1丁目34","kouzui":"×","gake":"×","takashio":"×","jishin":"○","tsunami":"×","kaji":"×","naisui":"×","kazan":"×"}}
,{"type":"Feature","geometry":{"type":"Point","coordinates":[136.238977,36.041876]},"properties":{"Name":"下馬東公園","Jusho":"福井県福井市下馬2丁目1108","kouzui":"×","gake":"×","takashio":"×","jishin":"○","tsunami":"×","kaji":"×","naisui":"×","kazan":"×"}}
,{"type":"Feature","geometry":{"type":"Point","coordinates":[136.228698,36.040045]},"properties":{"Name":"羽水公園","Jusho":"福井県福井市羽水2丁目205","kouzui":"×","gake":"×","takashio":"×","jishin":"○","tsunami":"×","kaji":"×","naisui":"×","kazan":"×"}}
,{"type":"Feature","geometry":{"type":"Point","coordinates":[136.22791782943,36.107543992445]},"properties":{"Name":"下森田新町公園","Jusho":"福井県福井市下森田新町15字54-36","kouzui":"×","gake":"×","takashio":"×","jishin":"○","tsunami":"×","kaji":"×","naisui":"×","kazan":"×"}}
,{"type":"Feature","geometry":{"type":"Point","coordinates":[136.20060166939,36.091153032349]},"properties":{"Name":"新田塚西部公園","Jusho":"福井県福井市新田塚2丁目76","kouzui":"×","gake":"×","takashio":"×","jishin":"○","tsunami":"×","kaji":"×","naisui":"×","kazan":"×"}}
,{"type":"Feature","geometry":{"type":"Point","coordinates":[136.26327529224,36.084098857507]},"properties":{"Name":"若栄団地公園","Jusho":"福井県福井市若栄町1382","kouzui":"×","gake":"○","takashio":"×","jishin":"○","tsunami":"×","kaji":"×","naisui":"×","kazan":"×"}}
,{"type":"Feature","geometry":{"type":"Point","coordinates":[136.248806362,36.0508481816]},"properties":{"Name":"和田東公園","Jusho":"福井県福井市和田東2丁目301","kouzui":"×","gake":"×","takashio":"×","jishin":"○","tsunami":"×","kaji":"×","naisui":"×","kazan":"×"}}
,{"type":"Feature","geometry":{"type":"Point","coordinates":[136.248421,36.047693]},"properties":{"Name":"和田中東公園","Jusho":"福井県福井市和田中2丁目801","kouzui":"×","gake":"×","takashio":"×","jishin":"○","tsunami":"×","kaji":"×","naisui":"×","kazan":"×"}}
,{"type":"Feature","geometry":{"type":"Point","coordinates":[136.24388204278,36.04190183404]},"properties":{"Name":"前向公園","Jusho":"福井県福井市和田中町116字2","kouzui":"×","gake":"×","takashio":"×","jishin":"○","tsunami":"×","kaji":"×","naisui":"×","kazan":"×"}}
,{"type":"Feature","geometry":{"type":"Point","coordinates":[136.20975724202,36.038492050012]},"properties":{"Name":"サンライフ花堂西公園","Jusho":"福井県福井市花堂中2丁目11","kouzui":"×","gake":"○","takashio":"×","jishin":"○","tsunami":"×","kaji":"×","naisui":"×","kazan":"×"}}
,{"type":"Feature","geometry":{"type":"Point","coordinates":[136.185469,36.032565]},"properties":{"Name":"種池南公園","Jusho":"福井県福井市種池町21字1-97","kouzui":"×","gake":"○","takashio":"×","jishin":"○","tsunami":"×","kaji":"×","naisui":"×","kazan":"×"}}
,{"type":"Feature","geometry":{"type":"Point","coordinates":[136.20422691888,36.085541913054]},"properties":{"Name":"八ツ島公園","Jusho":"福井県福井市八ツ島1丁目508","kouzui":"×","gake":"×","takashio":"×","jishin":"○","tsunami":"×","kaji":"×","naisui":"×","kazan":"×"}}
,{"type":"Feature","geometry":{"type":"Point","coordinates":[136.19799113415,36.087937476045]},"properties":{"Name":"里別所新町公園","Jusho":"福井県福井市里別所新町301","kouzui":"×","gake":"×","takashio":"×","jishin":"○","tsunami":"×","kaji":"×","naisui":"×","kazan":"×"}}
,{"type":"Feature","geometry":{"type":"Point","coordinates":[136.21062352929,36.05120026528]},"properties":{"Name":"パークアベニューみのり公園","Jusho":"福井県福井市みのり3丁目38","kouzui":"×","gake":"○","takashio":"×","jishin":"○","tsunami":"×","kaji":"×","naisui":"×","kazan":"×"}}
,{"type":"Feature","geometry":{"type":"Point","coordinates":[136.27329389518,36.018102038888]},"properties":{"Name":"東郷駅前ふれあい公園","Jusho":"福井県福井市東郷二ヶ町33字3-7","kouzui":"×","gake":"○","takashio":"×","jishin":"○","tsunami":"×","kaji":"×","naisui":"×","kazan":"×"}}
,{"type":"Feature","geometry":{"type":"Point","coordinates":[136.21690878164,36.010994645085]},"properties":{"Name":"大土呂駅前ふれあい公園","Jusho":"福井県福井市半田町5字1-5","kouzui":"×","gake":"○","takashio":"×","jishin":"○","tsunami":"×","kaji":"×","naisui":"×","kazan":"×"}}
,{"type":"Feature","geometry":{"type":"Point","coordinates":[136.204917997,36.09062658]},"properties":{"Name":"新田塚ふれあい公園","Jusho":"福井県福井市新田塚2丁目50","kouzui":"×","gake":"×","takashio":"×","jishin":"○","tsunami":"×","kaji":"×","naisui":"×","kazan":"×"}}
,{"type":"Feature","geometry":{"type":"Point","coordinates":[136.183119,36.063606]},"properties":{"Name":"飯塚中央公園","Jusho":"福井県福井市飯塚町31字208","kouzui":"×","gake":"○","takashio":"×","jishin":"○","tsunami":"×","kaji":"×","naisui":"×","kazan":"×"}}
,{"type":"Feature","geometry":{"type":"Point","coordinates":[136.232925509,36.1002622704]},"properties":{"Name":"スタイリッシュ・ステージ舟橋公園","Jusho":"福井県福井市高木北2丁目","kouzui":"×","gake":"×","takashio":"×","jishin":"○","tsunami":"×","kaji":"×","naisui":"×","kazan":"×"}}
,{"type":"Feature","geometry":{"type":"Point","coordinates":[136.1638946906,36.064919957978]},"properties":{"Name":"西下野西公園","Jusho":"福井県福井市西下野町15字","kouzui":"×","gake":"○","takashio":"×","jishin":"○","tsunami":"×","kaji":"×","naisui":"×","kazan":"×"}}
,{"type":"Feature","geometry":{"type":"Point","coordinates":[136.16112659144,36.045592587841]},"properties":{"Name":"グリーンハイツ1号公園","Jusho":"福井県福井市グリーンハイツ1丁目","kouzui":"×","gake":"○","takashio":"×","jishin":"○","tsunami":"×","kaji":"×","naisui":"×","kazan":"×"}}
,{"type":"Feature","geometry":{"type":"Point","coordinates":[136.16063179176,36.044457355185]},"properties":{"Name":"グリーンハイツ2号公園","Jusho":"福井県福井市グリーンハイツ2丁目","kouzui":"○","gake":"×","takashio":"×","jishin":"○","tsunami":"×","kaji":"×","naisui":"×","kazan":"×"}}
,{"type":"Feature","geometry":{"type":"Point","coordinates":[136.168691,36.040423]},"properties":{"Name":"グリーンハイツ3号公園","Jusho":"福井県福井市グリーンハイツ9丁目","kouzui":"○","gake":"○","takashio":"×","jishin":"○","tsunami":"×","kaji":"×","naisui":"×","kazan":"×"}}
,{"type":"Feature","geometry":{"type":"Point","coordinates":[136.185248,36.041057]},"properties":{"Name":"ふち西公園","Jusho":"福井県福井市渕3丁目2212","kouzui":"×","gake":"○","takashio":"×","jishin":"○","tsunami":"×","kaji":"×","naisui":"×","kazan":"×"}}
,{"type":"Feature","geometry":{"type":"Point","coordinates":[136.194286676,36.040452673]},"properties":{"Name":"渕きつね公園","Jusho":"福井県福井市渕1丁目1202","kouzui":"×","gake":"○","takashio":"×","jishin":"○","tsunami":"×","kaji":"×","naisui":"×","kazan":"×"}}
,{"type":"Feature","geometry":{"type":"Point","coordinates":[136.220661058,36.0411146077]},"properties":{"Name":"花堂東公園","Jusho":"福井県福井市花堂東1丁目3506番15","kouzui":"×","gake":"×","takashio":"×","jishin":"○","tsunami":"×","kaji":"×","naisui":"×","kazan":"×"}}
,{"type":"Feature","geometry":{"type":"Point","coordinates":[136.20252682689,36.091472030177]},"properties":{"Name":"新田塚北公園","Jusho":"福井県福井市新田塚2丁目6305番16","kouzui":"×","gake":"×","takashio":"×","jishin":"○","tsunami":"×","kaji":"×","naisui":"×","kazan":"×"}}
,{"type":"Feature","geometry":{"type":"Point","coordinates":[136.205039,36.029024]},"properties":{"Name":"大島台公園","Jusho":"福井県福井市大島町大島台815","kouzui":"○","gake":"○","takashio":"×","jishin":"○","tsunami":"×","kaji":"×","naisui":"×","kazan":"×"}}
,{"type":"Feature","geometry":{"type":"Point","coordinates":[136.128078,36.053079]},"properties":{"Name":"桜ヶ丘公園","Jusho":"福井県福井市本堂町89字6番325","kouzui":"○","gake":"○","takashio":"×","jishin":"○","tsunami":"×","kaji":"×","naisui":"×","kazan":"×"}}
,{"type":"Feature","geometry":{"type":"Point","coordinates":[136.129645,36.050603]},"properties":{"Name":"桜ヶ丘三角公園","Jusho":"福井県福井市本堂町89字6番178","kouzui":"○","gake":"×","takashio":"×","jishin":"○","tsunami":"×","kaji":"×","naisui":"×","kazan":"×"}}
,{"type":"Feature","geometry":{"type":"Point","coordinates":[136.128682,36.049148]},"properties":{"Name":"桜ヶ丘山水公園","Jusho":"福井県福井市本堂町39字1番24外","kouzui":"○","gake":"○","takashio":"×","jishin":"○","tsunami":"×","kaji":"×","naisui":"×","kazan":"×"}}
,{"type":"Feature","geometry":{"type":"Point","coordinates":[136.131155,36.051971]},"properties":{"Name":"桜ヶ丘朝日公園","Jusho":"福井県福井市本堂町89字8番65外","kouzui":"○","gake":"×","takashio":"×","jishin":"○","tsunami":"×","kaji":"×","naisui":"×","kazan":"×"}}
,{"type":"Feature","geometry":{"type":"Point","coordinates":[136.123884,36.05402]},"properties":{"Name":"桜ヶ丘運動公園","Jusho":"福井県福井市本堂町46字1番25外","kouzui":"○","gake":"×","takashio":"×","jishin":"○","tsunami":"×","kaji":"×","naisui":"×","kazan":"×"}}
,{"type":"Feature","geometry":{"type":"Point","coordinates":[136.125546,36.051518]},"properties":{"Name":"桜ヶ丘中央公園","Jusho":"福井県福井市本堂町88字4番144外","kouzui":"○","gake":"×","takashio":"×","jishin":"○","tsunami":"×","kaji":"×","naisui":"×","kazan":"×"}}
,{"type":"Feature","geometry":{"type":"Point","coordinates":[136.162552241,36.128313617048]},"properties":{"Name":"サニータウン仙町公園","Jusho":"福井県福井市仙町7字1番16","kouzui":"×","gake":"×","takashio":"×","jishin":"○","tsunami":"×","kaji":"×","naisui":"×","kazan":"×"}}
,{"type":"Feature","geometry":{"type":"Point","coordinates":[136.154759,36.139857]},"properties":{"Name":"ガーデンコート川西公園","Jusho":"福井県福井市浄土寺町39番33","kouzui":"○","gake":"○","takashio":"×","jishin":"○","tsunami":"×","kaji":"×","naisui":"×","kazan":"×"}}
,{"type":"Feature","geometry":{"type":"Point","coordinates":[136.152533,36.141723]},"properties":{"Name":"浄土寺団地公園","Jusho":"福井県福井市浄土寺町48番27","kouzui":"×","gake":"○","takashio":"×","jishin":"○","tsunami":"×","kaji":"×","naisui":"×","kazan":"×"}}
,{"type":"Feature","geometry":{"type":"Point","coordinates":[136.132279,36.145559]},"properties":{"Name":"木下団地公園","Jusho":"福井県福井市木下町6字1番14","kouzui":"×","gake":"○","takashio":"×","jishin":"○","tsunami":"×","kaji":"×","naisui":"×","kazan":"×"}}
,{"type":"Feature","geometry":{"type":"Point","coordinates":[136.12686071304,36.138904748815]},"properties":{"Name":"小野団地１号公園","Jusho":"福井県福井市小野町13字45番8","kouzui":"○","gake":"×","takashio":"×","jishin":"○","tsunami":"×","kaji":"×","naisui":"×","kazan":"×"}}
,{"type":"Feature","geometry":{"type":"Point","coordinates":[136.128171,36.138585]},"properties":{"Name":"小野団地２号公園","Jusho":"福井県福井市小野町13字70番13","kouzui":"○","gake":"×","takashio":"×","jishin":"○","tsunami":"×","kaji":"×","naisui":"×","kazan":"×"}}
,{"type":"Feature","geometry":{"type":"Point","coordinates":[136.25149,36.061023]},"properties":{"Name":"上北野橘公園","Jusho":"福井県福井市上北野1丁目30","kouzui":"×","gake":"×","takashio":"×","jishin":"○","tsunami":"×","kaji":"×","naisui":"×","kazan":"×"}}
,{"type":"Feature","geometry":{"type":"Point","coordinates":[136.20179831505,36.087024439999]},"properties":{"Name":"ホームランド新田塚公園","Jusho":"福井県福井市新田塚2丁目19","kouzui":"×","gake":"×","takashio":"×","jishin":"○","tsunami":"×","kaji":"×","naisui":"×","kazan":"×"}}
,{"type":"Feature","geometry":{"type":"Point","coordinates":[136.2223723164,36.050769280205]},"properties":{"Name":"西一本木公園","Jusho":"福井県福井市春日3丁目203-27","kouzui":"×","gake":"×","takashio":"×","jishin":"○","tsunami":"×","kaji":"×","naisui":"×","kazan":"×"}}
,{"type":"Feature","geometry":{"type":"Point","coordinates":[136.20257980923,36.028938665086]},"properties":{"Name":"ひのき台公園","Jusho":"福井県福井市引目町19字2ー3","kouzui":"○","gake":"○","takashio":"×","jishin":"○","tsunami":"×","kaji":"×","naisui":"×","kazan":"×"}}
,{"type":"Feature","geometry":{"type":"Point","coordinates":[136.182337673,36.0465706092]},"properties":{"Name":"渕ふれあい公園","Jusho":"福井県福井市渕4丁目2501","kouzui":"×","gake":"○","takashio":"×","jishin":"○","tsunami":"×","kaji":"×","naisui":"×","kazan":"×"}}
,{"type":"Feature","geometry":{"type":"Point","coordinates":[136.183823,36.045364]},"properties":{"Name":"新渕町公園","Jusho":"福井県福井市渕4丁目1301","kouzui":"×","gake":"○","takashio":"×","jishin":"○","tsunami":"×","kaji":"×","naisui":"×","kazan":"×"}}
,{"type":"Feature","geometry":{"type":"Point","coordinates":[136.194230638,36.0378432049]},"properties":{"Name":"新江守中西公園","Jusho":"福井県福井市江守中2丁目2007","kouzui":"×","gake":"○","takashio":"×","jishin":"○","tsunami":"×","kaji":"×","naisui":"×","kazan":"×"}}
,{"type":"Feature","geometry":{"type":"Point","coordinates":[136.197706605,36.0378588821]},"properties":{"Name":"新江守中中央公園","Jusho":"福井県福井市江守中2丁目1011","kouzui":"×","gake":"○","takashio":"×","jishin":"○","tsunami":"×","kaji":"×","naisui":"×","kazan":"×"}}
,{"type":"Feature","geometry":{"type":"Point","coordinates":[136.19224,36.03592]},"properties":{"Name":"種池東公園","Jusho":"福井県福井市種池1丁目401","kouzui":"×","gake":"○","takashio":"×","jishin":"○","tsunami":"×","kaji":"×","naisui":"×","kazan":"×"}}
,{"type":"Feature","geometry":{"type":"Point","coordinates":[136.197071257,36.0344537933]},"properties":{"Name":"江守中中央公園","Jusho":"福井県福井市江守中1丁目523","kouzui":"×","gake":"○","takashio":"×","jishin":"○","tsunami":"×","kaji":"×","naisui":"×","kazan":"×"}}
,{"type":"Feature","geometry":{"type":"Point","coordinates":[136.188767876,36.0362729877]},"properties":{"Name":"種池西公園","Jusho":"福井県福井市種池1丁目1805","kouzui":"×","gake":"○","takashio":"×","jishin":"○","tsunami":"×","kaji":"×","naisui":"×","kazan":"×"}}
,{"type":"Feature","geometry":{"type":"Point","coordinates":[136.184392755,36.0575802059]},"properties":{"Name":"新堀北ファミリー公園","Jusho":"福井県福井市若杉4丁目1901","kouzui":"×","gake":"○","takashio":"×","jishin":"○","tsunami":"×","kaji":"×","naisui":"×","kazan":"×"}}
,{"type":"Feature","geometry":{"type":"Point","coordinates":[136.190161,36.054624]},"properties":{"Name":"若杉三角公園","Jusho":"福井県福井市若杉2丁目1001","kouzui":"×","gake":"○","takashio":"×","jishin":"○","tsunami":"×","kaji":"×","naisui":"×","kazan":"×"}}
,{"type":"Feature","geometry":{"type":"Point","coordinates":[136.18907578368,36.049152901012]},"properties":{"Name":"福町公園","Jusho":"福井県福井市福2丁目1102","kouzui":"×","gake":"○","takashio":"×","jishin":"○","tsunami":"×","kaji":"×","naisui":"×","kazan":"×"}}
,{"type":"Feature","geometry":{"type":"Point","coordinates":[136.197655,36.048664]},"properties":{"Name":"門前中央公園","Jusho":"福井県福井市門前1丁目913","kouzui":"×","gake":"×","takashio":"×","jishin":"○","tsunami":"×","kaji":"×","naisui":"×","kazan":"×"}}
,{"type":"Feature","geometry":{"type":"Point","coordinates":[136.196898,36.048149]},"properties":{"Name":"門前はしだし公園","Jusho":"福井県福井市門前1丁目521","kouzui":"×","gake":"×","takashio":"×","jishin":"○","tsunami":"×","kaji":"×","naisui":"×","kazan":"×"}}
,{"type":"Feature","geometry":{"type":"Point","coordinates":[136.2053018471,36.032173191563]},"properties":{"Name":"舞屋熊野公園","Jusho":"福井県福井市舞屋町10字","kouzui":"×","gake":"○","takashio":"×","jishin":"○","tsunami":"×","kaji":"×","naisui":"×","kazan":"×"}}
,{"type":"Feature","geometry":{"type":"Point","coordinates":[136.202114377,36.0331962044]},"properties":{"Name":"まいや西公園","Jusho":"福井県福井市舞屋町8字","kouzui":"×","gake":"○","takashio":"×","jishin":"○","tsunami":"×","kaji":"×","naisui":"×","kazan":"×"}}
,{"type":"Feature","geometry":{"type":"Point","coordinates":[136.209961,36.032505]},"properties":{"Name":"大島いぬい公園","Jusho":"福井県福井市大島町2字","kouzui":"×","gake":"○","takashio":"×","jishin":"○","tsunami":"×","kaji":"×","naisui":"×","kazan":"×"}}
,{"type":"Feature","geometry":{"type":"Point","coordinates":[136.20055142095,36.033464607883]},"properties":{"Name":"江守中館公園","Jusho":"福井県福井市江守中町20字","kouzui":"×","gake":"○","takashio":"×","jishin":"○","tsunami":"×","kaji":"×","naisui":"×","kazan":"×"}}
,{"type":"Feature","geometry":{"type":"Point","coordinates":[136.226668,36.079968]},"properties":{"Name":"桜谷神社前公園","Jusho":"福井県福井市町屋3丁目1、006番","kouzui":"×","gake":"×","takashio":"×","jishin":"○","tsunami":"×","kaji":"×","naisui":"×","kazan":"×"}}
,{"type":"Feature","geometry":{"type":"Point","coordinates":[136.22642452792,36.076756475394]},"properties":{"Name":"三軒町三角公園","Jusho":"福井県福井市町屋3丁目238番","kouzui":"×","gake":"×","takashio":"×","jishin":"○","tsunami":"×","kaji":"×","naisui":"×","kazan":"×"}}
,{"type":"Feature","geometry":{"type":"Point","coordinates":[136.21556635473,36.106103430823]},"properties":{"Name":"ニュータウン天池公園","Jusho":"福井県福井市天池町33字西宅地1番3","kouzui":"×","gake":"×","takashio":"×","jishin":"○","tsunami":"×","kaji":"×","naisui":"×","kazan":"×"}}
,{"type":"Feature","geometry":{"type":"Point","coordinates":[136.23534170688,36.103802525762]},"properties":{"Name":"寺前新町公園","Jusho":"福井県福井市寺前町1字西浦2番8","kouzui":"×","gake":"×","takashio":"×","jishin":"○","tsunami":"×","kaji":"×","naisui":"×","kazan":"×"}}
,{"type":"Feature","geometry":{"type":"Point","coordinates":[136.2267960648,36.110475730886]},"properties":{"Name":"下森田さくら公園","Jusho":"福井県福井市下森田桜町3番13","kouzui":"×","gake":"×","takashio":"×","jishin":"○","tsunami":"×","kaji":"×","naisui":"×","kazan":"×"}}
,{"type":"Feature","geometry":{"type":"Point","coordinates":[136.2055176434,36.060326639967]},"properties":{"Name":"千年緑地公園","Jusho":"福井県福井市足羽2丁目1101番","kouzui":"×","gake":"○","takashio":"×","jishin":"○","tsunami":"×","kaji":"×","naisui":"×","kazan":"×"}}
,{"type":"Feature","geometry":{"type":"Point","coordinates":[136.19684562404,35.99542224399]},"properties":{"Name":"森行公園","Jusho":"福井県福井市森行町20字1番42号","kouzui":"×","gake":"○","takashio":"×","jishin":"○","tsunami":"×","kaji":"×","naisui":"×","kazan":"×"}}
,{"type":"Feature","geometry":{"type":"Point","coordinates":[136.1957807169,35.999417546894]},"properties":{"Name":"大門公園","Jusho":"福井県福井市浅水町137字17番11","kouzui":"×","gake":"○","takashio":"×","jishin":"○","tsunami":"×","kaji":"×","naisui":"×","kazan":"×"}}
,{"type":"Feature","geometry":{"type":"Point","coordinates":[136.21759473079,36.041707275045]},"properties":{"Name":"花堂北公園","Jusho":"福井県福井市花堂北1丁目501番36","kouzui":"×","gake":"○","takashio":"×","jishin":"○","tsunami":"×","kaji":"×","naisui":"×","kazan":"×"}}
,{"type":"Feature","geometry":{"type":"Point","coordinates":[136.20997749779,36.042335304197]},"properties":{"Name":"コモンライフ花堂西公園","Jusho":"福井県福井市花堂北2丁目2713番2","kouzui":"×","gake":"×","takashio":"×","jishin":"○","tsunami":"×","kaji":"×","naisui":"×","kazan":"×"}}
,{"type":"Feature","geometry":{"type":"Point","coordinates":[136.23228899934,36.070222084828]},"properties":{"Name":"清川公園","Jusho":"福井県福井市宝永1丁目2501番1外","kouzui":"×","gake":"×","takashio":"×","jishin":"○","tsunami":"×","kaji":"×","naisui":"×","kazan":"×"}}
,{"type":"Feature","geometry":{"type":"Point","coordinates":[136.25079884963,36.059048157008]},"properties":{"Name":"上北野西部桜公園","Jusho":"福井県福井市上北野2丁目205番","kouzui":"×","gake":"×","takashio":"×","jishin":"○","tsunami":"×","kaji":"×","naisui":"×","kazan":"×"}}
,{"type":"Feature","geometry":{"type":"Point","coordinates":[136.17735838132,36.05147448913]},"properties":{"Name":"運動公園４丁目公園","Jusho":"福井県福井市運動公園4丁目304番","kouzui":"×","gake":"○","takashio":"×","jishin":"○","tsunami":"×","kaji":"×","naisui":"×","kazan":"×"}}
,{"type":"Feature","geometry":{"type":"Point","coordinates":[136.20088376289,36.036900259396]},"properties":{"Name":"江守中１号公園","Jusho":"福井県福井市江守中町1字15番2外","kouzui":"×","gake":"○","takashio":"×","jishin":"○","tsunami":"×","kaji":"×","naisui":"×","kazan":"×"}}
,{"type":"Feature","geometry":{"type":"Point","coordinates":[136.19995571857,36.036670351753]},"properties":{"Name":"江守中２号公園","Jusho":"福井県福井市江守中町1字34番","kouzui":"×","gake":"○","takashio":"×","jishin":"○","tsunami":"×","kaji":"×","naisui":"×","kazan":"×"}}
,{"type":"Feature","geometry":{"type":"Point","coordinates":[136.2002024818,36.037416464679]},"properties":{"Name":"江守中３号公園","Jusho":"福井県福井市江守中町7字45番7","kouzui":"×","gake":"○","takashio":"×","jishin":"○","tsunami":"×","kaji":"×","naisui":"×","kazan":"×"}}
,{"type":"Feature","geometry":{"type":"Point","coordinates":[136.2244219556,36.055312062964]},"properties":{"Name":"勝見吉野公園","Jusho":"福井県福井市勝見1丁目1216番","kouzui":"×","gake":"×","takashio":"×","jishin":"○","tsunami":"×","kaji":"×","naisui":"×","kazan":"×"}}
,{"type":"Feature","geometry":{"type":"Point","coordinates":[136.23965409796,36.115072968386]},"properties":{"Name":"上野団地３号公園","Jusho":"福井県福井市上野本町新815番外","kouzui":"×","gake":"×","takashio":"×","jishin":"○","tsunami":"×","kaji":"×","naisui":"×","kazan":"×"}}
,{"type":"Feature","geometry":{"type":"Point","coordinates":[136.14347855814,36.062498808475]},"properties":{"Name":"羽坂町９字公園","Jusho":"福井県福井市羽坂町9字9番4","kouzui":"○","gake":"○","takashio":"×","jishin":"○","tsunami":"×","kaji":"×","naisui":"×","kazan":"×"}}
,{"type":"Feature","geometry":{"type":"Point","coordinates":[136.14561627874,36.063420301533]},"properties":{"Name":"羽坂公園","Jusho":"福井県福井市羽坂町48字6番14外","kouzui":"○","gake":"×","takashio":"×","jishin":"○","tsunami":"×","kaji":"×","naisui":"×","kazan":"×"}}
,{"type":"Feature","geometry":{"type":"Point","coordinates":[136.1401257969,36.06076854059]},"properties":{"Name":"フェニックスタウン羽坂公園","Jusho":"福井県福井市羽坂町24字1番26","kouzui":"○","gake":"○","takashio":"×","jishin":"○","tsunami":"×","kaji":"×","naisui":"×","kazan":"×"}}
,{"type":"Feature","geometry":{"type":"Point","coordinates":[136.25050057595,36.070566956834]},"properties":{"Name":"円山元町三角公園","Jusho":"福井県福井市北四ツ居町30字166番","kouzui":"×","gake":"×","takashio":"×","jishin":"○","tsunami":"×","kaji":"×","naisui":"×","kazan":"×"}}
,{"type":"Feature","geometry":{"type":"Point","coordinates":[136.1921678943,36.041787875113]},"properties":{"Name":"渕団地公園","Jusho":"福井県福井市渕町31字701番3","kouzui":"×","gake":"○","takashio":"×","jishin":"○","tsunami":"×","kaji":"×","naisui":"×","kazan":"×"}}
,{"type":"Feature","geometry":{"type":"Point","coordinates":[136.16633232153,36.035216183952]},"properties":{"Name":"ホープタウン田尻公園","Jusho":"福井県福井市田尻栃谷町38字36番226","kouzui":"○","gake":"○","takashio":"×","jishin":"○","tsunami":"×","kaji":"×","naisui":"×","kazan":"×"}}
,{"type":"Feature","geometry":{"type":"Point","coordinates":[136.14770027979,36.027458158737]},"properties":{"Name":"清水公園","Jusho":"福井県福井市風巻町28字1番1外","kouzui":"×","gake":"○","takashio":"×","jishin":"○","tsunami":"×","kaji":"×","naisui":"×","kazan":"×"}}
,{"type":"Feature","geometry":{"type":"Point","coordinates":[136.22863294271,36.093059966344]},"properties":{"Name":"高木睦公園","Jusho":"福井県福井市高木2丁目1001番9","kouzui":"×","gake":"×","takashio":"×","jishin":"○","tsunami":"×","kaji":"×","naisui":"×","kazan":"×"}}
,{"type":"Feature","geometry":{"type":"Point","coordinates":[136.1786338549,36.051365620547]},"properties":{"Name":"ワイワイ公園","Jusho":"福井県福井市運動公園1丁目3203番","kouzui":"×","gake":"○","takashio":"×","jishin":"○","tsunami":"×","kaji":"×","naisui":"×","kazan":"×"}}
,{"type":"Feature","geometry":{"type":"Point","coordinates":[136.21049115493,36.030399682545]},"properties":{"Name":"江端団地１号公園","Jusho":"福井県福井市江端町401番","kouzui":"×","gake":"○","takashio":"×","jishin":"○","tsunami":"×","kaji":"×","naisui":"×","kazan":"×"}}
,{"type":"Feature","geometry":{"type":"Point","coordinates":[136.19684287168,36.001062366017]},"properties":{"Name":"フレッシュ浅水公園","Jusho":"福井県福井市浅水町131字15番3","kouzui":"×","gake":"○","takashio":"×","jishin":"○","tsunami":"×","kaji":"×","naisui":"×","kazan":"×"}}
,{"type":"Feature","geometry":{"type":"Point","coordinates":[136.22105369402,36.051042621821]},"properties":{"Name":"マイタウン春日公園","Jusho":"福井県福井市春日町244番20","kouzui":"×","gake":"×","takashio":"×","jishin":"○","tsunami":"×","kaji":"×","naisui":"×","kazan":"×"}}
,{"type":"Feature","geometry":{"type":"Point","coordinates":[136.21583182049,36.04603988591]},"properties":{"Name":"月見三谷公園","Jusho":"福井県福井市月見1丁目264-15","kouzui":"×","gake":"○","takashio":"×","jishin":"○","tsunami":"×","kaji":"×","naisui":"×","kazan":"×"}}
,{"type":"Feature","geometry":{"type":"Point","coordinates":[136.20884525603,36.092241797849]},"properties":{"Name":"フレッシュタウン新田塚公園","Jusho":"福井県福井市新田塚1丁目8001番18外","kouzui":"×","gake":"×","takashio":"×","jishin":"○","tsunami":"×","kaji":"×","naisui":"×","kazan":"×"}}
,{"type":"Feature","geometry":{"type":"Point","coordinates":[136.22261753621,36.09120808752]},"properties":{"Name":"高木西２号公園","Jusho":"福井県福井市灯明寺町59字25番6","kouzui":"×","gake":"×","takashio":"×","jishin":"○","tsunami":"×","kaji":"×","naisui":"×","kazan":"×"}}
,{"type":"Feature","geometry":{"type":"Point","coordinates":[136.25929617926,36.07360107007]},"properties":{"Name":"下中公園","Jusho":"福井県福井市下中町1字3番11","kouzui":"×","gake":"×","takashio":"×","jishin":"○","tsunami":"×","kaji":"×","naisui":"×","kazan":"×"}}
,{"type":"Feature","geometry":{"type":"Point","coordinates":[136.26986448243,36.083377250961]},"properties":{"Name":"上中三谷公園","Jusho":"福井県福井市上中町28字1番20","kouzui":"×","gake":"○","takashio":"×","jishin":"○","tsunami":"×","kaji":"×","naisui":"×","kazan":"×"}}
,{"type":"Feature","geometry":{"type":"Point","coordinates":[136.24609355774,36.027073721092]},"properties":{"Name":"上六条公園","Jusho":"福井県福井市上六条町18字49番5","kouzui":"×","gake":"×","takashio":"×","jishin":"○","tsunami":"×","kaji":"×","naisui":"×","kazan":"×"}}
,{"type":"Feature","geometry":{"type":"Point","coordinates":[136.26834098771,36.015630516674]},"properties":{"Name":"ニュータウン東郷公園","Jusho":"福井県福井市東郷二ヶ町22字22番4","kouzui":"×","gake":"○","takashio":"×","jishin":"○","tsunami":"×","kaji":"×","naisui":"×","kazan":"×"}}
,{"type":"Feature","geometry":{"type":"Point","coordinates":[136.19843999296,36.030411397639]},"properties":{"Name":"サニー公園","Jusho":"福井県福井市南江守町62字1番61外","kouzui":"○","gake":"×","takashio":"×","jishin":"○","tsunami":"×","kaji":"×","naisui":"×","kazan":"×"}}
,{"type":"Feature","geometry":{"type":"Point","coordinates":[136.20543787629,36.096589314181]},"properties":{"Name":"灯明寺けやき公園","Jusho":"福井県福井市灯明寺4丁目2405番","kouzui":"×","gake":"×","takashio":"×","jishin":"○","tsunami":"×","kaji":"×","naisui":"×","kazan":"×"}}
,{"type":"Feature","geometry":{"type":"Point","coordinates":[136.21006218301,36.100412100824]},"properties":{"Name":"舟橋新公園","Jusho":"福井県福井市舟橋新1丁目1701番","kouzui":"×","gake":"×","takashio":"×","jishin":"○","tsunami":"×","kaji":"×","naisui":"×","kazan":"×"}}
,{"type":"Feature","geometry":{"type":"Point","coordinates":[136.21455136133,36.0999102183]},"properties":{"Name":"ふれあいターザン公園","Jusho":"福井県福井市舟橋黒竜1丁目407番","kouzui":"×","gake":"×","takashio":"×","jishin":"○","tsunami":"×","kaji":"×","naisui":"×","kazan":"×"}}
,{"type":"Feature","geometry":{"type":"Point","coordinates":[136.21566862813,36.097689433988]},"properties":{"Name":"灯明寺どんぐり公園","Jusho":"福井県福井市灯明寺3丁目3903番","kouzui":"×","gake":"×","takashio":"×","jishin":"○","tsunami":"×","kaji":"×","naisui":"×","kazan":"×"}}
,{"type":"Feature","geometry":{"type":"Point","coordinates":[136.21874780408,36.096059636455]},"properties":{"Name":"灯明寺クスノキ公園","Jusho":"福井県福井市灯明寺3丁目401番","kouzui":"×","gake":"×","takashio":"×","jishin":"○","tsunami":"×","kaji":"×","naisui":"×","kazan":"×"}}
,{"type":"Feature","geometry":{"type":"Point","coordinates":[136.22334242812,36.097145449473]},"properties":{"Name":"かおり公園","Jusho":"福井県福井市高木西1丁目105番","kouzui":"×","gake":"×","takashio":"×","jishin":"○","tsunami":"×","kaji":"×","naisui":"×","kazan":"×"}}
,{"type":"Feature","geometry":{"type":"Point","coordinates":[136.21009949658,36.0362035825]},"properties":{"Name":"花堂中２丁目公園","Jusho":"福井県福井市花堂中2丁目1518番1","kouzui":"×","gake":"○","takashio":"×","jishin":"○","tsunami":"×","kaji":"×","naisui":"×","kazan":"×"}}
,{"type":"Feature","geometry":{"type":"Point","coordinates":[136.22663206595,36.091223760532]},"properties":{"Name":"高木西１号公園","Jusho":"福井県福井市高木町25字23番","kouzui":"×","gake":"×","takashio":"×","jishin":"○","tsunami":"×","kaji":"×","naisui":"×","kazan":"×"}}
,{"type":"Feature","geometry":{"type":"Point","coordinates":[136.19367654941,36.04575060187]},"properties":{"Name":"福町三谷公園","Jusho":"福井県福井市福町33字7番1","kouzui":"×","gake":"×","takashio":"×","jishin":"○","tsunami":"×","kaji":"×","naisui":"×","kazan":"×"}}
,{"type":"Feature","geometry":{"type":"Point","coordinates":[136.20139666735,36.000159668551]},"properties":{"Name":"福井ハイツ公園","Jusho":"福井県福井市浅水二日町126字6番6外","kouzui":"○","gake":"○","takashio":"×","jishin":"○","tsunami":"×","kaji":"×","naisui":"×","kazan":"×"}}
,{"type":"Feature","geometry":{"type":"Point","coordinates":[136.24976680187,36.105862921069]},"properties":{"Name":"中藤新保公園","Jusho":"福井県福井市中藤新保町14字1番5外","kouzui":"×","gake":"×","takashio":"×","jishin":"○","tsunami":"×","kaji":"×","naisui":"×","kazan":"×"}}
,{"type":"Feature","geometry":{"type":"Point","coordinates":[136.25324388572,36.061623804669]},"properties":{"Name":"チビチビ公園","Jusho":"福井県福井市河増町20字1番10外","kouzui":"×","gake":"×","takashio":"×","jishin":"○","tsunami":"×","kaji":"×","naisui":"×","kazan":"×"}}
,{"type":"Feature","geometry":{"type":"Point","coordinates":[136.22606987912,36.060358015128]},"properties":{"Name":"手寄公園","Jusho":"福井県福井市手寄2丁目101番1","kouzui":"×","gake":"×","takashio":"×","jishin":"○","tsunami":"×","kaji":"×","naisui":"×","kazan":"×"}}
,{"type":"Feature","geometry":{"type":"Point","coordinates":[136.22107804061,36.047493930196]},"properties":{"Name":"明倫公園","Jusho":"福井県福井市木田1丁目1344番外","kouzui":"×","gake":"×","takashio":"×","jishin":"○","tsunami":"×","kaji":"×","naisui":"×","kazan":"×"}}
,{"type":"Feature","geometry":{"type":"Point","coordinates":[136.2555250085,36.08120469946]},"properties":{"Name":"大沢宅地公園","Jusho":"福井県福井市新保町40字18番4外","kouzui":"×","gake":"○","takashio":"×","jishin":"○","tsunami":"×","kaji":"×","naisui":"×","kazan":"×"}}
,{"type":"Feature","geometry":{"type":"Point","coordinates":[136.23669526983,36.072463352189]},"properties":{"Name":"志比口北公園","Jusho":"福井県福井市志比口3丁目4-6","kouzui":"×","gake":"×","takashio":"×","jishin":"○","tsunami":"×","kaji":"×","naisui":"×","kazan":"×"}}
,{"type":"Feature","geometry":{"type":"Point","coordinates":[136.1972759004,36.042178933527]},"properties":{"Name":"西谷池田開発公園","Jusho":"福井県福井市西谷町2字1番18","kouzui":"×","gake":"○","takashio":"×","jishin":"○","tsunami":"×","kaji":"×","naisui":"×","kazan":"×"}}
,{"type":"Feature","geometry":{"type":"Point","coordinates":[136.23974888268,36.09476684769]},"properties":{"Name":"居村せせらぎ公園","Jusho":"福井県福井市高柳3丁目1203番","kouzui":"×","gake":"×","takashio":"×","jishin":"○","tsunami":"×","kaji":"×","naisui":"×","kazan":"×"}}
,{"type":"Feature","geometry":{"type":"Point","coordinates":[136.2422594303,36.093748190309]},"properties":{"Name":"高柳土器の丘公園","Jusho":"福井県福井市高柳3丁目2301番","kouzui":"×","gake":"×","takashio":"×","jishin":"○","tsunami":"×","kaji":"×","naisui":"×","kazan":"×"}}
,{"type":"Feature","geometry":{"type":"Point","coordinates":[136.24796287037,36.096194523739]},"properties":{"Name":"大和田西公園","Jusho":"福井県福井市大和田2丁目302番","kouzui":"×","gake":"○","takashio":"×","jishin":"○","tsunami":"×","kaji":"×","naisui":"×","kazan":"×"}}
,{"type":"Feature","geometry":{"type":"Point","coordinates":[136.25303090433,36.096595473718]},"properties":{"Name":"大和田公園","Jusho":"福井県福井市大和田2丁目1801番","kouzui":"×","gake":"○","takashio":"×","jishin":"○","tsunami":"×","kaji":"×","naisui":"×","kazan":"×"}}
,{"type":"Feature","geometry":{"type":"Point","coordinates":[136.23954210227,36.091491927165]},"properties":{"Name":"茶畔東公園","Jusho":"福井県福井市高木中央3丁目1503番","kouzui":"×","gake":"×","takashio":"×","jishin":"○","tsunami":"×","kaji":"×","naisui":"×","kazan":"×"}}
,{"type":"Feature","geometry":{"type":"Point","coordinates":[136.25050355163,36.090162804239]},"properties":{"Name":"大和田南公園","Jusho":"福井県福井市大和田1丁目1601番","kouzui":"×","gake":"○","takashio":"×","jishin":"○","tsunami":"×","kaji":"×","naisui":"×","kazan":"×"}}
,{"type":"Feature","geometry":{"type":"Point","coordinates":[136.19962401489,36.028964694955]},"properties":{"Name":"ひのき台西公園","Jusho":"福井県福井市引目町19字5番77","kouzui":"○","gake":"×","takashio":"×","jishin":"○","tsunami":"×","kaji":"×","naisui":"×","kazan":"×"}}
,{"type":"Feature","geometry":{"type":"Point","coordinates":[136.21928985492,36.0648588064]},"properties":{"Name":"中央公園","Jusho":"福井県福井市大手3丁目11","kouzui":"×","gake":"×","takashio":"×","jishin":"○","tsunami":"×","kaji":"×","naisui":"×","kazan":"×"}}
,{"type":"Feature","geometry":{"type":"Point","coordinates":[136.21098582592,36.069859186891]},"properties":{"Name":"西公園","Jusho":"福井県福井市花月1丁目3","kouzui":"×","gake":"×","takashio":"×","jishin":"○","tsunami":"×","kaji":"×","naisui":"×","kazan":"×"}}
,{"type":"Feature","geometry":{"type":"Point","coordinates":[136.20889651496,36.033863515756]},"properties":{"Name":"南公園","Jusho":"福井県福井市大島町3字201","kouzui":"×","gake":"○","takashio":"×","jishin":"○","tsunami":"×","kaji":"×","naisui":"×","kazan":"×"}}
,{"type":"Feature","geometry":{"type":"Point","coordinates":[136.206531,36.046616]},"properties":{"Name":"山奥公園","Jusho":"福井県福井市月見4丁目8","kouzui":"×","gake":"○","takashio":"×","jishin":"○","tsunami":"×","kaji":"×","naisui":"×","kazan":"×"}}
,{"type":"Feature","geometry":{"type":"Point","coordinates":[136.238462,36.056289]},"properties":{"Name":"和田公園","Jusho":"福井県福井市御幸4丁目4","kouzui":"×","gake":"×","takashio":"×","jishin":"○","tsunami":"×","kaji":"×","naisui":"×","kazan":"×"}}
,{"type":"Feature","geometry":{"type":"Point","coordinates":[136.23408229154,36.081290142403]},"properties":{"Name":"開発公園","Jusho":"福井県福井市西開発3丁目801","kouzui":"×","gake":"○","takashio":"×","jishin":"○","tsunami":"×","kaji":"×","naisui":"×","kazan":"×"}}
,{"type":"Feature","geometry":{"type":"Point","coordinates":[136.24042076456,36.065089412929]},"properties":{"Name":"米松公園","Jusho":"福井県福井市米松1丁目10","kouzui":"×","gake":"×","takashio":"×","jishin":"○","tsunami":"×","kaji":"×","naisui":"×","kazan":"×"}}
,{"type":"Feature","geometry":{"type":"Point","coordinates":[136.20285,36.07985]},"properties":{"Name":"西藤公園","Jusho":"福井県福井市大宮5丁目5","kouzui":"×","gake":"×","takashio":"×","jishin":"○","tsunami":"×","kaji":"×","naisui":"×","kazan":"×"}}
,{"type":"Feature","geometry":{"type":"Point","coordinates":[136.231071,36.091657]},"properties":{"Name":"高木中央公園","Jusho":"福井県福井市高木中央1丁目601","kouzui":"×","gake":"×","takashio":"×","jishin":"○","tsunami":"×","kaji":"×","naisui":"×","kazan":"×"}}
,{"type":"Feature","geometry":{"type":"Point","coordinates":[136.19237,36.07143]},"properties":{"Name":"菅谷公園","Jusho":"福井県福井市菅谷1丁目6","kouzui":"×","gake":"○","takashio":"×","jishin":"○","tsunami":"×","kaji":"×","naisui":"×","kazan":"×"}}
,{"type":"Feature","geometry":{"type":"Point","coordinates":[136.201479,36.066861]},"properties":{"Name":"中狭公園","Jusho":"福井県福井市光陽1丁目13","kouzui":"×","gake":"×","takashio":"×","jishin":"○","tsunami":"×","kaji":"×","naisui":"×","kazan":"×"}}
,{"type":"Feature","geometry":{"type":"Point","coordinates":[136.21712,36.08653]},"properties":{"Name":"北部公園","Jusho":"福井県福井市二の宮3丁目33","kouzui":"×","gake":"×","takashio":"×","jishin":"○","tsunami":"×","kaji":"×","naisui":"×","kazan":"×"}}
,{"type":"Feature","geometry":{"type":"Point","coordinates":[136.227989,36.105805]},"properties":{"Name":"森田公園","Jusho":"福井県福井市古市3丁目201-1","kouzui":"×","gake":"×","takashio":"×","jishin":"○","tsunami":"×","kaji":"×","naisui":"×","kazan":"×"}}
,{"type":"Feature","geometry":{"type":"Point","coordinates":[136.246543,36.079905]},"properties":{"Name":"新保公園","Jusho":"福井県福井市新保1丁目701","kouzui":"×","gake":"○","takashio":"×","jishin":"○","tsunami":"×","kaji":"×","naisui":"×","kazan":"×"}}
,{"type":"Feature","geometry":{"type":"Point","coordinates":[136.234293,36.039965]},"properties":{"Name":"下馬中央公園","Jusho":"福井県福井市下馬3丁目1306","kouzui":"×","gake":"×","takashio":"×","jishin":"○","tsunami":"×","kaji":"×","naisui":"×","kazan":"×"}}
,{"type":"Feature","geometry":{"type":"Point","coordinates":[136.2014,36.04008]},"properties":{"Name":"西谷中央公園","Jusho":"福井県福井市西谷2丁目2501","kouzui":"×","gake":"×","takashio":"×","jishin":"○","tsunami":"×","kaji":"×","naisui":"×","kazan":"×"}}
,{"type":"Feature","geometry":{"type":"Point","coordinates":[136.20899370208,36.097666909323]},"properties":{"Name":"灯舟ひまわり公園","Jusho":"福井県福井市灯明寺4丁目2001番","kouzui":"×","gake":"×","takashio":"×","jishin":"○","tsunami":"×","kaji":"×","naisui":"×","kazan":"×"}}
,{"type":"Feature","geometry":{"type":"Point","coordinates":[136.230952,36.079517]},"properties":{"Name":"町屋公園","Jusho":"福井県福井市町屋2丁目10","kouzui":"×","gake":"×","takashio":"×","jishin":"○","tsunami":"×","kaji":"×","naisui":"×","kazan":"×"}}
,{"type":"Feature","geometry":{"type":"Point","coordinates":[136.228505,36.048206]},"properties":{"Name":"板垣中央公園","Jusho":"福井県福井市板垣2丁目901","kouzui":"×","gake":"×","takashio":"×","jishin":"○","tsunami":"×","kaji":"×","naisui":"×","kazan":"×"}}
,{"type":"Feature","geometry":{"type":"Point","coordinates":[136.225344,36.117778]},"properties":{"Name":"定正公園","Jusho":"福井県福井市石盛町201","kouzui":"×","gake":"×","takashio":"×","jishin":"○","tsunami":"×","kaji":"×","naisui":"×","kazan":"×"}}
,{"type":"Feature","geometry":{"type":"Point","coordinates":[136.246225,36.065117]},"properties":{"Name":"ちぐさ公園","Jusho":"福井県福井市北四ツ居1丁目23","kouzui":"×","gake":"×","takashio":"×","jishin":"○","tsunami":"×","kaji":"×","naisui":"×","kazan":"×"}}
,{"type":"Feature","geometry":{"type":"Point","coordinates":[136.22464507713,36.043550753503]},"properties":{"Name":"鹿江公園","Jusho":"福井県福井市木田3丁目2001","kouzui":"×","gake":"×","takashio":"×","jishin":"○","tsunami":"×","kaji":"×","naisui":"×","kazan":"×"}}
,{"type":"Feature","geometry":{"type":"Point","coordinates":[136.247855,36.054914]},"properties":{"Name":"成和公園","Jusho":"福井県福井市成和2丁目801","kouzui":"×","gake":"×","takashio":"×","jishin":"○","tsunami":"×","kaji":"×","naisui":"×","kazan":"×"}}
,{"type":"Feature","geometry":{"type":"Point","coordinates":[136.24527,36.045551]},"properties":{"Name":"和田中西公園","Jusho":"福井県福井市和田中1丁目1001","kouzui":"×","gake":"×","takashio":"×","jishin":"○","tsunami":"×","kaji":"×","naisui":"×","kazan":"×"}}
,{"type":"Feature","geometry":{"type":"Point","coordinates":[136.18936,36.04048]},"properties":{"Name":"ふち中央公園","Jusho":"福井県福井市渕2丁目701","kouzui":"×","gake":"○","takashio":"×","jishin":"○","tsunami":"×","kaji":"×","naisui":"×","kazan":"×"}}
,{"type":"Feature","geometry":{"type":"Point","coordinates":[136.190157974,36.0581783215]},"properties":{"Name":"若杉中央公園","Jusho":"福井県福井市若杉1丁目2601","kouzui":"×","gake":"○","takashio":"×","jishin":"○","tsunami":"×","kaji":"×","naisui":"×","kazan":"×"}}
,{"type":"Feature","geometry":{"type":"Point","coordinates":[136.19139321228,36.049113866214]},"properties":{"Name":"緑苑公園","Jusho":"福井県福井市福2丁目801","kouzui":"×","gake":"○","takashio":"×","jishin":"○","tsunami":"×","kaji":"×","naisui":"×","kazan":"×"}}
,{"type":"Feature","geometry":{"type":"Point","coordinates":[136.20046265402,36.05108585638]},"properties":{"Name":"足羽山公園","Jusho":"福井県福井市小山谷町他6","kouzui":"○","gake":"○","takashio":"×","jishin":"○","tsunami":"×","kaji":"×","naisui":"×","kazan":"×"}}
,{"type":"Feature","geometry":{"type":"Point","coordinates":[136.280897,36.053499]},"properties":{"Name":"東山公園","Jusho":"福井県福井市河水町他3","kouzui":"○","gake":"○","takashio":"×","jishin":"○","tsunami":"×","kaji":"×","naisui":"×","kazan":"×"}}
,{"type":"Feature","geometry":{"type":"Point","coordinates":[136.22296638766,36.056541729327]},"properties":{"Name":"東公園","Jusho":"福井県福井市豊島2丁目5","kouzui":"×","gake":"×","takashio":"×","jishin":"○","tsunami":"×","kaji":"×","naisui":"×","kazan":"×"}}
,{"type":"Feature","geometry":{"type":"Point","coordinates":[136.156617,36.06263]},"properties":{"Name":"福井市総合運動公園","Jusho":"福井県福井市安田町、細坂町","kouzui":"×","gake":"○","takashio":"×","jishin":"○","tsunami":"×","kaji":"×","naisui":"×","kazan":"×"}}
,{"type":"Feature","geometry":{"type":"Point","coordinates":[136.22099294,36.06121241]},"properties":{"Name":"ガレリアポケット公園","Jusho":"福井県福井市中央1丁目10","kouzui":"×","gake":"×","takashio":"×","jishin":"○","tsunami":"×","kaji":"×","naisui":"×","kazan":"×"}}
,{"type":"Feature","geometry":{"type":"Point","coordinates":[136.12241988057,36.143644883239]},"properties":{"Name":"春日神社","Jusho":"福井県福井市小幡町","kouzui":"×","gake":"×","takashio":"×","jishin":"×","tsunami":"○","kaji":"×","naisui":"×","kazan":"×"}}
,{"type":"Feature","geometry":{"type":"Point","coordinates":[136.12465147847,36.141738785981]},"properties":{"Name":"蓮照寺","Jusho":"福井県福井市小幡町","kouzui":"×","gake":"×","takashio":"×","jishin":"×","tsunami":"○","kaji":"×","naisui":"×","kazan":"×"}}
,{"type":"Feature","geometry":{"type":"Point","coordinates":[136.1223125922,36.140144559983]},"properties":{"Name":"為口寿人宅前","Jusho":"福井県福井市為寄町","kouzui":"×","gake":"×","takashio":"×","jishin":"×","tsunami":"○","kaji":"×","naisui":"×","kazan":"×"}}
,{"type":"Feature","geometry":{"type":"Point","coordinates":[136.12241988057,36.143644883239]},"properties":{"Name":"春日神社","Jusho":"福井県福井市石畠町","kouzui":"×","gake":"×","takashio":"×","jishin":"×","tsunami":"○","kaji":"×","naisui":"×","kazan":"×"}}
,{"type":"Feature","geometry":{"type":"Point","coordinates":[136.11690764253,36.136599376465]},"properties":{"Name":"坪田秀幸宅後方の山","Jusho":"福井県福井市田ノ頭町","kouzui":"×","gake":"×","takashio":"×","jishin":"×","tsunami":"○","kaji":"×","naisui":"×","kazan":"×"}}
,{"type":"Feature","geometry":{"type":"Point","coordinates":[136.1189000072,36.141160195516]},"properties":{"Name":"硲神社境内","Jusho":"福井県福井市石畠町","kouzui":"×","gake":"×","takashio":"×","jishin":"×","tsunami":"○","kaji":"×","naisui":"×","kazan":"×"}}
,{"type":"Feature","geometry":{"type":"Point","coordinates":[136.10999827211,36.144249978807]},"properties":{"Name":"ヤマショウ建設駐車場","Jusho":"福井県福井市深坂町","kouzui":"×","gake":"×","takashio":"×","jishin":"×","tsunami":"○","kaji":"×","naisui":"×","kazan":"×"}}
,{"type":"Feature","geometry":{"type":"Point","coordinates":[136.12241988057,36.143644883239]},"properties":{"Name":"春日神社","Jusho":"福井県福井市浜島町","kouzui":"×","gake":"×","takashio":"×","jishin":"×","tsunami":"○","kaji":"×","naisui":"×","kazan":"×"}}
,{"type":"Feature","geometry":{"type":"Point","coordinates":[136.1111001434,36.155463564125]},"properties":{"Name":"渡辺プロパン前","Jusho":"福井県福井市白方町","kouzui":"×","gake":"×","takashio":"×","jishin":"×","tsunami":"○","kaji":"×","naisui":"×","kazan":"×"}}
,{"type":"Feature","geometry":{"type":"Point","coordinates":[136.11633635651,36.164996175184]},"properties":{"Name":"さわやか広場（北側）","Jusho":"福井県福井市テクノポート","kouzui":"×","gake":"×","takashio":"×","jishin":"×","tsunami":"○","kaji":"×","naisui":"×","kazan":"×"}}
,{"type":"Feature","geometry":{"type":"Point","coordinates":[136.11146546495,36.159469870371]},"properties":{"Name":"さわやか広場（南側）","Jusho":"福井県福井市テクノポート","kouzui":"×","gake":"×","takashio":"×","jishin":"×","tsunami":"○","kaji":"×","naisui":"×","kazan":"×"}}
,{"type":"Feature","geometry":{"type":"Point","coordinates":[136.10813684355,36.146681217791]},"properties":{"Name":"ゴミステーション横","Jusho":"福井県福井市石新保町","kouzui":"×","gake":"×","takashio":"×","jishin":"×","tsunami":"○","kaji":"×","naisui":"×","kazan":"×"}}
,{"type":"Feature","geometry":{"type":"Point","coordinates":[136.10296079905,36.151998243002]},"properties":{"Name":"やすらぎ広場","Jusho":"福井県福井市テクノポート","kouzui":"×","gake":"×","takashio":"×","jishin":"×","tsunami":"○","kaji":"×","naisui":"×","kazan":"×"}}
,{"type":"Feature","geometry":{"type":"Point","coordinates":[136.10657393812,36.144862068059]},"properties":{"Name":"浜別所集落センター","Jusho":"福井県福井市浜別所町","kouzui":"×","gake":"×","takashio":"×","jishin":"×","tsunami":"○","kaji":"×","naisui":"×","kazan":"×"}}
,{"type":"Feature","geometry":{"type":"Point","coordinates":[136.09545462477,36.144265292757]},"properties":{"Name":"八幡神社後方の上畑","Jusho":"福井県福井市川尻町","kouzui":"×","gake":"×","takashio":"×","jishin":"×","tsunami":"○","kaji":"×","naisui":"×","kazan":"×"}}
,{"type":"Feature","geometry":{"type":"Point","coordinates":[136.09370763072,36.143709458628]},"properties":{"Name":"性光坊跡、裏山","Jusho":"福井県福井市両橋屋町","kouzui":"×","gake":"×","takashio":"×","jishin":"×","tsunami":"○","kaji":"×","naisui":"×","kazan":"×"}}
,{"type":"Feature","geometry":{"type":"Point","coordinates":[136.09836381497,36.134808138606]},"properties":{"Name":"市ノ瀬集落センター前","Jusho":"福井県福井市市ノ瀬町","kouzui":"×","gake":"×","takashio":"×","jishin":"×","tsunami":"○","kaji":"×","naisui":"×","kazan":"×"}}
,{"type":"Feature","geometry":{"type":"Point","coordinates":[136.09883588376,36.145681896149]},"properties":{"Name":"旧寺前商店前","Jusho":"福井県福井市柳原町","kouzui":"×","gake":"×","takashio":"×","jishin":"×","tsunami":"○","kaji":"×","naisui":"×","kazan":"×"}}
,{"type":"Feature","geometry":{"type":"Point","coordinates":[136.0893459061,36.134821864876]},"properties":{"Name":"西畑町ふれあい会館","Jusho":"福井県福井市西畑町","kouzui":"×","gake":"×","takashio":"×","jishin":"×","tsunami":"○","kaji":"×","naisui":"×","kazan":"×"}}
,{"type":"Feature","geometry":{"type":"Point","coordinates":[136.08428275865,36.135926647346]},"properties":{"Name":"西二ツ屋町ふれあい会館","Jusho":"福井県福井市西二ツ屋町","kouzui":"×","gake":"×","takashio":"×","jishin":"×","tsunami":"○","kaji":"×","naisui":"×","kazan":"×"}}
,{"type":"Feature","geometry":{"type":"Point","coordinates":[136.08123984588,36.136170982479]},"properties":{"Name":"白山神社","Jusho":"福井県福井市大窪町","kouzui":"×","gake":"×","takashio":"×","jishin":"×","tsunami":"○","kaji":"×","naisui":"×","kazan":"×"}}
,{"type":"Feature","geometry":{"type":"Point","coordinates":[136.07426122936,36.130944472174]},"properties":{"Name":"悠和園駐車場","Jusho":"福井県福井市免鳥町","kouzui":"×","gake":"×","takashio":"×","jishin":"×","tsunami":"○","kaji":"×","naisui":"×","kazan":"×"}}
,{"type":"Feature","geometry":{"type":"Point","coordinates":[136.06851855878,36.131087439103]},"properties":{"Name":"浜住町生活改善センター","Jusho":"福井県福井市浜住町","kouzui":"×","gake":"×","takashio":"×","jishin":"×","tsunami":"○","kaji":"×","naisui":"×","kazan":"×"}}
,{"type":"Feature","geometry":{"type":"Point","coordinates":[136.06408463154,36.128094553392]},"properties":{"Name":"旧国道駐車帯","Jusho":"福井県福井市和布町","kouzui":"×","gake":"×","takashio":"×","jishin":"×","tsunami":"○","kaji":"×","naisui":"×","kazan":"×"}}
,{"type":"Feature","geometry":{"type":"Point","coordinates":[136.06173933188,36.127028564106]},"properties":{"Name":"鷹巣公民館前駐車場","Jusho":"福井県福井市蓑町","kouzui":"×","gake":"×","takashio":"×","jishin":"×","tsunami":"○","kaji":"×","naisui":"×","kazan":"×"}}
,{"type":"Feature","geometry":{"type":"Point","coordinates":[136.058562,36.128308]},"properties":{"Name":"旧野外趣味活動施設（芝生広場）","Jusho":"福井県福井市蓑町","kouzui":"×","gake":"×","takashio":"×","jishin":"×","tsunami":"○","kaji":"×","naisui":"×","kazan":"×"}}
,{"type":"Feature","geometry":{"type":"Point","coordinates":[136.10729650815,36.14578493475]},"properties":{"Name":"棗公民館","Jusho":"福井県福井市石橋町4-14","kouzui":"×","gake":"×","takashio":"×","jishin":"×","tsunami":"○","kaji":"×","naisui":"×","kazan":"×"}}
,{"type":"Feature","geometry":{"type":"Point","coordinates":[136.10889584581,36.145335456411]},"properties":{"Name":"棗小・中学校","Jusho":"福井県福井市石新保町12-32","kouzui":"×","gake":"×","takashio":"×","jishin":"×","tsunami":"○","kaji":"×","naisui":"×","kazan":"×"}}
,{"type":"Feature","geometry":{"type":"Point","coordinates":[136.10817716656,36.145122124523]},"properties":{"Name":"棗こども園","Jusho":"福井県福井市石新保町13-17","kouzui":"×","gake":"×","takashio":"×","jishin":"×","tsunami":"○","kaji":"×","naisui":"×","kazan":"×"}}
,{"type":"Feature","geometry":{"type":"Point","coordinates":[136.06193781535,36.127084891837]},"properties":{"Name":"鷹巣公民館","Jusho":"福井県福井市蓑町14-7","kouzui":"×","gake":"×","takashio":"×","jishin":"×","tsunami":"○","kaji":"×","naisui":"×","kazan":"×"}}
,{"type":"Feature","geometry":{"type":"Point","coordinates":[136.0659865501,36.13112492044]},"properties":{"Name":"鷹巣小・中学校","Jusho":"福井県福井市和布町3-6","kouzui":"×","gake":"×","takashio":"×","jishin":"×","tsunami":"○","kaji":"×","naisui":"×","kazan":"×"}}
,{"type":"Feature","geometry":{"type":"Point","coordinates":[136.05587513758,36.124588779935]},"properties":{"Name":"勝明寺","Jusho":"福井県福井市松陰町","kouzui":"×","gake":"×","takashio":"×","jishin":"×","tsunami":"○","kaji":"×","naisui":"×","kazan":"×"}}
,{"type":"Feature","geometry":{"type":"Point","coordinates":[136.05675490214,36.124333130238]},"properties":{"Name":"松蔭バス停付近","Jusho":"福井県福井市松陰町","kouzui":"×","gake":"×","takashio":"×","jishin":"×","tsunami":"○","kaji":"×","naisui":"×","kazan":"×"}}
,{"type":"Feature","geometry":{"type":"Point","coordinates":[136.05848440918,36.122737665276]},"properties":{"Name":"糸崎ふれあい会館","Jusho":"福井県福井市糸崎町","kouzui":"×","gake":"×","takashio":"×","jishin":"×","tsunami":"○","kaji":"×","naisui":"×","kazan":"×"}}
,{"type":"Feature","geometry":{"type":"Point","coordinates":[136.05081054508,36.114171748066]},"properties":{"Name":"円流寺裏側","Jusho":"福井県福井市長橋町","kouzui":"×","gake":"×","takashio":"×","jishin":"×","tsunami":"○","kaji":"×","naisui":"×","kazan":"×"}}
,{"type":"Feature","geometry":{"type":"Point","coordinates":[136.05055305301,36.11357804076]},"properties":{"Name":"熊野神社前","Jusho":"福井県福井市長橋町","kouzui":"×","gake":"×","takashio":"×","jishin":"×","tsunami":"○","kaji":"×","naisui":"×","kazan":"×"}}
,{"type":"Feature","geometry":{"type":"Point","coordinates":[136.04973766146,36.110166303565]},"properties":{"Name":"長橋小高台","Jusho":"福井県福井市長橋町","kouzui":"×","gake":"×","takashio":"×","jishin":"×","tsunami":"○","kaji":"×","naisui":"×","kazan":"×"}}
,{"type":"Feature","geometry":{"type":"Point","coordinates":[136.04738385605,36.106968773335]},"properties":{"Name":"天満宮","Jusho":"福井県福井市北菅生町","kouzui":"×","gake":"×","takashio":"×","jishin":"×","tsunami":"○","kaji":"×","naisui":"×","kazan":"×"}}
,{"type":"Feature","geometry":{"type":"Point","coordinates":[136.04844601082,36.107692549845]},"properties":{"Name":"北菅生町高台","Jusho":"福井県福井市北菅生町","kouzui":"×","gake":"×","takashio":"×","jishin":"×","tsunami":"○","kaji":"×","naisui":"×","kazan":"×"}}
,{"type":"Feature","geometry":{"type":"Point","coordinates":[136.04514084021,36.106101370516]},