var gunma={"type":"FeatureCollection","name":"gunma","features":[
{"type":"Feature","geometry":{"type":"Point","coordinates":[139.056113,36.407646]},"properties":{"Name":"岩神小学校","Jusho":"群馬県前橋市岩神町４-４-１","kouzui":"×","gake":"×","takashio":"×","jishin":"○","tsunami":"×","kaji":"○","naisui":"×","kazan":"×"}}
,{"type":"Feature","geometry":{"type":"Point","coordinates":[139.05124355173,36.417499483245]},"properties":{"Name":"敷島公園","Jusho":"群馬県前橋市敷島町２６２","kouzui":"×","gake":"×","takashio":"×","jishin":"○","tsunami":"×","kaji":"○","naisui":"×","kazan":"×"}}
,{"type":"Feature","geometry":{"type":"Point","coordinates":[139.065572,36.402886]},"properties":{"Name":"敷島小学校","Jusho":"群馬県前橋市昭和町１-２２-８","kouzui":"×","gake":"×","takashio":"×","jishin":"○","tsunami":"×","kaji":"○","naisui":"×","kazan":"×"}}
,{"type":"Feature","geometry":{"type":"Point","coordinates":[139.06205411657,36.400417920557]},"properties":{"Name":"第三中学校","Jusho":"群馬県前橋市平和町２-１３-２４","kouzui":"○","gake":"×","takashio":"×","jishin":"○","tsunami":"×","kaji":"○","naisui":"×","kazan":"×"}}
,{"type":"Feature","geometry":{"type":"Point","coordinates":[139.070792,36.40594]},"properties":{"Name":"若宮小学校","Jusho":"群馬県前橋市若宮町４-１２-２４","kouzui":"○","gake":"×","takashio":"×","jishin":"○","tsunami":"×","kaji":"○","naisui":"×","kazan":"×"}}
,{"type":"Feature","geometry":{"type":"Point","coordinates":[139.07626107258,36.397747657191]},"properties":{"Name":"日吉町１号公園","Jusho":"群馬県前橋市日吉町１-１０-２","kouzui":"×","gake":"×","takashio":"×","jishin":"○","tsunami":"×","kaji":"○","naisui":"×","kazan":"×"}}
,{"type":"Feature","geometry":{"type":"Point","coordinates":[139.0797554,36.39829188]},"properties":{"Name":"前橋市総合福祉会館","Jusho":"群馬県前橋市日吉町２-１７-１０","kouzui":"×","gake":"×","takashio":"×","jishin":"○","tsunami":"×","kaji":"○","naisui":"×","kazan":"×"}}
,{"type":"Feature","geometry":{"type":"Point","coordinates":[139.0822869,36.39495757]},"properties":{"Name":"県立勢多農林高等学校","Jusho":"群馬県前橋市日吉町２-２５-１","kouzui":"×","gake":"×","takashio":"×","jishin":"○","tsunami":"×","kaji":"○","naisui":"×","kazan":"×"}}
,{"type":"Feature","geometry":{"type":"Point","coordinates":[139.076427,36.400596]},"properties":{"Name":"みずき中学校","Jusho":"群馬県前橋市日吉町３-９-２","kouzui":"○","gake":"×","takashio":"×","jishin":"○","tsunami":"×","kaji":"○","naisui":"×","kazan":"×"}}
,{"type":"Feature","geometry":{"type":"Point","coordinates":[139.080126,36.394658]},"properties":{"Name":"城東小学校","Jusho":"群馬県前橋市城東町１-３５-７","kouzui":"×","gake":"×","takashio":"×","jishin":"○","tsunami":"×","kaji":"○","naisui":"×","kazan":"×"}}
,{"type":"Feature","geometry":{"type":"Point","coordinates":[139.0639314,36.38880297]},"properties":{"Name":"桃井小学校","Jusho":"群馬県前橋市大手町２-１６-４","kouzui":"○","gake":"×","takashio":"×","jishin":"○","tsunami":"×","kaji":"○","naisui":"×","kazan":"×"}}
,{"type":"Feature","geometry":{"type":"Point","coordinates":[139.0620492851,36.393927055211]},"properties":{"Name":"前橋公園","Jusho":"群馬県前橋市大手町３-１３","kouzui":"×","gake":"×","takashio":"×","jishin":"○","tsunami":"×","kaji":"○","naisui":"×","kazan":"×"}}
,{"type":"Feature","geometry":{"type":"Point","coordinates":[139.0648642,36.38403763]},"properties":{"Name":"県立前橋女子高等学校","Jusho":"群馬県前橋市紅雲町２-１９-１","kouzui":"×","gake":"×","takashio":"×","jishin":"○","tsunami":"×","kaji":"○","naisui":"×","kazan":"×"}}
,{"type":"Feature","geometry":{"type":"Point","coordinates":[139.078661,36.38684]},"properties":{"Name":"中川小学校","Jusho":"群馬県前橋市三河町２-１-３","kouzui":"○","gake":"×","takashio":"×","jishin":"○","tsunami":"×","kaji":"○","naisui":"×","kazan":"×"}}
,{"type":"Feature","geometry":{"type":"Point","coordinates":[139.0899125,36.38652335]},"properties":{"Name":"保健センター","Jusho":"群馬県前橋市朝日町３-３６-１７","kouzui":"×","gake":"×","takashio":"×","jishin":"○","tsunami":"×","kaji":"○","naisui":"×","kazan":"×"}}
,{"type":"Feature","geometry":{"type":"Point","coordinates":[139.074253,36.375581]},"properties":{"Name":"城南小学校","Jusho":"群馬県前橋市六供町１-１３-２","kouzui":"×","gake":"×","takashio":"×","jishin":"○","tsunami":"×","kaji":"○","naisui":"×","kazan":"×"}}
,{"type":"Feature","geometry":{"type":"Point","coordinates":[139.0826262,36.37717123]},"properties":{"Name":"県立前橋清陵高等学校","Jusho":"群馬県前橋市文京町２-２０-３","kouzui":"×","gake":"×","takashio":"×","jishin":"○","tsunami":"×","kaji":"○","naisui":"×","kazan":"×"}}
,{"type":"Feature","geometry":{"type":"Point","coordinates":[139.085411,36.378743]},"properties":{"Name":"天川小学校","Jusho":"群馬県前橋市文京町３-１８-４","kouzui":"○","gake":"×","takashio":"×","jishin":"○","tsunami":"×","kaji":"○","naisui":"×","kazan":"×"}}
,{"type":"Feature","geometry":{"type":"Point","coordinates":[139.08794382755,36.379224890145]},"properties":{"Name":"第五中学校","Jusho":"群馬県前橋市文京町３-２０-５","kouzui":"○","gake":"×","takashio":"×","jishin":"○","tsunami":"×","kaji":"○","naisui":"×","kazan":"×"}}
,{"type":"Feature","geometry":{"type":"Point","coordinates":[139.065286,36.380553]},"properties":{"Name":"第一中学校","Jusho":"群馬県前橋市南町１-２０-５","kouzui":"○","gake":"×","takashio":"×","jishin":"○","tsunami":"×","kaji":"○","naisui":"×","kazan":"×"}}
,{"type":"Feature","geometry":{"type":"Point","coordinates":[139.0709314,36.3799359]},"properties":{"Name":"市民文化会館","Jusho":"群馬県前橋市南町３-６２-１","kouzui":"×","gake":"×","takashio":"×","jishin":"○","tsunami":"×","kaji":"○","naisui":"×","kazan":"×"}}
,{"type":"Feature","geometry":{"type":"Point","coordinates":[139.0745841,36.37671287]},"properties":{"Name":"県立前橋商業高等学校","Jusho":"群馬県前橋市南町４-３５-１","kouzui":"×","gake":"×","takashio":"×","jishin":"○","tsunami":"×","kaji":"○","naisui":"×","kazan":"×"}}
,{"type":"Feature","geometry":{"type":"Point","coordinates":[139.081436,36.3638348]},"properties":{"Name":"前橋工科大学","Jusho":"群馬県前橋市上佐鳥町４６０-１","kouzui":"×","gake":"×","takashio":"×","jishin":"○","tsunami":"×","kaji":"○","naisui":"×","kazan":"×"}}
,{"type":"Feature","geometry":{"type":"Point","coordinates":[139.0798354,36.36333994]},"properties":{"Name":"前橋工科大運動場","Jusho":"群馬県前橋市上佐鳥町４６０-１","kouzui":"×","gake":"×","takashio":"×","jishin":"○","tsunami":"×","kaji":"○","naisui":"×","kazan":"×"}}
,{"type":"Feature","geometry":{"type":"Point","coordinates":[139.0795209,36.36506593]},"properties":{"Name":"前橋市民体育館","Jusho":"群馬県前橋市上佐鳥町４６０-７","kouzui":"×","gake":"×","takashio":"×","jishin":"○","tsunami":"×","kaji":"○","naisui":"×","kazan":"×"}}
,{"type":"Feature","geometry":{"type":"Point","coordinates":[139.096274,36.366859]},"properties":{"Name":"わかば小学校","Jusho":"群馬県前橋市朝倉町１６５-１","kouzui":"○","gake":"×","takashio":"×","jishin":"○","tsunami":"×","kaji":"○","naisui":"×","kazan":"×"}}
,{"type":"Feature","geometry":{"type":"Point","coordinates":[139.090372,36.358262]},"properties":{"Name":"上川淵小学校","Jusho":"群馬県前橋市朝倉町４６６","kouzui":"×","gake":"×","takashio":"×","jishin":"○","tsunami":"×","kaji":"○","naisui":"×","kazan":"×"}}
,{"type":"Feature","geometry":{"type":"Point","coordinates":[139.10222465237,36.366632369032]},"properties":{"Name":"八幡山公園","Jusho":"群馬県前橋市朝倉町４-９","kouzui":"×","gake":"×","takashio":"×","jishin":"○","tsunami":"×","kaji":"○","naisui":"×","kazan":"×"}}
,{"type":"Feature","geometry":{"type":"Point","coordinates":[139.1008043,36.36304303]},"properties":{"Name":"上川淵公民館","Jusho":"群馬県前橋市後閑町３５","kouzui":"○","gake":"×","takashio":"×","jishin":"○","tsunami":"×","kaji":"○","naisui":"×","kazan":"×"}}
,{"type":"Feature","geometry":{"type":"Point","coordinates":[139.09911885568,36.362740164925]},"properties":{"Name":"明桜中学校","Jusho":"群馬県前橋市後閑町５０-４","kouzui":"○","gake":"×","takashio":"×","jishin":"○","tsunami":"×","kaji":"○","naisui":"×","kazan":"×"}}
,{"type":"Feature","geometry":{"type":"Point","coordinates":[139.10410154167,36.340425297059]},"properties":{"Name":"第七中学校","Jusho":"群馬県前橋市宮地町２６０-１","kouzui":"○","gake":"×","takashio":"×","jishin":"○","tsunami":"×","kaji":"○","naisui":"×","kazan":"×"}}
,{"type":"Feature","geometry":{"type":"Point","coordinates":[139.12452,36.348859]},"properties":{"Name":"山王小学校","Jusho":"群馬県前橋市山王町１６０-１","kouzui":"○","gake":"×","takashio":"×","jishin":"○","tsunami":"×","kaji":"○","naisui":"×","kazan":"×"}}
,{"type":"Feature","geometry":{"type":"Point","coordinates":[139.113705,36.357168]},"properties":{"Name":"広瀬小学校","Jusho":"群馬県前橋市広瀬町３-１９","kouzui":"○","gake":"×","takashio":"×","jishin":"○","tsunami":"×","kaji":"○","naisui":"×","kazan":"×"}}
,{"type":"Feature","geometry":{"type":"Point","coordinates":[139.1104291,36.35958283]},"properties":{"Name":"ひろせ老人福祉センター","Jusho":"群馬県前橋市広瀬町２-１６","kouzui":"×","gake":"×","takashio":"×","jishin":"○","tsunami":"×","kaji":"○","naisui":"×","kazan":"×"}}
,{"type":"Feature","geometry":{"type":"Point","coordinates":[139.0833529,36.35105598]},"properties":{"Name":"県立前橋南高等学校","Jusho":"群馬県前橋市亀里町１","kouzui":"×","gake":"×","takashio":"×","jishin":"○","tsunami":"×","kaji":"○","naisui":"×","kazan":"×"}}
,{"type":"Feature","geometry":{"type":"Point","coordinates":[139.0871329,36.33444474]},"properties":{"Name":"県立群馬産業技術センター","Jusho":"群馬県前橋市亀里町８８４-１","kouzui":"×","gake":"×","takashio":"×","jishin":"○","tsunami":"×","kaji":"○","naisui":"×","kazan":"×"}}
,{"type":"Feature","geometry":{"type":"Point","coordinates":[139.094655,36.335987]},"properties":{"Name":"下川淵小学校","Jusho":"群馬県前橋市鶴光路町３８-１","kouzui":"×","gake":"×","takashio":"×","jishin":"○","tsunami":"×","kaji":"○","naisui":"×","kazan":"×"}}
,{"type":"Feature","geometry":{"type":"Point","coordinates":[139.0926766,36.33414944]},"properties":{"Name":"下川淵公民館","Jusho":"群馬県前橋市鶴光路町７０１","kouzui":"×","gake":"×","takashio":"×","jishin":"○","tsunami":"×","kaji":"○","naisui":"×","kazan":"×"}}
,{"type":"Feature","geometry":{"type":"Point","coordinates":[139.105048,36.423083]},"properties":{"Name":"芳賀小学校","Jusho":"群馬県前橋市勝沢町７１９","kouzui":"×","gake":"×","takashio":"×","jishin":"○","tsunami":"×","kaji":"○","naisui":"×","kazan":"×"}}
,{"type":"Feature","geometry":{"type":"Point","coordinates":[139.110351,36.425363]},"properties":{"Name":"芳賀中学校","Jusho":"群馬県前橋市鳥取町７９６","kouzui":"×","gake":"×","takashio":"×","jishin":"○","tsunami":"×","kaji":"○","naisui":"×","kazan":"×"}}
,{"type":"Feature","geometry":{"type":"Point","coordinates":[139.1081234,36.42662301]},"properties":{"Name":"芳賀公民館","Jusho":"群馬県前橋市鳥取町８１７","kouzui":"○","gake":"○","takashio":"×","jishin":"○","tsunami":"×","kaji":"○","naisui":"×","kazan":"×"}}
,{"type":"Feature","geometry":{"type":"Point","coordinates":[139.1107005,36.42060539]},"properties":{"Name":"芳賀公園","Jusho":"群馬県前橋市小坂子町９２０","kouzui":"×","gake":"×","takashio":"×","jishin":"○","tsunami":"×","kaji":"○","naisui":"×","kazan":"×"}}
,{"type":"Feature","geometry":{"type":"Point","coordinates":[139.0795865,36.40621772]},"properties":{"Name":"山形公園","Jusho":"群馬県前橋市三俣町３-１","kouzui":"×","gake":"×","takashio":"×","jishin":"○","tsunami":"×","kaji":"○","naisui":"×","kazan":"×"}}
,{"type":"Feature","geometry":{"type":"Point","coordinates":[139.090704,36.403689]},"properties":{"Name":"桃木小学校","Jusho":"群馬県前橋市上沖町７３２-１","kouzui":"×","gake":"×","takashio":"×","jishin":"○","tsunami":"×","kaji":"○","naisui":"×","kazan":"×"}}
,{"type":"Feature","geometry":{"type":"Point","coordinates":[139.0962374,36.39689218]},"properties":{"Name":"県立前橋高等学校","Jusho":"群馬県前橋市下沖町３２１-１","kouzui":"×","gake":"×","takashio":"×","jishin":"○","tsunami":"×","kaji":"○","naisui":"×","kazan":"×"}}
,{"type":"Feature","geometry":{"type":"Point","coordinates":[139.100946,36.386254]},"properties":{"Name":"桃瀬小学校","Jusho":"群馬県前橋市西片貝町３-３４３","kouzui":"×","gake":"×","takashio":"×","jishin":"○","tsunami":"×","kaji":"○","naisui":"×","kazan":"×"}}
,{"type":"Feature","geometry":{"type":"Point","coordinates":[139.08392509586,36.390023281421]},"properties":{"Name":"前橋こども公園","Jusho":"群馬県前橋市西片貝町５-８","kouzui":"×","gake":"×","takashio":"×","jishin":"○","tsunami":"×","kaji":"○","naisui":"×","kazan":"×"}}
,{"type":"Feature","geometry":{"type":"Point","coordinates":[139.1135681,36.3858437]},"properties":{"Name":"桃ノ木川グランド","Jusho":"群馬県前橋市東片貝町４１７-４","kouzui":"×","gake":"×","takashio":"×","jishin":"○","tsunami":"×","kaji":"○","naisui":"×","kazan":"×"}}
,{"type":"Feature","geometry":{"type":"Point","coordinates":[139.1044087,36.39386338]},"properties":{"Name":"桂萱公民館","Jusho":"群馬県前橋市上泉町１４１-３","kouzui":"○","gake":"×","takashio":"×","jishin":"○","tsunami":"×","kaji":"○","naisui":"×","kazan":"×"}}
,{"type":"Feature","geometry":{"type":"Point","coordinates":[139.103233,36.396062]},"properties":{"Name":"桂萱中学校","Jusho":"群馬県前橋市上泉町１７５","kouzui":"○","gake":"×","takashio":"×","jishin":"○","tsunami":"×","kaji":"○","naisui":"×","kazan":"×"}}
,{"type":"Feature","geometry":{"type":"Point","coordinates":[139.104786,36.396501]},"properties":{"Name":"桂萱小学校","Jusho":"群馬県前橋市上泉町１７８","kouzui":"×","gake":"×","takashio":"×","jishin":"○","tsunami":"×","kaji":"○","naisui":"×","kazan":"×"}}
,{"type":"Feature","geometry":{"type":"Point","coordinates":[139.1186883,36.38906829]},"properties":{"Name":"県立前橋工業高等学校","Jusho":"群馬県前橋市石関町１３７-１","kouzui":"×","gake":"×","takashio":"×","jishin":"○","tsunami":"×","kaji":"○","naisui":"×","kazan":"×"}}
,{"type":"Feature","geometry":{"type":"Point","coordinates":[139.1323985,36.41592317]},"properties":{"Name":"荻窪南公園","Jusho":"群馬県前橋市荻窪町９５３","kouzui":"×","gake":"×","takashio":"×","jishin":"○","tsunami":"×","kaji":"○","naisui":"×","kazan":"×"}}
,{"type":"Feature","geometry":{"type":"Point","coordinates":[139.129786,36.397873]},"properties":{"Name":"桂萱東小学校","Jusho":"群馬県前橋市堤町４７１","kouzui":"○","gake":"×","takashio":"×","jishin":"○","tsunami":"×","kaji":"○","naisui":"×","kazan":"×"}}
,{"type":"Feature","geometry":{"type":"Point","coordinates":[139.1372231,36.37660522]},"properties":{"Name":"県立前橋東高等学校","Jusho":"群馬県前橋市江木町８００","kouzui":"×","gake":"×","takashio":"×","jishin":"○","tsunami":"×","kaji":"○","naisui":"×","kazan":"×"}}
,{"type":"Feature","geometry":{"type":"Point","coordinates":[139.0516651,36.3731373]},"properties":{"Name":"東公民館","Jusho":"群馬県前橋市箱田町５４３-１","kouzui":"×","gake":"×","takashio":"×","jishin":"○","tsunami":"×","kaji":"○","naisui":"×","kazan":"×"}}
,{"type":"Feature","geometry":{"type":"Point","coordinates":[139.051386,36.373953]},"properties":{"Name":"東ふれあい公園","Jusho":"群馬県前橋市箱田町５４５-１","kouzui":"×","gake":"×","takashio":"×","jishin":"○","tsunami":"×","kaji":"○","naisui":"×","kazan":"×"}}
,{"type":"Feature","geometry":{"type":"Point","coordinates":[139.052605,36.365827]},"properties":{"Name":"東小学校","Jusho":"群馬県前橋市箱田町１４５２-１","kouzui":"×","gake":"×","takashio":"×","jishin":"○","tsunami":"×","kaji":"○","naisui":"×","kazan":"×"}}
,{"type":"Feature","geometry":{"type":"Point","coordinates":[139.048447,36.360704]},"properties":{"Name":"箱田中学校","Jusho":"群馬県前橋市前箱田町３９６-１","kouzui":"○","gake":"×","takashio":"×","jishin":"○","tsunami":"×","kaji":"○","naisui":"×","kazan":"×"}}
,{"type":"Feature","geometry":{"type":"Point","coordinates":[139.0703108,36.35292634]},"properties":{"Name":"大利根緑地多目的広場","Jusho":"群馬県前橋市下新田町４６０-１","kouzui":"×","gake":"×","takashio":"×","jishin":"○","tsunami":"×","kaji":"○","naisui":"×","kazan":"×"}}
,{"type":"Feature","geometry":{"type":"Point","coordinates":[139.067096,36.362112]},"properties":{"Name":"新田小学校","Jusho":"群馬県前橋市上新田町１１６０","kouzui":"×","gake":"×","takashio":"×","jishin":"○","tsunami":"×","kaji":"○","naisui":"×","kazan":"×"}}
,{"type":"Feature","geometry":{"type":"Point","coordinates":[139.05598,36.372129]},"properties":{"Name":"東中学校","Jusho":"群馬県前橋市光が丘町３","kouzui":"○","gake":"×","takashio":"×","jishin":"○","tsunami":"×","kaji":"○","naisui":"×","kazan":"×"}}
,{"type":"Feature","geometry":{"type":"Point","coordinates":[139.0602889,36.36265394]},"properties":{"Name":"大利根中央公園","Jusho":"群馬県前橋市大利根町１-２９","kouzui":"×","gake":"×","takashio":"×","jishin":"○","tsunami":"×","kaji":"○","naisui":"×","kazan":"×"}}
,{"type":"Feature","geometry":{"type":"Point","coordinates":[139.058972,36.36041]},"properties":{"Name":"大利根小学校","Jusho":"群馬県前橋市大利根町２-１２-１","kouzui":"×","gake":"×","takashio":"×","jishin":"○","tsunami":"×","kaji":"○","naisui":"×","kazan":"×"}}
,{"type":"Feature","geometry":{"type":"Point","coordinates":[139.0490329,36.38005154]},"properties":{"Name":"新前橋公園","Jusho":"群馬県前橋市新前橋町２０","kouzui":"×","gake":"×","takashio":"×","jishin":"○","tsunami":"×","kaji":"○","naisui":"×","kazan":"×"}}
,{"type":"Feature","geometry":{"type":"Point","coordinates":[139.04297142576,36.382836017366]},"properties":{"Name":"元総社南小学校","Jusho":"群馬県前橋市元総社町８０-２","kouzui":"○","gake":"×","takashio":"×","jishin":"○","tsunami":"×","kaji":"○","naisui":"×","kazan":"×"}}
,{"type":"Feature","geometry":{"type":"Point","coordinates":[139.0394494,36.37957882]},"properties":{"Name":"利根川ダム統合管理事務所","Jusho":"群馬県前橋市元総社町５９３-１","kouzui":"×","gake":"×","takashio":"×","jishin":"○","tsunami":"×","kaji":"○","naisui":"×","kazan":"×"}}
,{"type":"Feature","geometry":{"type":"Point","coordinates":[139.04023022224,36.387098582096]},"properties":{"Name":"明神東公園","Jusho":"群馬県前橋市元総社町１-２６","kouzui":"×","gake":"×","takashio":"×","jishin":"○","tsunami":"×","kaji":"○","naisui":"×","kazan":"×"}}
,{"type":"Feature","geometry":{"type":"Point","coordinates":[139.03866534111,36.386429716712]},"properties":{"Name":"元総社小学校","Jusho":"群馬県前橋市元総社町１-３３-１１","kouzui":"×","gake":"×","takashio":"×","jishin":"○","tsunami":"×","kaji":"○","naisui":"×","kazan":"×"}}
,{"type":"Feature","geometry":{"type":"Point","coordinates":[139.0371335,36.39201627]},"properties":{"Name":"元総社公民館","Jusho":"群馬県前橋市元総社町３-１-１","kouzui":"○","gake":"×","takashio":"×","jishin":"○","tsunami":"×","kaji":"○","naisui":"×","kazan":"×"}}
,{"type":"Feature","geometry":{"type":"Point","coordinates":[139.0485329,36.3885832]},"properties":{"Name":"おおとも老人福祉センター","Jusho":"群馬県前橋市大友町１-１２-１０","kouzui":"×","gake":"×","takashio":"×","jishin":"○","tsunami":"×","kaji":"○","naisui":"×","kazan":"×"}}
,{"type":"Feature","geometry":{"type":"Point","coordinates":[139.0466313,36.38837201]},"properties":{"Name":"さくら公園","Jusho":"群馬県前橋市大友町１-８","kouzui":"×","gake":"×","takashio":"×","jishin":"○","tsunami":"×","kaji":"○","naisui":"×","kazan":"×"}}
,{"type":"Feature","geometry":{"type":"Point","coordinates":[139.0458432,36.39490578]},"properties":{"Name":"大渡公園","Jusho":"群馬県前橋市大渡町２-１","kouzui":"×","gake":"×","takashio":"×","jishin":"○","tsunami":"×","kaji":"○","naisui":"×","kazan":"×"}}
,{"type":"Feature","geometry":{"type":"Point","coordinates":[139.0241956,36.37709581]},"properties":{"Name":"群馬工業高等専門学校","Jusho":"群馬県前橋市鳥羽町５８０","kouzui":"×","gake":"×","takashio":"×","jishin":"○","tsunami":"×","kaji":"○","naisui":"×","kazan":"×"}}
,{"type":"Feature","geometry":{"type":"Point","coordinates":[139.035131,36.395159]},"properties":{"Name":"元総社中学校","Jusho":"群馬県前橋市総社町総社３０６０","kouzui":"○","gake":"×","takashio":"×","jishin":"○","tsunami":"×","kaji":"○","naisui":"×","kazan":"×"}}
,{"type":"Feature","geometry":{"type":"Point","coordinates":[139.033889,36.395043]},"properties":{"Name":"元総社北小学校","Jusho":"群馬県前橋市総社町総社３１４９","kouzui":"×","gake":"×","takashio":"×","jishin":"○","tsunami":"×","kaji":"○","naisui":"×","kazan":"×"}}
,{"type":"Feature","geometry":{"type":"Point","coordinates":[139.0396975,36.40758391]},"properties":{"Name":"総社公民館","Jusho":"群馬県前橋市総社町総社１５８３-２","kouzui":"○","gake":"×","takashio":"×","jishin":"○","tsunami":"×","kaji":"○","naisui":"×","kazan":"×"}}
,{"type":"Feature","geometry":{"type":"Point","coordinates":[139.037908,36.40909]},"properties":{"Name":"総社小学校","Jusho":"群馬県前橋市総社町総社１６２５","kouzui":"×","gake":"×","takashio":"×","jishin":"○","tsunami":"×","kaji":"○","naisui":"×","kazan":"×"}}
,{"type":"Feature","geometry":{"type":"Point","coordinates":[139.034974,36.410138]},"properties":{"Name":"第六中学校","Jusho":"群馬県前橋市総社町総社１７６２-１","kouzui":"○","gake":"×","takashio":"×","jishin":"○","tsunami":"×","kaji":"○","naisui":"×","kazan":"×"}}
,{"type":"Feature","geometry":{"type":"Point","coordinates":[139.044625,36.39981612]},"properties":{"Name":"総社２号団地公園","Jusho":"群馬県前橋市総社町１-６","kouzui":"×","gake":"×","takashio":"×","jishin":"○","tsunami":"×","kaji":"○","naisui":"×","kazan":"×"}}
,{"type":"Feature","geometry":{"type":"Point","coordinates":[139.0440666,36.39834716]},"properties":{"Name":"王山運動場","Jusho":"群馬県前橋市総社町１-８-２","kouzui":"×","gake":"×","takashio":"×","jishin":"○","tsunami":"×","kaji":"○","naisui":"×","kazan":"×"}}
,{"type":"Feature","geometry":{"type":"Point","coordinates":[139.04154462087,36.414333272347]},"properties":{"Name":"勝山小学校","Jusho":"群馬県前橋市総社町植野１２３","kouzui":"×","gake":"×","takashio":"×","jishin":"○","tsunami":"×","kaji":"○","naisui":"×","kazan":"×"}}
,{"type":"Feature","geometry":{"type":"Point","coordinates":[139.0285961,36.40864119]},"properties":{"Name":"総社町５号公園","Jusho":"群馬県前橋市高井町１-５","kouzui":"×","gake":"×","takashio":"×","jishin":"○","tsunami":"×","kaji":"○","naisui":"×","kazan":"×"}}
,{"type":"Feature","geometry":{"type":"Point","coordinates":[139.0824894,36.41391259]},"properties":{"Name":"北部運動場","Jusho":"群馬県前橋市上細井町２１２７-４","kouzui":"×","gake":"×","takashio":"×","jishin":"○","tsunami":"×","kaji":"○","naisui":"×","kazan":"×"}}
,{"type":"Feature","geometry":{"type":"Point","coordinates":[139.083298,36.415262]},"properties":{"Name":"鎌倉中学校","Jusho":"群馬県前橋市上細井町２１３０","kouzui":"○","gake":"×","takashio":"×","jishin":"○","tsunami":"×","kaji":"○","naisui":"×","kazan":"×"}}
,{"type":"Feature","geometry":{"type":"Point","coordinates":[139.0846825,36.41589647]},"properties":{"Name":"市立前橋高等学校","Jusho":"群馬県前橋市上細井町２２１１-３","kouzui":"×","gake":"×","takashio":"×","jishin":"○","tsunami":"×","kaji":"○","naisui":"×","kazan":"×"}}
,{"type":"Feature","geometry":{"type":"Point","coordinates":[139.07604559144,36.415993723706]},"properties":{"Name":"細井小学校","Jusho":"群馬県前橋市下細井町６７-１","kouzui":"×","gake":"×","takashio":"×","jishin":"○","tsunami":"×","kaji":"○","naisui":"×","kazan":"×"}}
,{"type":"Feature","geometry":{"type":"Point","coordinates":[139.06749237037,36.411163215004]},"properties":{"Name":"下小出中央公園","Jusho":"群馬県前橋市下小出町２-１５","kouzui":"×","gake":"×","takashio":"×","jishin":"○","tsunami":"×","kaji":"○","naisui":"×","kazan":"×"}}
,{"type":"Feature","geometry":{"type":"Point","coordinates":[139.0568284,36.41439309]},"properties":{"Name":"上小出国体公園","Jusho":"群馬県前橋市上小出町２-２０","kouzui":"×","gake":"×","takashio":"×","jishin":"○","tsunami":"×","kaji":"○","naisui":"×","kazan":"×"}}
,{"type":"Feature","geometry":{"type":"Point","coordinates":[139.060415,36.424246]},"properties":{"Name":"南橘中学校","Jusho":"群馬県前橋市荒牧町９７５","kouzui":"×","gake":"×","takashio":"×","jishin":"○","tsunami":"×","kaji":"○","naisui":"×","kazan":"×"}}
,{"type":"Feature","geometry":{"type":"Point","coordinates":[139.0506287,36.42181273]},"properties":{"Name":"しきしま老人福祉センター","Jusho":"群馬県前橋市荒牧町１１５４-１","kouzui":"×","gake":"×","takashio":"×","jishin":"○","tsunami":"×","kaji":"○","naisui":"×","kazan":"×"}}
,{"type":"Feature","geometry":{"type":"Point","coordinates":[139.054853,36.430488]},"properties":{"Name":"桃川小学校","Jusho":"群馬県前橋市荒牧町１-４６-１１","kouzui":"○","gake":"×","takashio":"×","jishin":"○","tsunami":"×","kaji":"○","naisui":"×","kazan":"×"}}
,{"type":"Feature","geometry":{"type":"Point","coordinates":[139.0438335,36.43053562]},"properties":{"Name":"群馬大学","Jusho":"群馬県前橋市荒牧町４-２","kouzui":"×","gake":"×","takashio":"×","jishin":"○","tsunami":"×","kaji":"○","naisui":"×","kazan":"×"}}
,{"type":"Feature","geometry":{"type":"Point","coordinates":[139.047872,36.428166]},"properties":{"Name":"荒牧小学校","Jusho":"群馬県前橋市荒牧町４-９-２","kouzui":"×","gake":"×","takashio":"×","jishin":"○","tsunami":"×","kaji":"○","naisui":"×","kazan":"×"}}
,{"type":"Feature","geometry":{"type":"Point","coordinates":[139.0635507,36.42841194]},"properties":{"Name":"南橘公民館","Jusho":"群馬県前橋市日輪寺町１５８","kouzui":"○","gake":"○","takashio":"×","jishin":"○","tsunami":"×","kaji":"○","naisui":"×","kazan":"×"}}
,{"type":"Feature","geometry":{"type":"Point","coordinates":[139.0422176,36.43284324]},"properties":{"Name":"関根公園","Jusho":"群馬県前橋市関根町３-７","kouzui":"×","gake":"×","takashio":"×","jishin":"○","tsunami":"×","kaji":"○","naisui":"×","kazan":"×"}}
,{"type":"Feature","geometry":{"type":"Point","coordinates":[139.0132616,36.41791436]},"properties":{"Name":"清里公民館","Jusho":"群馬県前橋市青梨子町３３９","kouzui":"○","gake":"×","takashio":"×","jishin":"○","tsunami":"×","kaji":"○","naisui":"×","kazan":"×"}}
,{"type":"Feature","geometry":{"type":"Point","coordinates":[139.012419,36.417275]},"properties":{"Name":"清里小学校","Jusho":"群馬県前橋市青梨子町４４６","kouzui":"×","gake":"×","takashio":"×","jishin":"○","tsunami":"×","kaji":"○","naisui":"×","kazan":"×"}}
,{"type":"Feature","geometry":{"type":"Point","coordinates":[139.0155245,36.41419351]},"properties":{"Name":"清里方面運動場","Jusho":"群馬県前橋市青梨子町５９１","kouzui":"×","gake":"×","takashio":"×","jishin":"○","tsunami":"×","kaji":"○","naisui":"×","kazan":"×"}}
,{"type":"Feature","geometry":{"type":"Point","coordinates":[139.0076421,36.41869273]},"properties":{"Name":"県立前橋西高等学校","Jusho":"群馬県前橋市清野町１８０","kouzui":"×","gake":"×","takashio":"×","jishin":"○","tsunami":"×","kaji":"○","naisui":"×","kazan":"×"}}
,{"type":"Feature","geometry":{"type":"Point","coordinates":[139.1078838,36.37098373]},"properties":{"Name":"大島公園","Jusho":"群馬県前橋市天川大島町１１９８","kouzui":"×","gake":"×","takashio":"×","jishin":"○","tsunami":"×","kaji":"○","naisui":"×","kazan":"×"}}
,{"type":"Feature","geometry":{"type":"Point","coordinates":[139.12229976075,36.369109038394]},"properties":{"Name":"永明小学校","Jusho":"群馬県前橋市上大島町６５５","kouzui":"×","gake":"×","takashio":"×","jishin":"○","tsunami":"×","kaji":"○","naisui":"×","kazan":"×"}}
,{"type":"Feature","geometry":{"type":"Point","coordinates":[139.12275359218,36.367374066233]},"properties":{"Name":"永明公民館","Jusho":"群馬県前橋市上大島町９３０","kouzui":"○","gake":"×","takashio":"×","jishin":"○","tsunami":"×","kaji":"○","naisui":"×","kazan":"×"}}
,{"type":"Feature","geometry":{"type":"Point","coordinates":[139.1167237,36.38710393]},"properties":{"Name":"市立前橋特別支援学校","Jusho":"群馬県前橋市東上野町４５９-１","kouzui":"×","gake":"×","takashio":"×","jishin":"○","tsunami":"×","kaji":"○","naisui":"×","kazan":"×"}}
,{"type":"Feature","geometry":{"type":"Point","coordinates":[139.136352,36.34725]},"properties":{"Name":"駒形小学校","Jusho":"群馬県前橋市駒形町１１７２","kouzui":"×","gake":"×","takashio":"×","jishin":"○","tsunami":"×","kaji":"○","naisui":"×","kazan":"×"}}
,{"type":"Feature","geometry":{"type":"Point","coordinates":[139.1647432,36.33852598]},"properties":{"Name":"下増田運動場","Jusho":"群馬県前橋市下増田町２７７","kouzui":"×","gake":"×","takashio":"×","jishin":"○","tsunami":"×","kaji":"○","naisui":"×","kazan":"×"}}
,{"type":"Feature","geometry":{"type":"Point","coordinates":[139.1785316,36.40221168]},"properties":{"Name":"神沢の森公園","Jusho":"群馬県前橋市神沢の森地内","kouzui":"×","gake":"×","takashio":"×","jishin":"○","tsunami":"×","kaji":"○","naisui":"×","kazan":"×"}}
,{"type":"Feature","geometry":{"type":"Point","coordinates":[139.16089528132,36.376886661427]},"properties":{"Name":"前橋総合運動公園","Jusho":"群馬県前橋市荒口町４３７-２","kouzui":"×","gake":"×","takashio":"×","jishin":"○","tsunami":"×","kaji":"○","naisui":"×","kazan":"×"}}
,{"type":"Feature","geometry":{"type":"Point","coordinates":[139.164739,36.388132]},"properties":{"Name":"荒子小学校","Jusho":"群馬県前橋市荒子町１２４０","kouzui":"×","gake":"×","takashio":"×","jishin":"○","tsunami":"×","kaji":"○","naisui":"×","kazan":"×"}}
,{"type":"Feature","geometry":{"type":"Point","coordinates":[139.16479,36.381481]},"properties":{"Name":"荒砥中学校","Jusho":"群馬県前橋市荒子町１３３８","kouzui":"○","gake":"×","takashio":"×","jishin":"○","tsunami":"×","kaji":"○","naisui":"×","kazan":"×"}}
,{"type":"Feature","geometry":{"type":"Point","coordinates":[139.19572433216,36.388788183124]},"properties":{"Name":"大室公園","Jusho":"群馬県前橋市西大室町２５４５","kouzui":"×","gake":"×","takashio":"×","jishin":"○","tsunami":"×","kaji":"○","naisui":"×","kazan":"×"}}
,{"type":"Feature","geometry":{"type":"Point","coordinates":[139.192315,36.384086]},"properties":{"Name":"大室小学校","Jusho":"群馬県前橋市西大室町２８１７","kouzui":"○","gake":"×","takashio":"×","jishin":"○","tsunami":"×","kaji":"○","naisui":"×","kazan":"×"}}
,{"type":"Feature","geometry":{"type":"Point","coordinates":[139.18607687513,36.370175138452]},"properties":{"Name":"城南工業団地公園","Jusho":"群馬県前橋市東大室町１６４-１","kouzui":"×","gake":"×","takashio":"×","jishin":"○","tsunami":"×","kaji":"○","naisui":"×","kazan":"×"}}
,{"type":"Feature","geometry":{"type":"Point","coordinates":[139.1579966,36.36926956]},"properties":{"Name":"城南公民館","Jusho":"群馬県前橋市二之宮町１３２０","kouzui":"○","gake":"×","takashio":"×","jishin":"○","tsunami":"×","kaji":"○","naisui":"×","kazan":"×"}}
,{"type":"Feature","geometry":{"type":"Point","coordinates":[139.16790182821,36.362514239894]},"properties":{"Name":"二之宮小学校","Jusho":"群馬県前橋市二之宮町１８４１","kouzui":"○","gake":"×","takashio":"×","jishin":"○","tsunami":"×","kaji":"○","naisui":"×","kazan":"×"}}
,{"type":"Feature","geometry":{"type":"Point","coordinates":[139.139078,36.361047]},"properties":{"Name":"笂井小学校","Jusho":"群馬県前橋市笂井町１１６０","kouzui":"×","gake":"×","takashio":"×","jishin":"○","tsunami":"×","kaji":"○","naisui":"×","kazan":"×"}}
,{"type":"Feature","geometry":{"type":"Point","coordinates":[139.129328,36.363355]},"properties":{"Name":"木瀬中学校","Jusho":"群馬県前橋市小屋原町１８１１-１","kouzui":"○","gake":"×","takashio":"×","jishin":"○","tsunami":"×","kaji":"○","naisui":"×","kazan":"×"}}
,{"type":"Feature","geometry":{"type":"Point","coordinates":[139.156344,36.41877]},"properties":{"Name":"大胡中学校","Jusho":"群馬県前橋市堀越町１１５２","kouzui":"×","gake":"×","takashio":"×","jishin":"○","tsunami":"×","kaji":"○","naisui":"×","kazan":"×"}}
,{"type":"Feature","geometry":{"type":"Point","coordinates":[139.15680090426,36.416825385077]},"properties":{"Name":"大胡小学校","Jusho":"群馬県前橋市堀越町１１６１","kouzui":"○","gake":"×","takashio":"×","jishin":"○","tsunami":"×","kaji":"○","naisui":"×","kazan":"×"}}
,{"type":"Feature","geometry":{"type":"Point","coordinates":[139.13824,36.435606]},"properties":{"Name":"滝窪小学校","Jusho":"群馬県前橋市滝窪町１８５-１","kouzui":"×","gake":"×","takashio":"×","jishin":"○","tsunami":"×","kaji":"○","naisui":"×","kazan":"×"}}
,{"type":"Feature","geometry":{"type":"Point","coordinates":[139.133775,36.465962]},"properties":{"Name":"滝窪小学校金丸分校","Jusho":"群馬県前橋市東金丸町１３６-１","kouzui":"×","gake":"×","takashio":"×","jishin":"○","tsunami":"×","kaji":"○","naisui":"×","kazan":"×"}}
,{"type":"Feature","geometry":{"type":"Point","coordinates":[139.1639842,36.42362103]},"properties":{"Name":"大胡体育館","Jusho":"群馬県前橋市河原浜町４７８","kouzui":"×","gake":"×","takashio":"×","jishin":"○","tsunami":"×","kaji":"○","naisui":"×","kazan":"×"}}
,{"type":"Feature","geometry":{"type":"Point","coordinates":[139.164054,36.42330201]},"properties":{"Name":"大胡公民館","Jusho":"群馬県前橋市河原浜町４８０","kouzui":"○","gake":"○","takashio":"×","jishin":"○","tsunami":"×","kaji":"○","naisui":"×","kazan":"×"}}
,{"type":"Feature","geometry":{"type":"Point","coordinates":[139.165993,36.419367]},"properties":{"Name":"大胡東小学校","Jusho":"群馬県前橋市河原浜町８７０-１","kouzui":"○","gake":"×","takashio":"×","jishin":"○","tsunami":"×","kaji":"○","naisui":"×","kazan":"×"}}
,{"type":"Feature","geometry":{"type":"Point","coordinates":[139.17845544296,36.439191763296]},"properties":{"Name":"宮城小学校","Jusho":"群馬県前橋市鼻毛石町１５０７-１","kouzui":"×","gake":"×","takashio":"×","jishin":"○","tsunami":"×","kaji":"○","naisui":"×","kazan":"×"}}
,{"type":"Feature","geometry":{"type":"Point","coordinates":[139.1762028,36.44267201]},"properties":{"Name":"宮城体育館","Jusho":"群馬県前橋市鼻毛石町１５６１","kouzui":"×","gake":"×","takashio":"×","jishin":"○","tsunami":"×","kaji":"○","naisui":"×","kazan":"×"}}
,{"type":"Feature","geometry":{"type":"Point","coordinates":[139.177856,36.442747]},"properties":{"Name":"宮城中学校","Jusho":"群馬県前橋市鼻毛石町１５６４-１","kouzui":"×","gake":"×","takashio":"×","jishin":"○","tsunami":"×","kaji":"○","naisui":"×","kazan":"×"}}
,{"type":"Feature","geometry":{"type":"Point","coordinates":[139.17861980122,36.441324355627]},"properties":{"Name":"宮城公民館","Jusho":"群馬県前橋市鼻毛石町１７１１-８","kouzui":"○","gake":"○","takashio":"×","jishin":"○","tsunami":"×","kaji":"○","naisui":"×","kazan":"×"}}
,{"type":"Feature","geometry":{"type":"Point","coordinates":[139.211226,36.433032]},"properties":{"Name":"月田小学校","Jusho":"群馬県前橋市粕川町月田２７３-１","kouzui":"×","gake":"×","takashio":"×","jishin":"○","tsunami":"×","kaji":"○","naisui":"×","kazan":"×"}}
,{"type":"Feature","geometry":{"type":"Point","coordinates":[139.1962929,36.41684684]},"properties":{"Name":"消防団第18分団4部","Jusho":"群馬県前橋市粕川町新屋３５０","kouzui":"×","gake":"×","takashio":"×","jishin":"○","tsunami":"×","kaji":"○","naisui":"×","kazan":"×"}}
,{"type":"Feature","geometry":{"type":"Point","coordinates":[139.20965420619,36.411689064411]},"properties":{"Name":"粕川小学校","Jusho":"群馬県前橋市粕川町女渕５２１-２","kouzui":"×","gake":"×","takashio":"×","jishin":"○","tsunami":"×","kaji":"○","naisui":"×","kazan":"×"}}
,{"type":"Feature","geometry":{"type":"Point","coordinates":[139.214065,36.411552]},"properties":{"Name":"粕川中学校","Jusho":"群馬県前橋市粕川町西田面１３８","kouzui":"×","gake":"×","takashio":"×","jishin":"○","tsunami":"×","kaji":"○","naisui":"×","kazan":"×"}}
,{"type":"Feature","geometry":{"type":"Point","coordinates":[139.2104915258,36.414160055983]},"properties":{"Name":"粕川支所","Jusho":"群馬県前橋市粕川町西田面２１６-１","kouzui":"○","gake":"○","takashio":"×","jishin":"○","tsunami":"×","kaji":"○","naisui":"×","kazan":"×"}}
,{"type":"Feature","geometry":{"type":"Point","coordinates":[139.22228611318,36.423483754592]},"properties":{"Name":"膳城跡公園","Jusho":"群馬県前橋市粕川町膳３３-３","kouzui":"×","gake":"×","takashio":"×","jishin":"○","tsunami":"×","kaji":"○","naisui":"×","kazan":"×"}}
,{"type":"Feature","geometry":{"type":"Point","coordinates":[139.0791412,36.45910353]},"properties":{"Name":"富士見公民館","Jusho":"群馬県前橋市富士見町田島８６６-１","kouzui":"○","gake":"○","takashio":"×","jishin":"○","tsunami":"×","kaji":"○","naisui":"×","kazan":"×"}}
,{"type":"Feature","geometry":{"type":"Point","coordinates":[139.08163,36.45615]},"properties":{"Name":"富士見中学校","Jusho":"群馬県前橋市富士見町田島９５４-１","kouzui":"×","gake":"×","takashio":"×","jishin":"○","tsunami":"×","kaji":"○","naisui":"×","kazan":"×"}}
,{"type":"Feature","geometry":{"type":"Point","coordinates":[139.066455,36.446457]},"properties":{"Name":"原小学校","Jusho":"群馬県前橋市富士見町原之郷１９３３-１","kouzui":"×","gake":"×","takashio":"×","jishin":"○","tsunami":"×","kaji":"○","naisui":"×","kazan":"×"}}
,{"type":"Feature","geometry":{"type":"Point","coordinates":[139.093281,36.440498]},"properties":{"Name":"時沢小学校","Jusho":"群馬県前橋市富士見町時沢３１６４-１","kouzui":"○","gake":"×","takashio":"×","jishin":"○","tsunami":"×","kaji":"○","naisui":"×","kazan":"×"}}
,{"type":"Feature","geometry":{"type":"Point","coordinates":[139.087587,36.45172509]},"properties":{"Name":"富士見地区農村環境改善センター","Jusho":"群馬県前橋市富士見町小暮１０４-１","kouzui":"×","gake":"×","takashio":"×","jishin":"○","tsunami":"×","kaji":"○","naisui":"×","kazan":"×"}}
,{"type":"Feature","geometry":{"type":"Point","coordinates":[139.108505,36.468472]},"properties":{"Name":"白川小学校","Jusho":"群馬県前橋市富士見町小暮２４２５-６３","kouzui":"×","gake":"×","takashio":"×","jishin":"○","tsunami":"×","kaji":"○","naisui":"×","kazan":"×"}}
,{"type":"Feature","geometry":{"type":"Point","coordinates":[139.083419,36.467807]},"properties":{"Name":"石井小学校","Jusho":"群馬県前橋市富士見町石井５４６-１","kouzui":"×","gake":"×","takashio":"×","jishin":"○","tsunami":"×","kaji":"○","naisui":"×","kazan":"×"}}
,{"type":"Feature","geometry":{"type":"Point","coordinates":[139.17783711657,36.550665458529]},"properties":{"Name":"前橋市赤城少年自然の家","Jusho":"群馬県前橋市富士見町赤城山１-２","kouzui":"×","gake":"○","takashio":"×","jishin":"○","tsunami":"×","kaji":"○","naisui":"×","kazan":"×"}}
,{"type":"Feature","geometry":{"type":"Point","coordinates":[139.14457138568,36.522768731722]},"properties":{"Name":"群馬県立森林公園赤城ふれあいの森","Jusho":"群馬県前橋市富士見町赤城山１-２","kouzui":"×","gake":"○","takashio":"×","jishin":"○","tsunami":"×","kaji":"○","naisui":"×","kazan":"×"}}
,{"type":"Feature","geometry":{"type":"Point","coordinates":[139.126201,36.482289]},"properties":{"Name":"国立赤城青少年交流の家","Jusho":"群馬県前橋市富士見町赤城山２７","kouzui":"×","gake":"×","takashio":"×","jishin":"○","tsunami":"×","kaji":"○","naisui":"×","kazan":"×"}}
,{"type":"Feature","geometry":{"type":"Point","coordinates":[138.9993897,36.3282625]},"properties":{"Name":"中央小学校","Jusho":"群馬県高崎市常盤町48-1","kouzui":"○","gake":"○","takashio":"×","jishin":"○","tsunami":"×","kaji":"×","naisui":"○","kazan":"○"}}
,{"type":"Feature","geometry":{"type":"Point","coordinates":[139.0018554,36.32633463]},"properties":{"Name":"高松中学校","Jusho":"群馬県高崎市高松町5-3","kouzui":"○","gake":"○","takashio":"×","jishin":"○","tsunami":"×","kaji":"×","naisui":"○","kazan":"○"}}
,{"type":"Feature","geometry":{"type":"Point","coordinates":[138.9966671,36.33324178]},"properties":{"Name":"第一中学校","Jusho":"群馬県高崎市上和田町16-1","kouzui":"○","gake":"○","takashio":"×","jishin":"○","tsunami":"×","kaji":"×","naisui":"○","kazan":"○"}}
,{"type":"Feature","geometry":{"type":"Point","coordinates":[139.0102151,36.3296039]},"properties":{"Name":"東小学校","Jusho":"群馬県高崎市弓町121-1","kouzui":"○","gake":"○","takashio":"×","jishin":"○","tsunami":"×","kaji":"×","naisui":"○","kazan":"○"}}
,{"type":"Feature","geometry":{"type":"Point","coordinates":[138.9942638,36.33949474]},"properties":{"Name":"西小学校","Jusho":"群馬県高崎市並榎町109-1","kouzui":"○","gake":"○","takashio":"×","jishin":"○","tsunami":"×","kaji":"×","naisui":"○","kazan":"○"}}
,{"type":"Feature","geometry":{"type":"Point","coordinates":[138.9943432,36.34222519]},"properties":{"Name":"並榎中学校","Jusho":"群馬県高崎市並榎町60","kouzui":"○","gake":"○","takashio":"×","jishin":"○","tsunami":"×","kaji":"×","naisui":"○","kazan":"○"}}
,{"type":"Feature","geometry":{"type":"Point","coordinates":[139.0096699,36.32148786]},"properties":{"Name":"南小学校","Jusho":"群馬県高崎市八島町70-1","kouzui":"○","gake":"○","takashio":"×","jishin":"○","tsunami":"×","kaji":"×","naisui":"○","kazan":"○"}}
,{"type":"Feature","geometry":{"type":"Point","coordinates":[139.0023984,36.33312337]},"properties":{"Name":"北小学校","Jusho":"群馬県高崎市請地町20-2","kouzui":"○","gake":"○","takashio":"×","jishin":"○","tsunami":"×","kaji":"×","naisui":"○","kazan":"○"}}
,{"type":"Feature","geometry":{"type":"Point","coordinates":[139.0065624,36.33309705]},"properties":{"Name":"総合文化センター","Jusho":"群馬県高崎市末広町23-1","kouzui":"○","gake":"○","takashio":"×","jishin":"○","tsunami":"×","kaji":"×","naisui":"○","kazan":"○"}}
,{"type":"Feature","geometry":{"type":"Point","coordinates":[139.0045412,36.33711746]},"properties":{"Name":"新島学園短期大学","Jusho":"群馬県高崎市昭和町53","kouzui":"○","gake":"○","takashio":"×","jishin":"○","tsunami":"×","kaji":"×","naisui":"○","kazan":"○"}}
,{"type":"Feature","geometry":{"type":"Point","coordinates":[139.021123,36.32661189]},"properties":{"Name":"城東小学校","Jusho":"群馬県高崎市江木町128-1","kouzui":"○","gake":"○","takashio":"×","jishin":"○","tsunami":"×","kaji":"×","naisui":"○","kazan":"○"}}
,{"type":"Feature","geometry":{"type":"Point","coordinates":[139.0117506,36.31084059]},"properties":{"Name":"城南小学校","Jusho":"群馬県高崎市新後閑町301-1","kouzui":"○","gake":"○","takashio":"×","jishin":"○","tsunami":"×","kaji":"×","naisui":"○","kazan":"○"}}
,{"type":"Feature","geometry":{"type":"Point","coordinates":[139.0167093,36.3401267]},"properties":{"Name":"塚沢小学校","Jusho":"群馬県高崎市飯玉町134-1","kouzui":"○","gake":"○","takashio":"×","jishin":"○","tsunami":"×","kaji":"×","naisui":"○","kazan":"○"}}
,{"type":"Feature","geometry":{"type":"Point","coordinates":[139.0166373,36.33915859]},"properties":{"Name":"塚沢中学校","Jusho":"群馬県高崎市飯玉町109","kouzui":"○","gake":"○","takashio":"×","jishin":"○","tsunami":"×","kaji":"×","naisui":"○","kazan":"○"}}
,{"type":"Feature","geometry":{"type":"Point","coordinates":[139.0184993,36.33637894]},"properties":{"Name":"県立高崎工業高等学校","Jusho":"群馬県高崎市江木町700","kouzui":"○","gake":"○","takashio":"×","jishin":"○","tsunami":"×","kaji":"×","naisui":"○","kazan":"○"}}
,{"type":"Feature","geometry":{"type":"Point","coordinates":[139.0310153,36.34236477]},"properties":{"Name":"東部小学校","Jusho":"群馬県高崎市上大類町1372","kouzui":"×","gake":"○","takashio":"×","jishin":"○","tsunami":"×","kaji":"×","naisui":"○","kazan":"○"}}
,{"type":"Feature","geometry":{"type":"Point","coordinates":[139.033932,36.34738378]},"properties":{"Name":"県立高崎商業高等学校","Jusho":"群馬県高崎市東貝沢町3-4","kouzui":"○","gake":"○","takashio":"×","jishin":"○","tsunami":"×","kaji":"×","naisui":"○","kazan":"○"}}
,{"type":"Feature","geometry":{"type":"Point","coordinates":[139.0459717,36.324121]},"properties":{"Name":"大類小学校","Jusho":"群馬県高崎市南大類町543-1","kouzui":"○","gake":"○","takashio":"×","jishin":"○","tsunami":"×","kaji":"×","naisui":"○","kazan":"○"}}
,{"type":"Feature","geometry":{"type":"Point","coordinates":[139.03556385802,36.329482387739]},"properties":{"Name":"大類中学校","Jusho":"群馬県高崎市南大類町1455","kouzui":"○","gake":"○","takashio":"×","jishin":"○","tsunami":"×","kaji":"×","naisui":"○","kazan":"○"}}
,{"type":"Feature","geometry":{"type":"Point","coordinates":[139.0699148,36.30247487]},"properties":{"Name":"岩鼻小学校","Jusho":"群馬県高崎市台新田町1","kouzui":"○","gake":"○","takashio":"×","jishin":"○","tsunami":"×","kaji":"×","naisui":"○","kazan":"○"}}
,{"type":"Feature","geometry":{"type":"Point","coordinates":[139.0641377,36.34038717]},"properties":{"Name":"京ケ島小学校","Jusho":"群馬県高崎市京目町44-1","kouzui":"○","gake":"○","takashio":"×","jishin":"○","tsunami":"×","kaji":"×","naisui":"○","kazan":"○"}}
,{"type":"Feature","geometry":{"type":"Point","coordinates":[139.0839123,36.31176991]},"properties":{"Name":"滝川小学校","Jusho":"群馬県高崎市下滝町585-2","kouzui":"○","gake":"○","takashio":"×","jishin":"○","tsunami":"×","kaji":"×","naisui":"○","kazan":"○"}}
,{"type":"Feature","geometry":{"type":"Point","coordinates":[139.0707067,36.32208554]},"properties":{"Name":"高南中学校","Jusho":"群馬県高崎市上滝町1032-2","kouzui":"○","gake":"○","takashio":"×","jishin":"○","tsunami":"×","kaji":"×","naisui":"○","kazan":"○"}}
,{"type":"Feature","geometry":{"type":"Point","coordinates":[138.9977342,36.31566072]},"properties":{"Name":"片岡小学校","Jusho":"群馬県高崎市片岡町2-12-1","kouzui":"×","gake":"○","takashio":"×","jishin":"○","tsunami":"×","kaji":"×","naisui":"○","kazan":"○"}}
,{"type":"Feature","geometry":{"type":"Point","coordinates":[138.9939501,36.32032799]},"properties":{"Name":"片岡中学校","Jusho":"群馬県高崎市片岡町1-14-1","kouzui":"×","gake":"○","takashio":"×","jishin":"○","tsunami":"×","kaji":"×","naisui":"○","kazan":"○"}}
,{"type":"Feature","geometry":{"type":"Point","coordinates":[138.985279,36.32692501]},"properties":{"Name":"乗附小学校","Jusho":"群馬県高崎市乗附町155-1","kouzui":"×","gake":"○","takashio":"×","jishin":"○","tsunami":"×","kaji":"×","naisui":"○","kazan":"○"}}
,{"type":"Feature","geometry":{"type":"Point","coordinates":[138.9870782,36.31906963]},"properties":{"Name":"県立高崎高等学校","Jusho":"群馬県高崎市八千代町2-4-1","kouzui":"○","gake":"○","takashio":"×","jishin":"○","tsunami":"×","kaji":"×","naisui":"○","kazan":"○"}}
,{"type":"Feature","geometry":{"type":"Point","coordinates":[139.0076256,36.30267148]},"properties":{"Name":"寺尾小学校","Jusho":"群馬県高崎市寺尾町290","kouzui":"×","gake":"○","takashio":"×","jishin":"○","tsunami":"×","kaji":"×","naisui":"○","kazan":"○"}}
,{"type":"Feature","geometry":{"type":"Point","coordinates":[139.013661,36.28571468]},"properties":{"Name":"城山小学校","Jusho":"群馬県高崎市城山町2-16-1","kouzui":"○","gake":"○","takashio":"×","jishin":"○","tsunami":"×","kaji":"×","naisui":"○","kazan":"○"}}
,{"type":"Feature","geometry":{"type":"Point","coordinates":[139.0027976,36.30223411]},"properties":{"Name":"武道館","Jusho":"群馬県高崎市石原町3892-7","kouzui":"○","gake":"○","takashio":"×","jishin":"○","tsunami":"×","kaji":"×","naisui":"○","kazan":"○"}}
,{"type":"Feature","geometry":{"type":"Point","coordinates":[139.0009618,36.30102165]},"properties":{"Name":"東京農業大学第二高等学校","Jusho":"群馬県高崎市石原町3430","kouzui":"○","gake":"○","takashio":"×","jishin":"○","tsunami":"×","kaji":"×","naisui":"○","kazan":"○"}}
,{"type":"Feature","geometry":{"type":"Point","coordinates":[138.9749582,36.33464528]},"properties":{"Name":"豊岡小学校","Jusho":"群馬県高崎市中豊岡町24","kouzui":"○","gake":"○","takashio":"×","jishin":"○","tsunami":"×","kaji":"×","naisui":"○","kazan":"○"}}
,{"type":"Feature","geometry":{"type":"Point","coordinates":[138.9697184,36.33652434]},"properties":{"Name":"豊岡中学校","Jusho":"群馬県高崎市中豊岡町350-2","kouzui":"×","gake":"○","takashio":"×","jishin":"○","tsunami":"×","kaji":"×","naisui":"○","kazan":"○"}}
,{"type":"Feature","geometry":{"type":"Point","coordinates":[138.9516278,36.33614422]},"properties":{"Name":"八幡小学校","Jusho":"群馬県高崎市八幡町179-1","kouzui":"×","gake":"○","takashio":"×","jishin":"○","tsunami":"×","kaji":"×","naisui":"○","kazan":"○"}}
,{"type":"Feature","geometry":{"type":"Point","coordinates":[138.9436472,36.34795225]},"properties":{"Name":"西部小学校","Jusho":"群馬県高崎市八幡町1414","kouzui":"○","gake":"○","takashio":"×","jishin":"○","tsunami":"×","kaji":"×","naisui":"○","kazan":"○"}}
,{"type":"Feature","geometry":{"type":"Point","coordinates":[138.939495,36.33239771]},"properties":{"Name":"鼻高小学校","Jusho":"群馬県高崎市鼻高町58-2","kouzui":"×","gake":"×","takashio":"×","jishin":"○","tsunami":"×","kaji":"×","naisui":"○","kazan":"○"}}
,{"type":"Feature","geometry":{"type":"Point","coordinates":[138.943582,36.34419033]},"properties":{"Name":"八幡中学校","Jusho":"群馬県高崎市八幡町1300-1","kouzui":"○","gake":"○","takashio":"×","jishin":"○","tsunami":"×","kaji":"×","naisui":"○","kazan":"○"}}
,{"type":"Feature","geometry":{"type":"Point","coordinates":[139.0246222,36.30848448]},"properties":{"Name":"佐野小学校","Jusho":"群馬県高崎市上佐野町918-2","kouzui":"○","gake":"○","takashio":"×","jishin":"○","tsunami":"×","kaji":"×","naisui":"○","kazan":"○"}}
,{"type":"Feature","geometry":{"type":"Point","coordinates":[139.0252664,36.31673499]},"properties":{"Name":"佐野中学校","Jusho":"群馬県高崎市上中居町345","kouzui":"○","gake":"○","takashio":"×","jishin":"○","tsunami":"×","kaji":"×","naisui":"○","kazan":"○"}}
,{"type":"Feature","geometry":{"type":"Point","coordinates":[139.0412433,36.31658391]},"properties":{"Name":"中居小学校","Jusho":"群馬県高崎市中居町3-28-1","kouzui":"○","gake":"○","takashio":"×","jishin":"○","tsunami":"×","kaji":"×","naisui":"○","kazan":"○"}}
,{"type":"Feature","geometry":{"type":"Point","coordinates":[139.0484018,36.29989845]},"properties":{"Name":"倉賀野小学校","Jusho":"群馬県高崎市倉賀野町1744","kouzui":"○","gake":"○","takashio":"×","jishin":"○","tsunami":"×","kaji":"×","naisui":"○","kazan":"○"}}
,{"type":"Feature","geometry":{"type":"Point","coordinates":[139.0426497,36.29507948]},"properties":{"Name":"倉賀野中学校","Jusho":"群馬県高崎市倉賀野町1270","kouzui":"○","gake":"○","takashio":"×","jishin":"○","tsunami":"×","kaji":"×","naisui":"○","kazan":"○"}}
,{"type":"Feature","geometry":{"type":"Point","coordinates":[139.0391152,36.28102136]},"properties":{"Name":"南八幡小学校","Jusho":"群馬県高崎市山名町24-1","kouzui":"○","gake":"○","takashio":"×","jishin":"○","tsunami":"×","kaji":"×","naisui":"○","kazan":"○"}}
,{"type":"Feature","geometry":{"type":"Point","coordinates":[139.037862,36.28133862]},"properties":{"Name":"南八幡中学校","Jusho":"群馬県高崎市山名町30-1","kouzui":"○","gake":"○","takashio":"×","jishin":"○","tsunami":"×","kaji":"×","naisui":"○","kazan":"○"}}
,{"type":"Feature","geometry":{"type":"Point","coordinates":[139.0485187,36.31066319]},"properties":{"Name":"矢中小学校","Jusho":"群馬県高崎市矢中町160-1","kouzui":"○","gake":"○","takashio":"×","jishin":"○","tsunami":"×","kaji":"×","naisui":"○","kazan":"○"}}
,{"type":"Feature","geometry":{"type":"Point","coordinates":[139.0567018,36.30907004]},"properties":{"Name":"矢中中学校","Jusho":"群馬県高崎市矢中町700-1","kouzui":"○","gake":"○","takashio":"×","jishin":"○","tsunami":"×","kaji":"×","naisui":"○","kazan":"○"}}
,{"type":"Feature","geometry":{"type":"Point","coordinates":[138.9874949,36.35330805]},"properties":{"Name":"六郷小学校","Jusho":"群馬県高崎市筑縄町32-2","kouzui":"○","gake":"○","takashio":"×","jishin":"○","tsunami":"×","kaji":"×","naisui":"○","kazan":"○"}}
,{"type":"Feature","geometry":{"type":"Point","coordinates":[138.9738703,36.35116809]},"properties":{"Name":"北部小学校","Jusho":"群馬県高崎市下小塙町719-1","kouzui":"×","gake":"○","takashio":"×","jishin":"○","tsunami":"×","kaji":"×","naisui":"○","kazan":"○"}}
,{"type":"Feature","geometry":{"type":"Point","coordinates":[138.9732821,36.35741153]},"properties":{"Name":"長野郷中学校","Jusho":"群馬県高崎市上小塙町325-1","kouzui":"○","gake":"○","takashio":"×","jishin":"○","tsunami":"×","kaji":"×","naisui":"○","kazan":"○"}}
,{"type":"Feature","geometry":{"type":"Point","coordinates":[138.9715393,36.36372158]},"properties":{"Name":"長野小学校","Jusho":"群馬県高崎市南新波町77","kouzui":"○","gake":"○","takashio":"×","jishin":"○","tsunami":"×","kaji":"×","naisui":"○","kazan":"○"}}
,{"type":"Feature","geometry":{"type":"Point","coordinates":[138.9907431,36.36189979]},"properties":{"Name":"高崎市立高崎経済大学附属高等学校","Jusho":"群馬県高崎市浜川町1650-1","kouzui":"○","gake":"○","takashio":"×","jishin":"○","tsunami":"×","kaji":"×","naisui":"○","kazan":"○"}}
,{"type":"Feature","geometry":{"type":"Point","coordinates":[139.0155742,36.36448255]},"properties":{"Name":"中川小学校","Jusho":"群馬県高崎市小八木町1860-1","kouzui":"○","gake":"○","takashio":"×","jishin":"○","tsunami":"×","kaji":"×","naisui":"○","kazan":"○"}}
,{"type":"Feature","geometry":{"type":"Point","coordinates":[139.0143833,36.35060628]},"properties":{"Name":"浜尻小学校","Jusho":"群馬県高崎市浜尻町210-1","kouzui":"○","gake":"○","takashio":"×","jishin":"○","tsunami":"×","kaji":"×","naisui":"○","kazan":"○"}}
,{"type":"Feature","geometry":{"type":"Point","coordinates":[139.0364957,36.36448716]},"properties":{"Name":"新高尾小学校","Jusho":"群馬県高崎市日高町592-1","kouzui":"○","gake":"○","takashio":"×","jishin":"○","tsunami":"×","kaji":"×","naisui":"○","kazan":"○"}}
,{"type":"Feature","geometry":{"type":"Point","coordinates":[139.0279956,36.36185047]},"properties":{"Name":"中尾中学校","Jusho":"群馬県高崎市中尾町791","kouzui":"○","gake":"○","takashio":"×","jishin":"○","tsunami":"×","kaji":"×","naisui":"○","kazan":"○"}}
,{"type":"Feature","geometry":{"type":"Point","coordinates":[138.7726407,36.4470736]},"properties":{"Name":"倉渕小学校","Jusho":"群馬県高崎市倉渕町権田314-1","kouzui":"○","gake":"×","takashio":"×","jishin":"○","tsunami":"×","kaji":"×","naisui":"○","kazan":"○"}}
,{"type":"Feature","geometry":{"type":"Point","coordinates":[138.8156725,36.40015103]},"properties":{"Name":"倉渕第一区公民館","Jusho":"群馬県高崎市倉渕町三ノ倉1813-2","kouzui":"○","gake":"○","takashio":"×","jishin":"○","tsunami":"×","kaji":"×","naisui":"○","kazan":"○"}}
,{"type":"Feature","geometry":{"type":"Point","coordinates":[138.7993274,36.41636646]},"properties":{"Name":"三ノ倉会館","Jusho":"群馬県高崎市倉渕町三ノ倉814-1","kouzui":"○","gake":"○","takashio":"×","jishin":"○","tsunami":"×","kaji":"×","naisui":"○","kazan":"○"}}
,{"type":"Feature","geometry":{"type":"Point","coordinates":[138.7932287,36.42452038]},"properties":{"Name":"高崎市くらぶち小栗の里","Jusho":"群馬県高崎市倉渕町三ノ倉296-1","kouzui":"○","gake":"×","takashio":"×","jishin":"○","tsunami":"×","kaji":"×","naisui":"○","kazan":"○"}}
,{"type":"Feature","geometry":{"type":"Point","coordinates":[138.7749211,36.43819025]},"properties":{"Name":"倉渕体育館","Jusho":"群馬県高崎市倉渕町岩氷610","kouzui":"○","gake":"○","takashio":"×","jishin":"○","tsunami":"×","kaji":"×","naisui":"○","kazan":"○"}}
,{"type":"Feature","geometry":{"type":"Point","coordinates":[138.7480213,36.46038555]},"properties":{"Name":"川浦公民館","Jusho":"群馬県高崎市倉渕町川浦1186-2","kouzui":"○","gake":"×","takashio":"×","jishin":"○","tsunami":"×","kaji":"×","naisui":"○","kazan":"○"}}
,{"type":"Feature","geometry":{"type":"Point","coordinates":[138.7779771,36.45672181]},"properties":{"Name":"倉渕第八区公民館","Jusho":"群馬県高崎市倉渕町権田2352-1","kouzui":"○","gake":"○","takashio":"×","jishin":"○","tsunami":"×","kaji":"×","naisui":"○","kazan":"○"}}
,{"type":"Feature","geometry":{"type":"Point","coordinates":[138.9546735,36.39879583]},"properties":{"Name":"箕輪小学校","Jusho":"群馬県高崎市箕郷町西明屋196-1","kouzui":"○","gake":"○","takashio":"×","jishin":"○","tsunami":"×","kaji":"×","naisui":"○","kazan":"○"}}
,{"type":"Feature","geometry":{"type":"Point","coordinates":[138.956211,36.39943561]},"properties":{"Name":"箕郷第一保育園","Jusho":"群馬県高崎市箕郷町上芝1063-1","kouzui":"○","gake":"○","takashio":"×","jishin":"○","tsunami":"×","kaji":"×","naisui":"○","kazan":"○"}}
,{"type":"Feature","geometry":{"type":"Point","coordinates":[138.9577366,36.37686009]},"properties":{"Name":"箕郷第五保育園","Jusho":"群馬県高崎市箕郷町下芝66-1","kouzui":"○","gake":"○","takashio":"×","jishin":"○","tsunami":"×","kaji":"×","naisui":"○","kazan":"○"}}
,{"type":"Feature","geometry":{"type":"Point","coordinates":[138.9564839,36.3918287]},"properties":{"Name":"箕郷公民館","Jusho":"群馬県高崎市箕郷町西明屋421","kouzui":"○","gake":"○","takashio":"×","jishin":"○","tsunami":"×","kaji":"×","naisui":"○","kazan":"○"}}
,{"type":"Feature","geometry":{"type":"Point","coordinates":[138.945516,36.41271499]},"properties":{"Name":"県立農林大学校","Jusho":"群馬県高崎市箕郷町西明屋1005","kouzui":"○","gake":"○","takashio":"×","jishin":"○","tsunami":"×","kaji":"×","naisui":"○","kazan":"○"}}
,{"type":"Feature","geometry":{"type":"Point","coordinates":[138.968668,36.40165761]},"properties":{"Name":"箕郷東小学校","Jusho":"群馬県高崎市箕郷町生原922-2","kouzui":"○","gake":"○","takashio":"×","jishin":"○","tsunami":"×","kaji":"×","naisui":"○","kazan":"○"}}
,{"type":"Feature","geometry":{"type":"Point","coordinates":[138.9638733,36.39663353]},"properties":{"Name":"箕郷中学校","Jusho":"群馬県高崎市箕郷町生原654","kouzui":"○","gake":"○","takashio":"×","jishin":"○","tsunami":"×","kaji":"×","naisui":"○","kazan":"○"}}
,{"type":"Feature","geometry":{"type":"Point","coordinates":[138.9661311,36.41061331]},"properties":{"Name":"箕郷第二保育園","Jusho":"群馬県高崎市箕郷町柏木沢209-1","kouzui":"○","gake":"○","takashio":"×","jishin":"○","tsunami":"×","kaji":"×","naisui":"○","kazan":"○"}}
,{"type":"Feature","geometry":{"type":"Point","coordinates":[138.9651928,36.38908277]},"properties":{"Name":"さわやか交流館","Jusho":"群馬県高崎市箕郷町生原88","kouzui":"○","gake":"○","takashio":"×","jishin":"○","tsunami":"×","kaji":"×","naisui":"○","kazan":"○"}}
,{"type":"Feature","geometry":{"type":"Point","coordinates":[138.9689792,36.40094087]},"properties":{"Name":"箕郷文化会館","Jusho":"群馬県高崎市箕郷町生原922-1","kouzui":"○","gake":"○","takashio":"×","jishin":"○","tsunami":"×","kaji":"×","naisui":"○","kazan":"○"}}
,{"type":"Feature","geometry":{"type":"Point","coordinates":[138.9491235,36.39009701]},"properties":{"Name":"車郷小学校","Jusho":"群馬県高崎市箕郷町富岡255-1","kouzui":"○","gake":"○","takashio":"×","jishin":"○","tsunami":"×","kaji":"×","naisui":"○","kazan":"○"}}
,{"type":"Feature","geometry":{"type":"Point","coordinates":[138.9489265,36.39084294]},"properties":{"Name":"箕郷第三保育園","Jusho":"群馬県高崎市箕郷町富岡281","kouzui":"○","gake":"○","takashio":"×","jishin":"○","tsunami":"×","kaji":"×","naisui":"○","kazan":"○"}}
,{"type":"Feature","geometry":{"type":"Point","coordinates":[138.9993443,36.40718099]},"properties":{"Name":"金古小学校","Jusho":"群馬県高崎市金古町1271-1","kouzui":"○","gake":"○","takashio":"×","jishin":"○","tsunami":"×","kaji":"×","naisui":"○","kazan":"○"}}
,{"type":"Feature","geometry":{"type":"Point","coordinates":[138.9942691,36.40174075]},"properties":{"Name":"金古南小学校","Jusho":"群馬県高崎市金古町658","kouzui":"○","gake":"○","takashio":"×","jishin":"○","tsunami":"×","kaji":"×","naisui":"○","kazan":"○"}}
,{"type":"Feature","geometry":{"type":"Point","coordinates":[139.0038867,36.40298947]},"properties":{"Name":"群馬中央中学校","Jusho":"群馬県高崎市金古町352-1","kouzui":"○","gake":"○","takashio":"×","jishin":"○","tsunami":"×","kaji":"×","naisui":"○","kazan":"○"}}
,{"type":"Feature","geometry":{"type":"Point","coordinates":[138.9929418,36.40113476]},"properties":{"Name":"群馬体育館","Jusho":"群馬県高崎市足門町1449-1","kouzui":"○","gake":"○","takashio":"×","jishin":"○","tsunami":"×","kaji":"×","naisui":"○","kazan":"○"}}
,{"type":"Feature","geometry":{"type":"Point","coordinates":[139.0167526,36.39503924]},"properties":{"Name":"国府小学校","Jusho":"群馬県高崎市後疋間町184-1","kouzui":"○","gake":"○","takashio":"×","jishin":"○","tsunami":"×","kaji":"×","naisui":"○","kazan":"○"}}
,{"type":"Feature","geometry":{"type":"Point","coordinates":[139.0021658,36.37893164]},"properties":{"Name":"堤ヶ岡小学校","Jusho":"群馬県高崎市棟高町2227-1","kouzui":"○","gake":"○","takashio":"×","jishin":"○","tsunami":"×","kaji":"×","naisui":"○","kazan":"○"}}
,{"type":"Feature","geometry":{"type":"Point","coordinates":[138.9951152,36.37432652]},"properties":{"Name":"群馬南中学校","Jusho":"群馬県高崎市三ツ寺町712","kouzui":"○","gake":"○","takashio":"×","jishin":"○","tsunami":"×","kaji":"×","naisui":"○","kazan":"○"}}
,{"type":"Feature","geometry":{"type":"Point","coordinates":[139.0064393,36.37249712]},"properties":{"Name":"桜山小学校","Jusho":"群馬県高崎市棟高町 2489-1","kouzui":"○","gake":"○","takashio":"×","jishin":"○","tsunami":"×","kaji":"×","naisui":"○","kazan":"○"}}
,{"type":"Feature","geometry":{"type":"Point","coordinates":[138.9835447,36.3881274]},"properties":{"Name":"上郊小学校","Jusho":"群馬県高崎市保渡田町2107-1","kouzui":"○","gake":"○","takashio":"×","jishin":"○","tsunami":"×","kaji":"×","naisui":"○","kazan":"○"}}
,{"type":"Feature","geometry":{"type":"Point","coordinates":[139.10431161278,36.277529515265]},"properties":{"Name":"新町防災アリーナ","Jusho":"群馬県高崎市新町2330-40","kouzui":"○","gake":"○","takashio":"×","jishin":"○","tsunami":"×","kaji":"○","naisui":"○","kazan":"○"}}
,{"type":"Feature","geometry":{"type":"Point","coordinates":[139.1115629,36.27682354]},"properties":{"Name":"新町第一小学校","Jusho":"群馬県高崎市新町345-1","kouzui":"○","gake":"○","takashio":"×","jishin":"○","tsunami":"×","kaji":"×","naisui":"○","kazan":"○"}}
,{"type":"Feature","geometry":{"type":"Point","coordinates":[139.1128498,36.2759599]},"properties":{"Name":"新町中学校","Jusho":"群馬県高崎市新町361-1","kouzui":"○","gake":"○","takashio":"×","jishin":"○","tsunami":"×","kaji":"×","naisui":"○","kazan":"○"}}
,{"type":"Feature","geometry":{"type":"Point","coordinates":[139.1152882831,36.277646413478]},"properties":{"Name":"新町文化ホール","Jusho":"群馬県高崎市新町3190-1","kouzui":"×","gake":"○","takashio":"×","jishin":"○","tsunami":"×","kaji":"×","naisui":"○","kazan":"○"}}
,{"type":"Feature","geometry":{"type":"Point","coordinates":[139.106806,36.27534]},"properties":{"Name":"新町公民館","Jusho":"群馬県高崎市新町2261-1","kouzui":"×","gake":"○","takashio":"×","jishin":"○","tsunami":"×","kaji":"×","naisui":"○","kazan":"○"}}
,{"type":"Feature","geometry":{"type":"Point","coordinates":[139.1114004,36.27310634]},"properties":{"Name":"新町東コミュニティセンター","Jusho":"群馬県高崎市新町2703","kouzui":"×","gake":"○","takashio":"×","jishin":"○","tsunami":"×","kaji":"×","naisui":"○","kazan":"○"}}
,{"type":"Feature","geometry":{"type":"Point","coordinates":[139.1022559,36.26496914]},"properties":{"Name":"新町第二小学校","Jusho":"群馬県高崎市新町2010-1","kouzui":"○","gake":"○","takashio":"×","jishin":"○","tsunami":"×","kaji":"×","naisui":"○","kazan":"○"}}
,{"type":"Feature","geometry":{"type":"Point","coordinates":[139.1062057,36.26734947]},"properties":{"Name":"新町児童体育館","Jusho":"群馬県高崎市新町1497","kouzui":"×","gake":"○","takashio":"×","jishin":"○","tsunami":"×","kaji":"×","naisui":"○","kazan":"○"}}
,{"type":"Feature","geometry":{"type":"Point","coordinates":[139.1066989,36.26721579]},"properties":{"Name":"新町南コミュニティセンター","Jusho":"群馬県高崎市新町1498-7","kouzui":"×","gake":"○","takashio":"×","jishin":"○","tsunami":"×","kaji":"×","naisui":"○","kazan":"○"}}
,{"type":"Feature","geometry":{"type":"Point","coordinates":[138.8878611,36.38631919]},"properties":{"Name":"下室田小学校","Jusho":"群馬県高崎市下室田町1206","kouzui":"○","gake":"○","takashio":"×","jishin":"○","tsunami":"×","kaji":"×","naisui":"○","kazan":"○"}}
,{"type":"Feature","geometry":{"type":"Point","coordinates":[138.8695401,36.39365701]},"properties":{"Name":"中室田小学校","Jusho":"群馬県高崎市中室田町1561-1","kouzui":"○","gake":"○","takashio":"×","jishin":"○","tsunami":"×","kaji":"×","naisui":"○","kazan":"○"}}
,{"type":"Feature","geometry":{"type":"Point","coordinates":[138.839889,36.40347264]},"properties":{"Name":"上室田小学校","Jusho":"群馬県高崎市上室田町4210","kouzui":"○","gake":"○","takashio":"×","jishin":"○","tsunami":"×","kaji":"×","naisui":"○","kazan":"○"}}
,{"type":"Feature","geometry":{"type":"Point","coordinates":[138.8483974,36.45306857]},"properties":{"Name":"榛名歴史民俗資料館","Jusho":"群馬県高崎市榛名山町138-1","kouzui":"○","gake":"×","takashio":"×","jishin":"○","tsunami":"×","kaji":"×","naisui":"○","kazan":"○"}}
,{"type":"Feature","geometry":{"type":"Point","coordinates":[138.8733593,36.48112694]},"properties":{"Name":"榛名湖温泉ゆうすげ","Jusho":"群馬県高崎市榛名湖町846-3","kouzui":"○","gake":"×","takashio":"×","jishin":"○","tsunami":"×","kaji":"×","naisui":"○","kazan":"○"}}
,{"type":"Feature","geometry":{"type":"Point","coordinates":[138.8972257,36.37467015]},"properties":{"Name":"里見小学校","Jusho":"群馬県高崎市上里見町42-2","kouzui":"○","gake":"○","takashio":"×","jishin":"○","tsunami":"×","kaji":"×","naisui":"○","kazan":"○"}}
,{"type":"Feature","geometry":{"type":"Point","coordinates":[138.9190191,36.36346619]},"properties":{"Name":"下里見小学校","Jusho":"群馬県高崎市下里見町380","kouzui":"○","gake":"○","takashio":"×","jishin":"○","tsunami":"×","kaji":"×","naisui":"○","kazan":"○"}}
,{"type":"Feature","geometry":{"type":"Point","coordinates":[138.8937594,36.37357736]},"properties":{"Name":"榛名文化会館","Jusho":"群馬県高崎市上里見町1072-1","kouzui":"○","gake":"○","takashio":"×","jishin":"○","tsunami":"×","kaji":"×","naisui":"○","kazan":"○"}}
,{"type":"Feature","geometry":{"type":"Point","coordinates":[138.9320671,36.36946184]},"properties":{"Name":"久留馬小学校","Jusho":"群馬県高崎市高浜町2321-1","kouzui":"○","gake":"○","takashio":"×","jishin":"○","tsunami":"×","kaji":"×","naisui":"○","kazan":"○"}}
,{"type":"Feature","geometry":{"type":"Point","coordinates":[138.9140165,36.39858093]},"properties":{"Name":"宮沢小学校","Jusho":"群馬県高崎市宮沢町1100-1","kouzui":"○","gake":"○","takashio":"×","jishin":"○","tsunami":"×","kaji":"×","naisui":"○","kazan":"○"}}
,{"type":"Feature","geometry":{"type":"Point","coordinates":[138.9831938,36.25540323]},"properties":{"Name":"吉井小学校","Jusho":"群馬県高崎市吉井町吉井235-1","kouzui":"○","gake":"○","takashio":"×","jishin":"○","tsunami":"×","kaji":"×","naisui":"○","kazan":"○"}}
,{"type":"Feature","geometry":{"type":"Point","coordinates":[138.9771848,36.23663837]},"properties":{"Name":"多胡小学校","Jusho":"群馬県高崎市吉井町塩24-3","kouzui":"○","gake":"○","takashio":"×","jishin":"○","tsunami":"×","kaji":"×","naisui":"○","kazan":"○"}}
,{"type":"Feature","geometry":{"type":"Point","coordinates":[139.0004091,36.27359022]},"properties":{"Name":"南陽台小学校","Jusho":"群馬県高崎市吉井町南陽台3-16-1","kouzui":"○","gake":"○","takashio":"×","jishin":"○","tsunami":"×","kaji":"×","naisui":"○","kazan":"○"}}
,{"type":"Feature","geometry":{"type":"Point","coordinates":[138.9889844,36.24886566]},"properties":{"Name":"吉井中央中学校","Jusho":"群馬県高崎市吉井町吉井川581","kouzui":"○","gake":"○","takashio":"×","jishin":"○","tsunami":"×","kaji":"×","naisui":"○","kazan":"○"}}
,{"type":"Feature","geometry":{"type":"Point","coordinates":[138.9852385,36.25316589]},"properties":{"Name":"吉井文化会館","Jusho":"群馬県高崎市吉井町吉井285-2","kouzui":"○","gake":"○","takashio":"×","jishin":"○","tsunami":"×","kaji":"×","naisui":"○","kazan":"○"}}
,{"type":"Feature","geometry":{"type":"Point","coordinates":[138.9844315,36.24667936]},"properties":{"Name":"仁叟寺","Jusho":"群馬県高崎市吉井町神保1295","kouzui":"○","gake":"○","takashio":"×","jishin":"○","tsunami":"×","kaji":"×","naisui":"○","kazan":"○"}}
,{"type":"Feature","geometry":{"type":"Point","coordinates":[138.9688846,36.25500561]},"properties":{"Name":"吉井西小学校","Jusho":"群馬県高崎市吉井町長根1930-1","kouzui":"○","gake":"○","takashio":"×","jishin":"○","tsunami":"×","kaji":"×","naisui":"○","kazan":"○"}}
,{"type":"Feature","geometry":{"type":"Point","coordinates":[138.9666325,36.273016]},"properties":{"Name":"岩平小学校","Jusho":"群馬県高崎市吉井町下奥平205-1","kouzui":"○","gake":"○","takashio":"×","jishin":"○","tsunami":"×","kaji":"×","naisui":"○","kazan":"○"}}
,{"type":"Feature","geometry":{"type":"Point","coordinates":[138.9718221,36.25867125]},"properties":{"Name":"吉井西中学校","Jusho":"群馬県高崎市吉井町本郷45","kouzui":"○","gake":"○","takashio":"×","jishin":"○","tsunami":"×","kaji":"×","naisui":"○","kazan":"○"}}
,{"type":"Feature","geometry":{"type":"Point","coordinates":[138.9683255,36.24904813]},"properties":{"Name":"吉井西コミュニティセンター","Jusho":"群馬県高崎市吉井町長根525","kouzui":"○","gake":"○","takashio":"×","jishin":"○","tsunami":"×","kaji":"×","naisui":"○","kazan":"○"}}
,{"type":"Feature","geometry":{"type":"Point","coordinates":[139.0142149,36.25607352]},"properties":{"Name":"入野小学校","Jusho":"群馬県高崎市吉井町小串130","kouzui":"○","gake":"○","takashio":"×","jishin":"○","tsunami":"×","kaji":"×","naisui":"○","kazan":"○"}}
,{"type":"Feature","geometry":{"type":"Point","coordinates":[139.0131113,36.26688985]},"properties":{"Name":"馬庭小学校","Jusho":"群馬県高崎市吉井町馬庭1033-1","kouzui":"○","gake":"○","takashio":"×","jishin":"○","tsunami":"×","kaji":"×","naisui":"○","kazan":"○"}}
,{"type":"Feature","geometry":{"type":"Point","coordinates":[139.0044416,36.25075043]},"properties":{"Name":"入野中学校","Jusho":"群馬県高崎市吉井町石神321-1","kouzui":"○","gake":"○","takashio":"×","jishin":"○","tsunami":"×","kaji":"×","naisui":"○","kazan":"○"}}
,{"type":"Feature","geometry":{"type":"Point","coordinates":[139.0059393,36.2335533]},"properties":{"Name":"多比良文化財保管庫本館（旧多比良分校）","Jusho":"群馬県高崎市吉井町多比良2637-1","kouzui":"○","gake":"○","takashio":"×","jishin":"○","tsunami":"×","kaji":"×","naisui":"○","kazan":"○"}}
,{"type":"Feature","geometry":{"type":"Point","coordinates":[139.0144428,36.25369909]},"properties":{"Name":"吉井東コミュニティセンター","Jusho":"群馬県高崎市吉井町小串336-1","kouzui":"○","gake":"○","takashio":"×","jishin":"○","tsunami":"×","kaji":"×","naisui":"○","kazan":"○"}}
,{"type":"Feature","geometry":{"type":"Point","coordinates":[139.004205,36.324168]},"properties":{"Name":"城址一帯","Jusho":"群馬県高崎市高松町1","kouzui":"○","gake":"○","takashio":"×","jishin":"○","tsunami":"×","kaji":"○","naisui":"○","kazan":"×"}}
,{"type":"Feature","geometry":{"type":"Point","coordinates":[139.008448,36.313639]},"properties":{"Name":"城南運動公園","Jusho":"群馬県高崎市下和田町2-12","kouzui":"○","gake":"×","takashio":"×","jishin":"○","tsunami":"×","kaji":"○","naisui":"○","kazan":"×"}}
,{"type":"Feature","geometry":{"type":"Point","coordinates":[139.016691,36.339565]},"properties":{"Name":"塚沢小学校一帯","Jusho":"群馬県高崎市稲荷町20","kouzui":"○","gake":"○","takashio":"×","jishin":"○","tsunami":"×","kaji":"○","naisui":"○","kazan":"×"}}
,{"type":"Feature","geometry":{"type":"Point","coordinates":[138.986175,36.338251]},"properties":{"Name":"上並榎庭球場一帯","Jusho":"群馬県高崎市上並榎町1590","kouzui":"×","gake":"○","takashio":"×","jishin":"○","tsunami":"×","kaji":"○","naisui":"×","kazan":"×"}}
,{"type":"Feature","geometry":{"type":"Point","coordinates":[138.997936,36.32141]},"properties":{"Name":"和田橋運動場広場一帯","Jusho":"群馬県高崎市片岡町1-171","kouzui":"×","gake":"○","takashio":"×","jishin":"○","tsunami":"×","kaji":"○","naisui":"×","kazan":"×"}}
,{"type":"Feature","geometry":{"type":"Point","coordinates":[138.988748,36.365347]},"properties":{"Name":"浜川総合運動公園一帯","Jusho":"群馬県高崎市浜川町1487","kouzui":"○","gake":"○","takashio":"×","jishin":"○","tsunami":"×","kaji":"○","naisui":"○","kazan":"×"}}
,{"type":"Feature","geometry":{"type":"Point","coordinates":[139.057261,36.302226]},"properties":{"Name":"倉賀野避難地","Jusho":"群馬県高崎市倉賀野町4655-1","kouzui":"○","gake":"○","takashio":"×","jishin":"○","tsunami":"×","kaji":"○","naisui":"○","kazan":"×"}}
,{"type":"Feature","geometry":{"type":"Point","coordinates":[139.02173572738,36.31851794839]},"properties":{"Name":"群馬コンベンションセンター（Gメッセ群馬）","Jusho":"群馬県高崎市岩押町12-24","kouzui":"○","gake":"○","takashio":"×","jishin":"○","tsunami":"×","kaji":"○","naisui":"○","kazan":"○"}}
,{"type":"Feature","geometry":{"type":"Point","coordinates":[138.97701111772,36.252612303847]},"properties":{"Name":"吉井中央公園","Jusho":"群馬県高崎市吉井町下長根50-1","kouzui":"○","gake":"○","takashio":"×","jishin":"○","tsunami":"×","kaji":"○","naisui":"○","kazan":"○"}}
,{"type":"Feature","geometry":{"type":"Point","coordinates":[139.32941071688,36.409218607768]},"properties":{"Name":"桐生高等学校","Jusho":"群馬県桐生市美原町1-39","kouzui":"○","gake":"○","takashio":"×","jishin":"○","tsunami":"×","kaji":"○","naisui":"○","kazan":"×"}}
,{"type":"Feature","geometry":{"type":"Point","coordinates":[139.32927445223,36.407286798451]},"properties":{"Name":"昭和小学校跡","Jusho":"群馬県桐生市美原町2-5","kouzui":"○","gake":"○","takashio":"×","jishin":"○","tsunami":"×","kaji":"○","naisui":"○","kazan":"×"}}
,{"type":"Feature","geometry":{"type":"Point","coordinates":[139.32931233609,36.406636769197]},"properties":{"Name":"中央中学校","Jusho":"群馬県桐生市美原町2-15","kouzui":"○","gake":"○","takashio":"×","jishin":"○","tsunami":"×","kaji":"○","naisui":"○","kazan":"×"}}
,{"type":"Feature","geometry":{"type":"Point","coordinates":[139.32790198875,36.406656709457]},"properties":{"Name":"昭和公民館","Jusho":"群馬県桐生市美原町3-6","kouzui":"○","gake":"○","takashio":"×","jishin":"○","tsunami":"×","kaji":"×","naisui":"○","kazan":"×"}}
,{"type":"Feature","geometry":{"type":"Point","coordinates":[139.33291022025,36.408166475993]},"properties":{"Name":"新川公園","Jusho":"群馬県桐生市稲荷町1-1","kouzui":"×","gake":"○","takashio":"×","jishin":"○","tsunami":"×","kaji":"○","naisui":"×","kazan":"×"}}
,{"type":"Feature","geometry":{"type":"Point","coordinates":[139.33180515013,36.408589573477]},"properties":{"Name":"中央公民館","Jusho":"群馬県桐生市稲荷町1-4","kouzui":"○","gake":"○","takashio":"×","jishin":"×","tsunami":"×","kaji":"○","naisui":"○","kazan":"×"}}
,{"type":"Feature","geometry":{"type":"Point","coordinates":[139.32503849598,36.408249187217]},"properties":{"Name":"商業高等学校","Jusho":"群馬県桐生市清瀬町6-1","kouzui":"○","gake":"○","takashio":"×","jishin":"○","tsunami":"×","kaji":"○","naisui":"○","kazan":"×"}}
,{"type":"Feature","geometry":{"type":"Point","coordinates":[139.33240435387,36.403194681639]},"properties":{"Name":"錦町二丁目児童公園","Jusho":"群馬県桐生市錦町2-1305-1","kouzui":"×","gake":"○","takashio":"×","jishin":"○","tsunami":"×","kaji":"×","naisui":"×","kazan":"×"}}
,{"type":"Feature","geometry":{"type":"Point","coordinates":[139.32919281675,36.403975816646]},"properties":{"Name":"桐生地域地場産業    振興センター","Jusho":"群馬県桐生市織姫町2-5","kouzui":"○","gake":"○","takashio":"×","jishin":"×","tsunami":"×","kaji":"○","naisui":"○","kazan":"×"}}
,{"type":"Feature","geometry":{"type":"Point","coordinates":[139.32927328301,36.404657989062]},"properties":{"Name":"桐生市市民文化会館","Jusho":"群馬県桐生市織姫町2-5","kouzui":"○","gake":"○","takashio":"×","jishin":"×","tsunami":"×","kaji":"○","naisui":"○","kazan":"×"}}
,{"type":"Feature","geometry":{"type":"Point","coordinates":[139.33905186591,36.40021164449]},"properties":{"Name":"南小学校","Jusho":"群馬県桐生市新宿2-7-1","kouzui":"○","gake":"○","takashio":"×","jishin":"○","tsunami":"×","kaji":"○","naisui":"○","kazan":"×"}}
,{"type":"Feature","geometry":{"type":"Point","coordinates":[139.3444416394,36.394364921592]},"properties":{"Name":"南体育館・運動場","Jusho":"群馬県桐生市新宿3-3-19","kouzui":"○","gake":"○","takashio":"×","jishin":"○","tsunami":"×","kaji":"○","naisui":"○","kazan":"×"}}
,{"type":"Feature","geometry":{"type":"Point","coordinates":[139.34265631051,36.396988200111]},"properties":{"Name":"南公民館","Jusho":"群馬県桐生市新宿3-9-52","kouzui":"○","gake":"○","takashio":"×","jishin":"○","tsunami":"×","kaji":"×","naisui":"○","kazan":"×"}}
,{"type":"Feature","geometry":{"type":"Point","coordinates":[139.33823524241,36.394002410054]},"properties":{"Name":"小梅琴平公園","Jusho":"群馬県桐生市小梅町・琴平町地内","kouzui":"×","gake":"○","takashio":"×","jishin":"○","tsunami":"×","kaji":"○","naisui":"×","kazan":"×"}}
,{"type":"Feature","geometry":{"type":"Point","coordinates":[139.34046147591,36.404274538689]},"properties":{"Name":"浜松町児童公園","Jusho":"群馬県桐生市浜松町1-810-1","kouzui":"×","gake":"○","takashio":"×","jishin":"×","tsunami":"×","kaji":"×","naisui":"×","kazan":"×"}}
,{"type":"Feature","geometry":{"type":"Point","coordinates":[139.34425167321,36.415026015221]},"properties":{"Name":"東町児童公園","Jusho":"群馬県桐生市仲町1-832","kouzui":"×","gake":"○","takashio":"×","jishin":"○","tsunami":"×","kaji":"×","naisui":"×","kazan":"×"}}
,{"type":"Feature","geometry":{"type":"Point","coordinates":[139.34255659634,36.410450156563]},"properties":{"Name":"東小学校","Jusho":"群馬県桐生市仲町2-4-21","kouzui":"○","gake":"○","takashio":"×","jishin":"○","tsunami":"×","kaji":"○","naisui":"○","kazan":"×"}}
,{"type":"Feature","geometry":{"type":"Point","coordinates":[139.34675116086,36.412510679488]},"properties":{"Name":"東幼稚園","Jusho":"群馬県桐生市東1-8-23","kouzui":"×","gake":"○","takashio":"×","jishin":"×","tsunami":"×","kaji":"×","naisui":"×","kazan":"×"}}
,{"type":"Feature","geometry":{"type":"Point","coordinates":[139.34683300284,36.413170143076]},"properties":{"Name":"東一丁目児童公園","Jusho":"群馬県桐生市東1-910-22","kouzui":"×","gake":"○","takashio":"×","jishin":"○","tsunami":"×","kaji":"×","naisui":"×","kazan":"×"}}
,{"type":"Feature","geometry":{"type":"Point","coordinates":[139.35030790835,36.410260295728]},"properties":{"Name":"清流中学校","Jusho":"群馬県桐生市東3-7-1","kouzui":"○","gake":"○","takashio":"×","jishin":"○","tsunami":"×","kaji":"○","naisui":"○","kazan":"×"}}
,{"type":"Feature","geometry":{"type":"Point","coordinates":[139.35009172147,36.412936818231]},"properties":{"Name":"東三丁目児童公園","Jusho":"群馬県桐生市東3-1010","kouzui":"×","gake":"○","takashio":"×","jishin":"○","tsunami":"×","kaji":"×","naisui":"×","kazan":"×"}}
,{"type":"Feature","geometry":{"type":"Point","coordinates":[139.34730637551,36.408136597399]},"properties":{"Name":"東公民館","Jusho":"群馬県桐生市東5-6-8","kouzui":"○","gake":"○","takashio":"×","jishin":"○","tsunami":"×","kaji":"×","naisui":"○","kazan":"×"}}
,{"type":"Feature","geometry":{"type":"Point","coordinates":[139.34730101109,36.407851652787]},"properties":{"Name":"東保育園","Jusho":"群馬県桐生市東5-6-47","kouzui":"×","gake":"○","takashio":"×","jishin":"×","tsunami":"×","kaji":"×","naisui":"×","kazan":"×"}}
,{"type":"Feature","geometry":{"type":"Point","coordinates":[139.34382012721,36.404423038686]},"properties":{"Name":"清水町児童公園","Jusho":"群馬県桐生市東7-17-1","kouzui":"×","gake":"○","takashio":"×","jishin":"○","tsunami":"×","kaji":"×","naisui":"×","kazan":"×"}}
,{"type":"Feature","geometry":{"type":"Point","coordinates":[139.32759987908,36.412541932544]},"properties":{"Name":"元宿保育園","Jusho":"群馬県桐生市元宿町3-16","kouzui":"○","gake":"○","takashio":"×","jishin":"×","tsunami":"×","kaji":"×","naisui":"○","kazan":"×"}}
,{"type":"Feature","geometry":{"type":"Point","coordinates":[139.33383488469,36.411245614533]},"properties":{"Name":"桐生市保健福祉会館","Jusho":"群馬県桐生市末広町13-4","kouzui":"○","gake":"○","takashio":"×","jishin":"○","tsunami":"×","kaji":"○","naisui":"○","kazan":"×"}}
,{"type":"Feature","geometry":{"type":"Point","coordinates":[139.33344471495,36.418738750188]},"properties":{"Name":"水道山公園","Jusho":"群馬県桐生市宮本町2-14-56","kouzui":"○","gake":"○","takashio":"×","jishin":"○","tsunami":"×","kaji":"×","naisui":"○","kazan":"×"}}
,{"type":"Feature","geometry":{"type":"Point","coordinates":[139.33445858997,36.420922992666]},"properties":{"Name":"吾妻公園","Jusho":"群馬県桐生市宮本町3-10-1","kouzui":"○","gake":"×","takashio":"×","jishin":"○","tsunami":"×","kaji":"×","naisui":"○","kazan":"×"}}
,{"type":"Feature","geometry":{"type":"Point","coordinates":[139.34109437508,36.42262372391]},"properties":{"Name":"桐生が岡公園","Jusho":"群馬県桐生市宮本町3-8-13","kouzui":"○","gake":"○","takashio":"×","jishin":"○","tsunami":"×","kaji":"×","naisui":"○","kazan":"×"}}
,{"type":"Feature","geometry":{"type":"Point","coordinates":[139.33700132411,36.415000358661]},"properties":{"Name":"西小学校","Jusho":"群馬県桐生市小曽根町1-9","kouzui":"○","gake":"○","takashio":"×","jishin":"○","tsunami":"×","kaji":"○","naisui":"○","kazan":"×"}}
,{"type":"Feature","geometry":{"type":"Point","coordinates":[139.33493193481,36.416102101844]},"properties":{"Name":"西公民館分館 体育館・運動場","Jusho":"群馬県桐生市小曽根町3-30","kouzui":"○","gake":"○","takashio":"×","jishin":"×","tsunami":"×","kaji":"○","naisui":"○","kazan":"×"}}
,{"type":"Feature","geometry":{"type":"Point","coordinates":[139.33358101004,36.415174540489]},"properties":{"Name":"西幼稚園","Jusho":"群馬県桐生市小曽根町6-1","kouzui":"○","gake":"○","takashio":"×","jishin":"○","tsunami":"×","kaji":"×","naisui":"○","kazan":"×"}}
,{"type":"Feature","geometry":{"type":"Point","coordinates":[139.33689782607,36.413413738188]},"properties":{"Name":"西公民館","Jusho":"群馬県桐生市永楽町2-16","kouzui":"○","gake":"○","takashio":"×","jishin":"○","tsunami":"×","kaji":"×","naisui":"○","kazan":"×"}}
,{"type":"Feature","geometry":{"type":"Point","coordinates":[139.34527912058,36.422509692372]},"properties":{"Name":"桐生工業高等学校","Jusho":"群馬県桐生市西久方町1-1-41","kouzui":"○","gake":"○","takashio":"×","jishin":"○","tsunami":"×","kaji":"○","naisui":"○","kazan":"×"}}
,{"type":"Feature","geometry":{"type":"Point","coordinates":[139.34643792865,36.424968734929]},"properties":{"Name":"北中学校跡","Jusho":"群馬県桐生市西久方町1-9-1","kouzui":"○","gake":"×","takashio":"×","jishin":"×","tsunami":"×","kaji":"○","naisui":"○","kazan":"×"}}
,{"type":"Feature","geometry":{"type":"Point","coordinates":[139.34311567766,36.421518920105]},"properties":{"Name":"旧北幼稚園","Jusho":"群馬県桐生市西久方町1-4-9","kouzui":"○","gake":"○","takashio":"×","jishin":"×","tsunami":"×","kaji":"×","naisui":"○","kazan":"×"}}
,{"type":"Feature","geometry":{"type":"Point","coordinates":[139.34108445269,36.418238256106]},"properties":{"Name":"北小学校","Jusho":"群馬県桐生市西久方町2-1-5","kouzui":"○","gake":"○","takashio":"×","jishin":"○","tsunami":"×","kaji":"○","naisui":"○","kazan":"×"}}
,{"type":"Feature","geometry":{"type":"Point","coordinates":[139.35038670263,36.423225371038]},"properties":{"Name":"群馬大学理工学部　   体育館・工学部会館・   駐車場・テニスコート","Jusho":"群馬県桐生市天神町1-5-1","kouzui":"○","gake":"○","takashio":"×","jishin":"×","tsunami":"×","kaji":"○","naisui":"○","kazan":"×"}}
,{"type":"Feature","geometry":{"type":"Point","coordinates":[139.34678013319,36.416883323375]},"properties":{"Name":"北公民館","Jusho":"群馬県桐生市東久方町3-3-26","kouzui":"○","gake":"○","takashio":"×","jishin":"×","tsunami":"×","kaji":"×","naisui":"○","kazan":"×"}}
,{"type":"Feature","geometry":{"type":"Point","coordinates":[139.35488180704,36.430130821273]},"properties":{"Name":"ふれあいホーム","Jusho":"群馬県桐生市天神町3-14-16","kouzui":"×","gake":"○","takashio":"×","jishin":"×","tsunami":"×","kaji":"×","naisui":"×","kazan":"×"}}
,{"type":"Feature","geometry":{"type":"Point","coordinates":[139.35352193734,36.427110297299]},"properties":{"Name":"天神町児童公園","Jusho":"群馬県桐生市天神町3-344","kouzui":"×","gake":"○","takashio":"×","jishin":"○","tsunami":"×","kaji":"×","naisui":"×","kazan":"×"}}
,{"type":"Feature","geometry":{"type":"Point","coordinates":[139.35155308405,36.38902551439]},"properties":{"Name":"境野公民館","Jusho":"群馬県桐生市境野町2-612-4","kouzui":"○","gake":"○","takashio":"×","jishin":"×","tsunami":"×","kaji":"×","naisui":"○","kazan":"×"}}
,{"type":"Feature","geometry":{"type":"Point","coordinates":[139.35176497857,36.389057902357]},"properties":{"Name":"境野町児童公園","Jusho":"群馬県桐生市境野町2-612-4","kouzui":"×","gake":"○","takashio":"×","jishin":"○","tsunami":"×","kaji":"×","naisui":"×","kazan":"×"}}
,{"type":"Feature","geometry":{"type":"Point","coordinates":[139.34568631923,36.389965247593]},"properties":{"Name":"関根児童公園","Jusho":"群馬県桐生市境野町3-1320-2","kouzui":"×","gake":"○","takashio":"×","jishin":"○","tsunami":"×","kaji":"×","naisui":"×","kazan":"×"}}
,{"type":"Feature","geometry":{"type":"Point","coordinates":[139.34914946638,36.387334470838]},"properties":{"Name":"三ツ堀会館","Jusho":"群馬県桐生市境野町3-1511-1","kouzui":"○","gake":"○","takashio":"×","jishin":"×","tsunami":"×","kaji":"×","naisui":"○","kazan":"×"}}
,{"type":"Feature","geometry":{"type":"Point","coordinates":[139.34380387113,36.390503557741]},"properties":{"Name":"みつぼり保育園","Jusho":"群馬県桐生市境野町3-1302-4","kouzui":"×","gake":"○","takashio":"×","jishin":"×","tsunami":"×","kaji":"×","naisui":"×","kazan":"×"}}
,{"type":"Feature","geometry":{"type":"Point","coordinates":[139.35235475347,36.39189404253]},"properties":{"Name":"諏訪児童公園","Jusho":"群馬県桐生市境野町4-853","kouzui":"×","gake":"○","takashio":"×","jishin":"○","tsunami":"×","kaji":"×","naisui":"×","kazan":"×"}}
,{"type":"Feature","geometry":{"type":"Point","coordinates":[139.35418938442,36.393133366704]},"properties":{"Name":"沼の上保育園","Jusho":"群馬県桐生市境野町4-1095-1","kouzui":"×","gake":"○","takashio":"×","jishin":"×","tsunami":"×","kaji":"×","naisui":"×","kazan":"×"}}
,{"type":"Feature","geometry":{"type":"Point","coordinates":[139.3532320024,36.384361629053]},"properties":{"Name":"境野小学校","Jusho":"群馬県桐生市境野町6-1616-1","kouzui":"○","gake":"○","takashio":"×","jishin":"○","tsunami":"×","kaji":"○","naisui":"○","kazan":"×"}}
,{"type":"Feature","geometry":{"type":"Point","coordinates":[139.35330978647,36.385357072776]},"properties":{"Name":"境野幼稚園","Jusho":"群馬県桐生市境野町6-1616-1","kouzui":"○","gake":"○","takashio":"×","jishin":"○","tsunami":"×","kaji":"×","naisui":"○","kazan":"×"}}
,{"type":"Feature","geometry":{"type":"Point","coordinates":[139.35378372854,36.38323003169]},"properties":{"Name":"境野中学校","Jusho":"群馬県桐生市境野町6-1673","kouzui":"○","gake":"○","takashio":"×","jishin":"○","tsunami":"×","kaji":"○","naisui":"○","kazan":"×"}}
,{"type":"Feature","geometry":{"type":"Point","coordinates":[139.324088824,36.394382590012]},"properties":{"Name":"桜木中学校","Jusho":"群馬県桐生市広沢町1-2874","kouzui":"○","gake":"○","takashio":"×","jishin":"○","tsunami":"×","kaji":"○","naisui":"○","kazan":"×"}}
,{"type":"Feature","geometry":{"type":"Point","coordinates":[139.32554978049,36.395987651292]},"properties":{"Name":"おおぞら保育園","Jusho":"群馬県桐生市広沢町1-2903-2","kouzui":"○","gake":"○","takashio":"×","jishin":"×","tsunami":"×","kaji":"×","naisui":"○","kazan":"×"}}
,{"type":"Feature","geometry":{"type":"Point","coordinates":[139.32309786511,36.391525589326]},"properties":{"Name":"広沢町児童遊園","Jusho":"群馬県桐生市広沢町2-3165-47","kouzui":"○","gake":"○","takashio":"×","jishin":"○","tsunami":"×","kaji":"×","naisui":"○","kazan":"×"}}
,{"type":"Feature","geometry":{"type":"Point","coordinates":[139.32145297496,36.389142625494]},"properties":{"Name":"神明小学校","Jusho":"群馬県桐生市広沢町2-3242-1","kouzui":"○","gake":"○","takashio":"×","jishin":"○","tsunami":"×","kaji":"○","naisui":"○","kazan":"×"}}
,{"type":"Feature","geometry":{"type":"Point","coordinates":[139.32512860128,36.389421682349]},"properties":{"Name":"桜木公民館","Jusho":"群馬県桐生市広沢町2-3334-1","kouzui":"○","gake":"○","takashio":"×","jishin":"○","tsunami":"×","kaji":"×","naisui":"○","kazan":"×"}}
,{"type":"Feature","geometry":{"type":"Point","coordinates":[139.31617002318,36.386539113964]},"properties":{"Name":"旧桐生南高等学校","Jusho":"群馬県桐生市広沢町3-4193","kouzui":"×","gake":"×","takashio":"×","jishin":"○","tsunami":"×","kaji":"×","naisui":"×","kazan":"×"}}
,{"type":"Feature","geometry":{"type":"Point","coordinates":[139.34070050357,36.38674553409]},"properties":{"Name":"間ノ島児童公園","Jusho":"群馬県桐生市広沢町間ノ島21-24","kouzui":"×","gake":"○","takashio":"×","jishin":"○","tsunami":"×","kaji":"×","naisui":"×","kazan":"×"}}
,{"type":"Feature","geometry":{"type":"Point","coordinates":[139.34074341893,36.380245885186]},"properties":{"Name":"広沢中学校","Jusho":"群馬県桐生市広沢町4-1864-2","kouzui":"○","gake":"○","takashio":"×","jishin":"○","tsunami":"×","kaji":"○","naisui":"○","kazan":"×"}}
,{"type":"Feature","geometry":{"type":"Point","coordinates":[139.34315204261,36.384469639109]},"properties":{"Name":"広沢公民館","Jusho":"群馬県桐生市広沢町4-1970-172","kouzui":"○","gake":"○","takashio":"×","jishin":"○","tsunami":"×","kaji":"×","naisui":"○","kazan":"×"}}
,{"type":"Feature","geometry":{"type":"Point","coordinates":[139.33855666151,36.381250417037]},"properties":{"Name":"広沢小学校","Jusho":"群馬県桐生市広沢町4-2044-2","kouzui":"○","gake":"○","takashio":"×","jishin":"○","tsunami":"×","kaji":"○","naisui":"○","kazan":"×"}}
,{"type":"Feature","geometry":{"type":"Point","coordinates":[139.33855933323,36.382160220217]},"properties":{"Name":"広沢幼稚園","Jusho":"群馬県桐生市広沢町4-2099","kouzui":"○","gake":"○","takashio":"×","jishin":"×","tsunami":"×","kaji":"×","naisui":"○","kazan":"×"}}
,{"type":"Feature","geometry":{"type":"Point","coordinates":[139.33608407557,36.373872404834]},"properties":{"Name":"桐生市南公園","Jusho":"群馬県桐生市広沢町5-4716-11","kouzui":"○","gake":"○","takashio":"×","jishin":"○","tsunami":"×","kaji":"○","naisui":"○","kazan":"×"}}
,{"type":"Feature","geometry":{"type":"Point","coordinates":[139.3517481762,36.369596241694]},"properties":{"Name":"広沢南部保育園","Jusho":"群馬県桐生市広沢町6-606","kouzui":"○","gake":"×","takashio":"×","jishin":"×","tsunami":"×","kaji":"×","naisui":"○","kazan":"×"}}
,{"type":"Feature","geometry":{"type":"Point","coordinates":[139.35099917777,36.372276064407]},"properties":{"Name":"広沢町六丁目公園","Jusho":"群馬県桐生市広沢町6-845-11","kouzui":"○","gake":"○","takashio":"×","jishin":"○","tsunami":"×","kaji":"×","naisui":"○","kazan":"×"}}
,{"type":"Feature","geometry":{"type":"Point","coordinates":[139.35185005524,36.378212208338]},"properties":{"Name":"広沢老人憩の家","Jusho":"群馬県桐生市広沢町6-1103-1","kouzui":"×","gake":"○","takashio":"×","jishin":"×","tsunami":"×","kaji":"×","naisui":"×","kazan":"×"}}
,{"type":"Feature","geometry":{"type":"Point","coordinates":[139.35832618707,36.374069710126]},"properties":{"Name":"松原橋公園","Jusho":"群馬県桐生市広沢町6　地内","kouzui":"×","gake":"○","takashio":"×","jishin":"○","tsunami":"×","kaji":"○","naisui":"×","kazan":"×"}}
,{"type":"Feature","geometry":{"type":"Point","coordinates":[139.36607476872,36.364556184999]},"properties":{"Name":"一本木会館","Jusho":"群馬県桐生市広沢町7-5022-4","kouzui":"○","gake":"○","takashio":"×","jishin":"×","tsunami":"×","kaji":"×","naisui":"○","kazan":"×"}}
,{"type":"Feature","geometry":{"type":"Point","coordinates":[139.36715201924,36.364249709434]},"properties":{"Name":"桐生水質浄化センター","Jusho":"群馬県桐生市広沢町7-5005","kouzui":"○","gake":"○","takashio":"×","jishin":"×","tsunami":"×","kaji":"○","naisui":"○","kazan":"×"}}
,{"type":"Feature","geometry":{"type":"Point","coordinates":[139.35691923186,36.434632718413]},"properties":{"Name":"桐生女子高等学校","Jusho":"群馬県桐生市梅田町1-185-1","kouzui":"×","gake":"×","takashio":"×","jishin":"○","tsunami":"×","kaji":"×","naisui":"×","kazan":"×"}}
,{"type":"Feature","geometry":{"type":"Point","coordinates":[139.35774760031,36.437593032335]},"properties":{"Name":"たかぞの保育園","Jusho":"群馬県桐生市梅田町1-273-1","kouzui":"○","gake":"×","takashio":"×","jishin":"×","tsunami":"×","kaji":"×","naisui":"○","kazan":"×"}}
,{"type":"Feature","geometry":{"type":"Point","coordinates":[139.37982954039,36.452301580392]},"properties":{"Name":"梅田南小学校","Jusho":"群馬県桐生市梅田町2-179","kouzui":"○","gake":"○","takashio":"×","jishin":"○","tsunami":"×","kaji":"○","naisui":"○","kazan":"×"}}
,{"type":"Feature","geometry":{"type":"Point","coordinates":[139.38329606903,36.456468372078]},"properties":{"Name":"梅田中学校","Jusho":"群馬県桐生市梅田町2-347-1","kouzui":"○","gake":"×","takashio":"×","jishin":"○","tsunami":"×","kaji":"○","naisui":"○","kazan":"×"}}
,{"type":"Feature","geometry":{"type":"Point","coordinates":[139.41099606798,36.499246466314]},"properties":{"Name":"梅田ふるさとセンター","Jusho":"群馬県桐生市梅田町5-7568-1","kouzui":"○","gake":"×","takashio":"×","jishin":"×","tsunami":"×","kaji":"×","naisui":"○","kazan":"×"}}
,{"type":"Feature","geometry":{"type":"Point","coordinates":[139.31632295894,36.411607010426]},"properties":{"Name":"赤岩児童公園","Jusho":"群馬県桐生市相生町2-265-7","kouzui":"○","gake":"○","takashio":"×","jishin":"○","tsunami":"×","kaji":"×","naisui":"○","kazan":"×"}}
,{"type":"Feature","geometry":{"type":"Point","coordinates":[139.31101009116,36.412728855263]},"properties":{"Name":"相生幼稚園","Jusho":"群馬県桐生市相生町2-408-9","kouzui":"○","gake":"○","takashio":"×","jishin":"○","tsunami":"×","kaji":"×","naisui":"○","kazan":"×"}}
,{"type":"Feature","geometry":{"type":"Point","coordinates":[139.30956113585,36.413420436566]},"properties":{"Name":"相生小学校","Jusho":"群馬県桐生市相生町2-420","kouzui":"○","gake":"○","takashio":"×","jishin":"○","tsunami":"×","kaji":"○","naisui":"○","kazan":"×"}}
,{"type":"Feature","geometry":{"type":"Point","coordinates":[139.30540775359,36.416175894677]},"properties":{"Name":"相生保育園","Jusho":"群馬県桐生市相生町2-421-1","kouzui":"○","gake":"○","takashio":"×","jishin":"×","tsunami":"×","kaji":"×","naisui":"○","kazan":"×"}}
,{"type":"Feature","geometry":{"type":"Point","coordinates":[139.30446762771,36.414781809825]},"properties":{"Name":"愛宕児童公園","Jusho":"群馬県桐生市相生町2-486-17","kouzui":"○","gake":"○","takashio":"×","jishin":"○","tsunami":"×","kaji":"×","naisui":"○","kazan":"×"}}
,{"type":"Feature","geometry":{"type":"Point","coordinates":[139.30233795375,36.412148416306]},"properties":{"Name":"相生公民館","Jusho":"群馬県桐生市相生町2-620-14","kouzui":"○","gake":"○","takashio":"×","jishin":"○","tsunami":"×","kaji":"×","naisui":"○","kazan":"×"}}
,{"type":"Feature","geometry":{"type":"Point","coordinates":[139.299539,36.420256]},"properties":{"Name":"桐生市民体育館","Jusho":"群馬県桐生市相生町3-300","kouzui":"○","gake":"○","takashio":"×","jishin":"○","tsunami":"×","kaji":"○","naisui":"○","kazan":"×"}}
,{"type":"Feature","geometry":{"type":"Point","coordinates":[139.30194863828,36.425263295628]},"properties":{"Name":"桐生清桜高等学校","Jusho":"群馬県桐生市相生町3-551-1","kouzui":"○","gake":"○","takashio":"×","jishin":"○","tsunami":"×","kaji":"○","naisui":"○","kazan":"×"}}
,{"type":"Feature","geometry":{"type":"Point","coordinates":[139.2983763255,36.425269838862]},"properties":{"Name":"すみれ保育園","Jusho":"群馬県桐生市相生町3-593-15","kouzui":"○","gake":"×","takashio":"×","jishin":"×","tsunami":"×","kaji":"×","naisui":"○","kazan":"×"}}
,{"type":"Feature","geometry":{"type":"Point","coordinates":[139.31020218503,36.418557574137]},"properties":{"Name":"市民広場","Jusho":"群馬県桐生市相生町3-722-2","kouzui":"×","gake":"○","takashio":"×","jishin":"○","tsunami":"×","kaji":"○","naisui":"×","kazan":"×"}}
,{"type":"Feature","geometry":{"type":"Point","coordinates":[139.30001397687,36.409287958756]},"properties":{"Name":"相生中学校","Jusho":"群馬県桐生市相生町5-247","kouzui":"○","gake":"○","takashio":"×","jishin":"○","tsunami":"×","kaji":"○","naisui":"○","kazan":"×"}}
,{"type":"Feature","geometry":{"type":"Point","coordinates":[139.2951220178,36.415531924362]},"properties":{"Name":"相生町児童公園","Jusho":"群馬県桐生市相生町5-436-6","kouzui":"○","gake":"○","takashio":"×","jishin":"○","tsunami":"×","kaji":"×","naisui":"○","kazan":"×"}}
,{"type":"Feature","geometry":{"type":"Point","coordinates":[139.29102282903,36.412826121263]},"properties":{"Name":"相生町五丁目7号公園","Jusho":"群馬県桐生市相生町5-554-3","kouzui":"○","gake":"○","takashio":"×","jishin":"○","tsunami":"×","kaji":"×","naisui":"○","kazan":"×"}}
,{"type":"Feature","geometry":{"type":"Point","coordinates":[139.29525931094,36.408041263629]},"properties":{"Name":"天沼小学校","Jusho":"群馬県桐生市相生町5-713-1","kouzui":"○","gake":"○","takashio":"×","jishin":"○","tsunami":"×","kaji":"○","naisui":"○","kazan":"×"}}
,{"type":"Feature","geometry":{"type":"Point","coordinates":[139.30979757409,36.426752174132]},"properties":{"Name":"鷹ノ巣1号公園","Jusho":"群馬県桐生市川内町2-91","kouzui":"○","gake":"○","takashio":"×","jishin":"○","tsunami":"×","kaji":"○","naisui":"○","kazan":"×"}}
,{"type":"Feature","geometry":{"type":"Point","coordinates":[139.30615782395,36.432950767367]},"properties":{"Name":"川内南幼稚園","Jusho":"群馬県桐生市川内町3-405-1","kouzui":"○","gake":"○","takashio":"×","jishin":"×","tsunami":"×","kaji":"×","naisui":"○","kazan":"×"}}
,{"type":"Feature","geometry":{"type":"Point","coordinates":[139.30621739596,36.433645134079]},"properties":{"Name":"新堀公園","Jusho":"群馬県桐生市川内町3-532","kouzui":"○","gake":"○","takashio":"×","jishin":"○","tsunami":"×","kaji":"×","naisui":"○","kazan":"×"}}
,{"type":"Feature","geometry":{"type":"Point","coordinates":[139.30541035279,36.432753913255]},"properties":{"Name":"川内小学校","Jusho":"群馬県桐生市川内町3-572","kouzui":"○","gake":"○","takashio":"×","jishin":"○","tsunami":"×","kaji":"○","naisui":"○","kazan":"×"}}
,{"type":"Feature","geometry":{"type":"Point","coordinates":[139.30702220988,36.439358927634]},"properties":{"Name":"川内中学校","Jusho":"群馬県桐生市川内町5-358","kouzui":"○","gake":"○","takashio":"×","jishin":"○","tsunami":"×","kaji":"○","naisui":"○","kazan":"×"}}
,{"type":"Feature","geometry":{"type":"Point","coordinates":[139.308447,36.440586]},"properties":{"Name":"川内長寿センター","Jusho":"群馬県桐生市川内町5-398-1","kouzui":"○","gake":"○","takashio":"×","jishin":"○","tsunami":"×","kaji":"○","naisui":"○","kazan":"×"}}
,{"type":"Feature","geometry":{"type":"Point","coordinates":[139.31783181486,36.451397202395]},"properties":{"Name":"川内北小学校跡","Jusho":"群馬県桐生市川内町5-1575","kouzui":"○","gake":"○","takashio":"×","jishin":"×","tsunami":"×","kaji":"○","naisui":"○","kazan":"×"}}
,{"type":"Feature","geometry":{"type":"Point","coordinates":[139.31722295342,36.451265596935]},"properties":{"Name":"川内体育館","Jusho":"群馬県桐生市川内町5-1575","kouzui":"○","gake":"○","takashio":"×","jishin":"×","tsunami":"×","kaji":"○","naisui":"○","kazan":"×"}}
,{"type":"Feature","geometry":{"type":"Point","coordinates":[139.31220311296,36.446443122847]},"properties":{"Name":"みやま園","Jusho":"群馬県桐生市川内町5-1199","kouzui":"○","gake":"○","takashio":"×","jishin":"×","tsunami":"×","kaji":"×","naisui":"○","kazan":"×"}}
,{"type":"Feature","geometry":{"type":"Point","coordinates":[139.36131832839,36.405906383048]},"properties":{"Name":"群馬大学理工学部  菱グラウンド","Jusho":"群馬県桐生市菱町1-539-1","kouzui":"×","gake":"×","takashio":"×","jishin":"○","tsunami":"×","kaji":"○","naisui":"×","kazan":"×"}}
,{"type":"Feature","geometry":{"type":"Point","coordinates":[139.3489578682,36.402058432706]},"properties":{"Name":"城の岡西公園","Jusho":"群馬県桐生市菱町1-3401-2","kouzui":"○","gake":"○","takashio":"×","jishin":"○","tsunami":"×","kaji":"×","naisui":"○","kazan":"×"}}
,{"type":"Feature","geometry":{"type":"Point","coordinates":[139.35207459507,36.401790736554]},"properties":{"Name":"城の岡東公園","Jusho":"群馬県桐生市菱町1-3405-1","kouzui":"○","gake":"×","takashio":"×","jishin":"○","tsunami":"×","kaji":"×","naisui":"○","kazan":"×"}}
,{"type":"Feature","geometry":{"type":"Point","coordinates":[139.35027751503,36.400318391235]},"properties":{"Name":"城の岡南公園","Jusho":"群馬県桐生市菱町1-3416-6","kouzui":"○","gake":"○","takashio":"×","jishin":"○","tsunami":"×","kaji":"×","naisui":"○","kazan":"×"}}
,{"type":"Feature","geometry":{"type":"Point","coordinates":[139.35898972549,36.410101993434]},"properties":{"Name":"菱公民館","Jusho":"群馬県桐生市菱町2-1349-1","kouzui":"○","gake":"○","takashio":"×","jishin":"○","tsunami":"×","kaji":"×","naisui":"○","kazan":"×"}}
,{"type":"Feature","geometry":{"type":"Point","coordinates":[139.35679442635,36.413041477435]},"properties":{"Name":"菱小学校","Jusho":"群馬県桐生市菱町2-1919-1","kouzui":"○","gake":"○","takashio":"×","jishin":"○","tsunami":"×","kaji":"○","naisui":"○","kazan":"×"}}
,{"type":"Feature","geometry":{"type":"Point","coordinates":[139.3568547538,36.41414009969]},"properties":{"Name":"桐生特別支援学校","Jusho":"群馬県桐生市菱町2-1955-1","kouzui":"○","gake":"○","takashio":"×","jishin":"○","tsunami":"×","kaji":"○","naisui":"○","kazan":"×"}}
,{"type":"Feature","geometry":{"type":"Point","coordinates":[139.35860833784,36.407875721633]},"properties":{"Name":"桐陽台 1 号公園","Jusho":"群馬県桐生市菱町2-3542-17","kouzui":"○","gake":"○","takashio":"×","jishin":"○","tsunami":"×","kaji":"×","naisui":"○","kazan":"×"}}
,{"type":"Feature","geometry":{"type":"Point","coordinates":[139.3581469979,36.404326779552]},"properties":{"Name":"桐陽台 2 号公園","Jusho":"群馬県桐生市菱町2-3540-5","kouzui":"○","gake":"○","takashio":"×","jishin":"○","tsunami":"×","kaji":"×","naisui":"○","kazan":"×"}}
,{"type":"Feature","geometry":{"type":"Point","coordinates":[139.35557207722,36.406494157612]},"properties":{"Name":"桐陽台 3 号公園","Jusho":"群馬県桐生市菱町2-3541-1","kouzui":"○","gake":"○","takashio":"×","jishin":"○","tsunami":"×","kaji":"×","naisui":"○","kazan":"×"}}
,{"type":"Feature","geometry":{"type":"Point","coordinates":[139.35473219533,36.412108197751]},"properties":{"Name":"菱保育園","Jusho":"群馬県桐生市菱町3-1992","kouzui":"○","gake":"○","takashio":"×","jishin":"×","tsunami":"×","kaji":"×","naisui":"○","kazan":"×"}}
,{"type":"Feature","geometry":{"type":"Point","coordinates":[139.35177528929,36.42005170561]},"properties":{"Name":"菱町四丁目集会所","Jusho":"群馬県桐生市菱町4-2283-1","kouzui":"×","gake":"○","takashio":"×","jishin":"×","tsunami":"×","kaji":"×","naisui":"×","kazan":"×"}}
,{"type":"Feature","geometry":{"type":"Point","coordinates":[139.36068722466,36.436277050664]},"properties":{"Name":"上菱児童公園","Jusho":"群馬県桐生市菱町5-570-4","kouzui":"○","gake":"×","takashio":"×","jishin":"○","tsunami":"×","kaji":"×","naisui":"○","kazan":"×"}}
,{"type":"Feature","geometry":{"type":"Point","coordinates":[139.31900005793,36.399014967445]},"properties":{"Name":"桜木小学校","Jusho":"群馬県桐生市相生町1-383","kouzui":"○","gake":"○","takashio":"×","jishin":"○","tsunami":"×","kaji":"○","naisui":"○","kazan":"×"}}
,{"type":"Feature","geometry":{"type":"Point","coordinates":[139.3194529178,36.397728920707]},"properties":{"Name":"桜木幼稚園","Jusho":"群馬県桐生市相生町1-乙394","kouzui":"○","gake":"○","takashio":"×","jishin":"×","tsunami":"×","kaji":"×","naisui":"○","kazan":"×"}}
,{"type":"Feature","geometry":{"type":"Point","coordinates":[139.3179818507,36.399344146435]},"properties":{"Name":"桜木西公民館","Jusho":"群馬県桐生市相生町1-451-1","kouzui":"○","gake":"○","takashio":"×","jishin":"○","tsunami":"×","kaji":"×","naisui":"○","kazan":"×"}}
,{"type":"Feature","geometry":{"type":"Point","coordinates":[139.31131774505,36.403830174306]},"properties":{"Name":"足仲児童公園","Jusho":"群馬県桐生市相生町1-507-9","kouzui":"○","gake":"○","takashio":"×","jishin":"○","tsunami":"×","kaji":"×","naisui":"○","kazan":"×"}}
,{"type":"Feature","geometry":{"type":"Point","coordinates":[139.23276854675,36.450295528547]},"properties":{"Name":"新里北小学校","Jusho":"群馬県桐生市新里町大久保302","kouzui":"○","gake":"○","takashio":"×","jishin":"○","tsunami":"×","kaji":"○","naisui":"○","kazan":"×"}}
,{"type":"Feature","geometry":{"type":"Point","coordinates":[139.25382933506,36.450303547094]},"properties":{"Name":"新里町奥沢地区集会所","Jusho":"群馬県桐生市新里町奥沢476","kouzui":"○","gake":"○","takashio":"×","jishin":"×","tsunami":"×","kaji":"×","naisui":"○","kazan":"×"}}
,{"type":"Feature","geometry":{"type":"Point","coordinates":[139.25193363673,36.443670283971]},"properties":{"Name":"上鶴ヶ谷住民センター","Jusho":"群馬県桐生市新里町鶴ヶ谷521","kouzui":"○","gake":"○","takashio":"×","jishin":"×","tsunami":"×","kaji":"×","naisui":"○","kazan":"×"}}
,{"type":"Feature","geometry":{"type":"Point","coordinates":[139.22778207723,36.426667799555]},"properties":{"Name":"山上城跡公園","Jusho":"群馬県桐生市新里町山上297-1","kouzui":"○","gake":"○","takashio":"×","jishin":"○","tsunami":"×","kaji":"○","naisui":"○","kazan":"×"}}
,{"type":"Feature","geometry":{"type":"Point","coordinates":[139.23807458412,36.429269502725]},"properties":{"Name":"新里中学校","Jusho":"群馬県桐生市新里町山上827","kouzui":"○","gake":"○","takashio":"×","jishin":"○","tsunami":"×","kaji":"○","naisui":"○","kazan":"×"}}
,{"type":"Feature","geometry":{"type":"Point","coordinates":[139.23706713264,36.4289238328]},"properties":{"Name":"新里社会体育館","Jusho":"群馬県桐生市新里町山上828-1","kouzui":"○","gake":"○","takashio":"×","jishin":"○","tsunami":"×","kaji":"○","naisui":"○","kazan":"×"}}
,{"type":"Feature","geometry":{"type":"Point","coordinates":[139.23727157436,36.421811284]},"properties":{"Name":"新里中央小学校","Jusho":"群馬県桐生市新里町小林甲60","kouzui":"○","gake":"○","takashio":"×","jishin":"○","tsunami":"×","kaji":"○","naisui":"○","kazan":"×"}}
,{"type":"Feature","geometry":{"type":"Point","coordinates":[139.23786474964,36.407619551514]},"properties":{"Name":"武井遺跡公園","Jusho":"群馬県桐生市新里町武井1100-2","kouzui":"○","gake":"○","takashio":"×","jishin":"○","tsunami":"×","kaji":"×","naisui":"○","kazan":"×"}}
,{"type":"Feature","geometry":{"type":"Point","coordinates":[139.2371941974,36.397792610995]},"properties":{"Name":"新里福祉センター","Jusho":"群馬県桐生市新里町野397-1","kouzui":"×","gake":"○","takashio":"×","jishin":"×","tsunami":"×","kaji":"○","naisui":"○","kazan":"×"}}
,{"type":"Feature","geometry":{"type":"Point","coordinates":[139.26998180414,36.417192107796]},"properties":{"Name":"八幡原公園","Jusho":"群馬県桐生市新里町新川741-11","kouzui":"○","gake":"○","takashio":"×","jishin":"○","tsunami":"×","kaji":"×","naisui":"○","kazan":"×"}}
,{"type":"Feature","geometry":{"type":"Point","coordinates":[139.25713725114,36.421404506246]},"properties":{"Name":"新里東小学校","Jusho":"群馬県桐生市新里町新川2072","kouzui":"○","gake":"○","takashio":"×","jishin":"○","tsunami":"×","kaji":"○","naisui":"○","kazan":"×"}}
,{"type":"Feature","geometry":{"type":"Point","coordinates":[139.26730916462,36.42207390517]},"properties":{"Name":"東新川駅北公園","Jusho":"群馬県桐生市新里町新川3783-1","kouzui":"○","gake":"○","takashio":"×","jishin":"○","tsunami":"×","kaji":"×","naisui":"○","kazan":"×"}}
,{"type":"Feature","geometry":{"type":"Point","coordinates":[139.28431940798,36.501663873681]},"properties":{"Name":"黒保根保育園","Jusho":"群馬県桐生市黒保根町水沼199-1","kouzui":"○","gake":"×","takashio":"×","jishin":"×","tsunami":"×","kaji":"○","naisui":"○","kazan":"×"}}
,{"type":"Feature","geometry":{"type":"Point","coordinates":[139.28158071565,36.506104476705]},"properties":{"Name":"黒保根中学校","Jusho":"群馬県桐生市黒保根町水沼342-7","kouzui":"○","gake":"○","takashio":"×","jishin":"○","tsunami":"×","kaji":"○","naisui":"○","kazan":"×"}}
,{"type":"Feature","geometry":{"type":"Point","coordinates":[139.28483158205,36.50732583029]},"properties":{"Name":"黒保根小学校","Jusho":"群馬県桐生市黒保根町水沼400","kouzui":"○","gake":"○","takashio":"×","jishin":"○","tsunami":"×","kaji":"○","naisui":"○","kazan":"×"}}
,{"type":"Feature","geometry":{"type":"Point","coordinates":[139.29095702859,36.504683265496]},"properties":{"Name":"黒保根町交流促進センター","Jusho":"群馬県桐生市黒保根町水沼549-1","kouzui":"○","gake":"○","takashio":"×","jishin":"○","tsunami":"×","kaji":"○","naisui":"○","kazan":"×"}}
,{"type":"Feature","geometry":{"type":"Point","coordinates":[139.29164903851,36.504808312334]},