var hyogo={"type":"FeatureCollection","name":"hyogo","features":[
{"type":"Feature","geometry":{"type":"Point","coordinates":[135.2944292,34.7248161]},"properties":{"Name":"東灘小学校","Jusho":"兵庫県神戸市東灘区深江北町2-4-1","kouzui":"○","gake":"○","takashio":"×","jishin":"×","tsunami":"○","kaji":"×","naisui":"×","kazan":"×"}}
,{"type":"Feature","geometry":{"type":"Point","coordinates":[135.28869973863,34.721020223996]},"properties":{"Name":"本庄小学校","Jusho":"兵庫県神戸市東灘区青木4-4-1","kouzui":"○","gake":"○","takashio":"×","jishin":"×","tsunami":"×","kaji":"×","naisui":"×","kazan":"×"}}
,{"type":"Feature","geometry":{"type":"Point","coordinates":[135.2875439,34.720461232557]},"properties":{"Name":"本庄中学校","Jusho":"兵庫県神戸市東灘区青木4-4-2","kouzui":"○","gake":"○","takashio":"×","jishin":"×","tsunami":"×","kaji":"×","naisui":"×","kazan":"×"}}
,{"type":"Feature","geometry":{"type":"Point","coordinates":[135.3010486,34.7099789]},"properties":{"Name":"東灘高校","Jusho":"兵庫県神戸市東灘区深江浜町50","kouzui":"○","gake":"○","takashio":"×","jishin":"×","tsunami":"×","kaji":"×","naisui":"×","kazan":"×"}}
,{"type":"Feature","geometry":{"type":"Point","coordinates":[135.2883578,34.7187444]},"properties":{"Name":"神戸大学海事科学部","Jusho":"兵庫県神戸市東灘区深江南町5-1-1","kouzui":"○","gake":"○","takashio":"×","jishin":"×","tsunami":"×","kaji":"×","naisui":"×","kazan":"×"}}
,{"type":"Feature","geometry":{"type":"Point","coordinates":[135.271257,34.714966]},"properties":{"Name":"魚崎小学校","Jusho":"兵庫県神戸市東灘区魚崎中町4-10-8","kouzui":"○","gake":"○","takashio":"×","jishin":"×","tsunami":"○","kaji":"×","naisui":"×","kazan":"×"}}
,{"type":"Feature","geometry":{"type":"Point","coordinates":[135.2684539,34.7191636]},"properties":{"Name":"灘中・高校","Jusho":"兵庫県神戸市東灘区魚崎北町8-5-1","kouzui":"○","gake":"○","takashio":"×","jishin":"×","tsunami":"○","kaji":"×","naisui":"×","kazan":"×"}}
,{"type":"Feature","geometry":{"type":"Point","coordinates":[135.2789056,34.7289433]},"properties":{"Name":"本山第一小学校","Jusho":"兵庫県神戸市東灘区本山北町3-10-1","kouzui":"○","gake":"○","takashio":"×","jishin":"×","tsunami":"○","kaji":"×","naisui":"×","kazan":"×"}}
,{"type":"Feature","geometry":{"type":"Point","coordinates":[135.2917292,34.7349206]},"properties":{"Name":"甲南女子中・高校","Jusho":"兵庫県神戸市東灘区森北町5-6-1","kouzui":"○","gake":"○","takashio":"×","jishin":"×","tsunami":"○","kaji":"×","naisui":"×","kazan":"×"}}
,{"type":"Feature","geometry":{"type":"Point","coordinates":[135.287471,34.734802]},"properties":{"Name":"甲南女子大学","Jusho":"兵庫県神戸市東灘区森北町6-2-23","kouzui":"○","gake":"○","takashio":"×","jishin":"×","tsunami":"○","kaji":"×","naisui":"×","kazan":"×"}}
,{"type":"Feature","geometry":{"type":"Point","coordinates":[135.2832689,34.733115]},"properties":{"Name":"神戸薬科大学","Jusho":"兵庫県神戸市東灘区本山北町4-19-1","kouzui":"○","gake":"○","takashio":"×","jishin":"×","tsunami":"○","kaji":"×","naisui":"×","kazan":"×"}}
,{"type":"Feature","geometry":{"type":"Point","coordinates":[135.2695758,34.7253269]},"properties":{"Name":"本山第二小学校","Jusho":"兵庫県神戸市東灘区西岡本1-3-1","kouzui":"○","gake":"○","takashio":"×","jishin":"×","tsunami":"○","kaji":"×","naisui":"×","kazan":"×"}}
,{"type":"Feature","geometry":{"type":"Point","coordinates":[135.2709397,34.7256325]},"properties":{"Name":"本山中学校","Jusho":"兵庫県神戸市東灘区岡本3-3-1","kouzui":"○","gake":"○","takashio":"×","jishin":"×","tsunami":"○","kaji":"×","naisui":"×","kazan":"×"}}
,{"type":"Feature","geometry":{"type":"Point","coordinates":[135.2679925,34.729734]},"properties":{"Name":"甲南大学","Jusho":"兵庫県神戸市東灘区岡本8-9-1","kouzui":"○","gake":"○","takashio":"×","jishin":"×","tsunami":"○","kaji":"×","naisui":"×","kazan":"×"}}
,{"type":"Feature","geometry":{"type":"Point","coordinates":[135.2864103,34.7280906]},"properties":{"Name":"本山第三小学校","Jusho":"兵庫県神戸市東灘区本山中町1-2-35","kouzui":"○","gake":"○","takashio":"×","jishin":"×","tsunami":"○","kaji":"×","naisui":"×","kazan":"×"}}
,{"type":"Feature","geometry":{"type":"Point","coordinates":[135.264485,34.7175747]},"properties":{"Name":"住吉小学校","Jusho":"兵庫県神戸市東灘区住吉東町4-1-31","kouzui":"○","gake":"○","takashio":"×","jishin":"×","tsunami":"○","kaji":"×","naisui":"×","kazan":"×"}}
,{"type":"Feature","geometry":{"type":"Point","coordinates":[135.2636564,34.7139751]},"properties":{"Name":"住之江公民館","Jusho":"兵庫県神戸市東灘区住吉宮町2-2-3","kouzui":"○","gake":"○","takashio":"×","jishin":"×","tsunami":"○","kaji":"×","naisui":"×","kazan":"×"}}
,{"type":"Feature","geometry":{"type":"Point","coordinates":[135.2646774,34.7143023]},"properties":{"Name":"住之江公民館別館","Jusho":"兵庫県神戸市東灘区住吉宮町2-1-3","kouzui":"○","gake":"○","takashio":"×","jishin":"×","tsunami":"○","kaji":"×","naisui":"×","kazan":"×"}}
,{"type":"Feature","geometry":{"type":"Point","coordinates":[135.2624866,34.7107873]},"properties":{"Name":"呉田会館","Jusho":"兵庫県神戸市東灘区住吉南町4-6-23","kouzui":"○","gake":"○","takashio":"×","jishin":"×","tsunami":"○","kaji":"×","naisui":"×","kazan":"×"}}
,{"type":"Feature","geometry":{"type":"Point","coordinates":[135.2515083,34.7148111]},"properties":{"Name":"御影小学校","Jusho":"兵庫県神戸市東灘区御影石町3-1-1","kouzui":"○","gake":"○","takashio":"×","jishin":"×","tsunami":"○","kaji":"×","naisui":"×","kazan":"×"}}
,{"type":"Feature","geometry":{"type":"Point","coordinates":[135.250575,34.7169608]},"properties":{"Name":"御影高校","Jusho":"兵庫県神戸市東灘区御影石町4-1-1","kouzui":"○","gake":"○","takashio":"×","jishin":"×","tsunami":"○","kaji":"×","naisui":"×","kazan":"×"}}
,{"type":"Feature","geometry":{"type":"Point","coordinates":[135.2492512,34.7160708]},"properties":{"Name":"御影公会堂","Jusho":"兵庫県神戸市東灘区御影石町4-4-1","kouzui":"○","gake":"○","takashio":"×","jishin":"×","tsunami":"○","kaji":"×","naisui":"×","kazan":"×"}}
,{"type":"Feature","geometry":{"type":"Point","coordinates":[135.2488056,34.7246294]},"properties":{"Name":"御影北小学校","Jusho":"兵庫県神戸市東灘区御影山手1-12-1","kouzui":"○","gake":"○","takashio":"×","jishin":"×","tsunami":"○","kaji":"×","naisui":"×","kazan":"×"}}
,{"type":"Feature","geometry":{"type":"Point","coordinates":[135.2491389,34.7274431]},"properties":{"Name":"頌栄短期大学","Jusho":"兵庫県神戸市東灘区御影山手1-18-1","kouzui":"○","gake":"○","takashio":"×","jishin":"×","tsunami":"○","kaji":"×","naisui":"×","kazan":"×"}}
,{"type":"Feature","geometry":{"type":"Point","coordinates":[135.2503494,34.7389833]},"properties":{"Name":"渦が森小学校","Jusho":"兵庫県神戸市東灘区渦森台1-12-1","kouzui":"○","gake":"○","takashio":"×","jishin":"×","tsunami":"○","kaji":"×","naisui":"×","kazan":"×"}}
,{"type":"Feature","geometry":{"type":"Point","coordinates":[135.2567989,34.7386169]},"properties":{"Name":"同朋住吉台こども園","Jusho":"兵庫県神戸市東灘区住吉台25-7","kouzui":"○","gake":"○","takashio":"×","jishin":"×","tsunami":"○","kaji":"×","naisui":"×","kazan":"×"}}
,{"type":"Feature","geometry":{"type":"Point","coordinates":[135.2744986,34.6888558]},"properties":{"Name":"六甲アイランド小学校","Jusho":"兵庫県神戸市東灘区向洋町中2-7","kouzui":"×","gake":"×","takashio":"×","jishin":"×","tsunami":"○","kaji":"×","naisui":"×","kazan":"×"}}
,{"type":"Feature","geometry":{"type":"Point","coordinates":[135.2740625,34.6899361]},"properties":{"Name":"向洋中学校","Jusho":"兵庫県神戸市東灘区向洋町中2","kouzui":"×","gake":"×","takashio":"×","jishin":"×","tsunami":"○","kaji":"×","naisui":"×","kazan":"×"}}
,{"type":"Feature","geometry":{"type":"Point","coordinates":[135.2714269,34.6848339]},"properties":{"Name":"六甲アイランド高校","Jusho":"兵庫県神戸市東灘区向洋町中4-4","kouzui":"×","gake":"×","takashio":"×","jishin":"×","tsunami":"○","kaji":"×","naisui":"×","kazan":"×"}}
,{"type":"Feature","geometry":{"type":"Point","coordinates":[135.2787669,34.7212831]},"properties":{"Name":"福池小学校","Jusho":"兵庫県神戸市東灘区本山南町4-4-28","kouzui":"○","gake":"○","takashio":"×","jishin":"×","tsunami":"○","kaji":"×","naisui":"×","kazan":"×"}}
,{"type":"Feature","geometry":{"type":"Point","coordinates":[135.2824636,34.7235717]},"properties":{"Name":"本山南小学校","Jusho":"兵庫県神戸市東灘区本山南町8-2-1","kouzui":"○","gake":"○","takashio":"×","jishin":"×","tsunami":"○","kaji":"×","naisui":"×","kazan":"×"}}
,{"type":"Feature","geometry":{"type":"Point","coordinates":[135.2876408,34.7235202]},"properties":{"Name":"神戸大学白鴎寮","Jusho":"兵庫県神戸市東灘区本山南町1-4-50","kouzui":"○","gake":"○","takashio":"×","jishin":"×","tsunami":"○","kaji":"×","naisui":"×","kazan":"×"}}
,{"type":"Feature","geometry":{"type":"Point","coordinates":[135.2644942,34.6876808]},"properties":{"Name":"向洋小学校","Jusho":"兵庫県神戸市東灘区向洋町中6","kouzui":"×","gake":"×","takashio":"×","jishin":"×","tsunami":"○","kaji":"×","naisui":"×","kazan":"×"}}
,{"type":"Feature","geometry":{"type":"Point","coordinates":[135.2639961,34.7222717]},"properties":{"Name":"甲南小学校","Jusho":"兵庫県神戸市東灘区住吉本町1-12-1","kouzui":"○","gake":"○","takashio":"×","jishin":"×","tsunami":"○","kaji":"×","naisui":"×","kazan":"×"}}
,{"type":"Feature","geometry":{"type":"Point","coordinates":[135.2544994,34.7320231]},"properties":{"Name":"神大附属中等教育学校","Jusho":"兵庫県神戸市東灘区住吉山手5-11-1","kouzui":"○","gake":"○","takashio":"×","jishin":"×","tsunami":"○","kaji":"×","naisui":"×","kazan":"×"}}
,{"type":"Feature","geometry":{"type":"Point","coordinates":[135.2705342,34.7231161]},"properties":{"Name":"本山南中学校","Jusho":"兵庫県神戸市東灘区田中町4-12-1","kouzui":"○","gake":"○","takashio":"×","jishin":"×","tsunami":"○","kaji":"×","naisui":"×","kazan":"×"}}
,{"type":"Feature","geometry":{"type":"Point","coordinates":[135.2587214,34.7258628]},"properties":{"Name":"住吉中学校","Jusho":"兵庫県神戸市東灘区住吉山手1-11-1","kouzui":"○","gake":"○","takashio":"×","jishin":"×","tsunami":"○","kaji":"×","naisui":"×","kazan":"×"}}
,{"type":"Feature","geometry":{"type":"Point","coordinates":[135.2535331,34.7159417]},"properties":{"Name":"御影中学校","Jusho":"兵庫県神戸市東灘区御影中町5-1-1","kouzui":"○","gake":"○","takashio":"×","jishin":"×","tsunami":"○","kaji":"×","naisui":"×","kazan":"×"}}
,{"type":"Feature","geometry":{"type":"Point","coordinates":[135.2790506,34.71312]},"properties":{"Name":"魚崎中学校","Jusho":"兵庫県神戸市東灘区魚崎南町1-2-1","kouzui":"×","gake":"○","takashio":"×","jishin":"×","tsunami":"×","kaji":"×","naisui":"×","kazan":"×"}}
,{"type":"Feature","geometry":{"type":"Point","coordinates":[135.278116,34.714666]},"properties":{"Name":"東灘体育館","Jusho":"兵庫県神戸市東灘区魚崎南町6-5-11","kouzui":"×","gake":"○","takashio":"×","jishin":"×","tsunami":"×","kaji":"×","naisui":"×","kazan":"×"}}
,{"type":"Feature","geometry":{"type":"Point","coordinates":[135.2363925,34.7335836]},"properties":{"Name":"鶴甲小学校","Jusho":"兵庫県神戸市灘区鶴甲2-10-1","kouzui":"○","gake":"○","takashio":"×","jishin":"×","tsunami":"○","kaji":"×","naisui":"×","kazan":"×"}}
,{"type":"Feature","geometry":{"type":"Point","coordinates":[135.233272,34.72464]},"properties":{"Name":"神戸大学農学部","Jusho":"兵庫県神戸市灘区六甲台町1-1","kouzui":"○","gake":"○","takashio":"×","jishin":"×","tsunami":"○","kaji":"×","naisui":"×","kazan":"×"}}
,{"type":"Feature","geometry":{"type":"Point","coordinates":[135.237488,34.726994]},"properties":{"Name":"神戸大学工学部","Jusho":"兵庫県神戸市灘区六甲台町1-1","kouzui":"○","gake":"○","takashio":"×","jishin":"×","tsunami":"○","kaji":"×","naisui":"×","kazan":"×"}}
,{"type":"Feature","geometry":{"type":"Point","coordinates":[135.23453733345,34.733452442557]},"properties":{"Name":"神戸大学大学院人間発達環境学研究科","Jusho":"兵庫県神戸市灘区鶴甲３-11","kouzui":"○","gake":"○","takashio":"×","jishin":"×","tsunami":"○","kaji":"×","naisui":"×","kazan":"×"}}
,{"type":"Feature","geometry":{"type":"Point","coordinates":[135.2295239,34.72736]},"properties":{"Name":"神戸松蔭女子学院大学","Jusho":"兵庫県神戸市灘区篠原伯母野山町1-2-1","kouzui":"○","gake":"○","takashio":"×","jishin":"×","tsunami":"○","kaji":"×","naisui":"×","kazan":"×"}}
,{"type":"Feature","geometry":{"type":"Point","coordinates":[135.2422119,34.7156136]},"properties":{"Name":"成徳小学校","Jusho":"兵庫県神戸市灘区備後町1-3-1","kouzui":"○","gake":"○","takashio":"×","jishin":"×","tsunami":"○","kaji":"×","naisui":"×","kazan":"×"}}
,{"type":"Feature","geometry":{"type":"Point","coordinates":[135.2394699,34.7232671]},"properties":{"Name":"高羽小学校","Jusho":"兵庫県神戸市灘区高羽町3-11-11","kouzui":"○","gake":"○","takashio":"×","jishin":"×","tsunami":"○","kaji":"×","naisui":"×","kazan":"×"}}
,{"type":"Feature","geometry":{"type":"Point","coordinates":[135.242026,34.726756]},"properties":{"Name":"親和女子高等学校・親和中学校","Jusho":"兵庫県神戸市灘区土山町6-1","kouzui":"○","gake":"○","takashio":"×","jishin":"×","tsunami":"○","kaji":"×","naisui":"×","kazan":"×"}}
,{"type":"Feature","geometry":{"type":"Point","coordinates":[135.232752,34.7069712]},"properties":{"Name":"西郷小学校","Jusho":"兵庫県神戸市灘区大石東町6-2-1","kouzui":"○","gake":"○","takashio":"×","jishin":"×","tsunami":"○","kaji":"×","naisui":"×","kazan":"×"}}
,{"type":"Feature","geometry":{"type":"Point","coordinates":[135.2333847,34.7176856]},"properties":{"Name":"六甲小学校","Jusho":"兵庫県神戸市灘区八幡町4-4-1","kouzui":"○","gake":"○","takashio":"×","jishin":"×","tsunami":"○","kaji":"×","naisui":"×","kazan":"×"}}
,{"type":"Feature","geometry":{"type":"Point","coordinates":[135.2184924,34.7131542]},"properties":{"Name":"福住小学校","Jusho":"兵庫県神戸市灘区福住通7-1-1","kouzui":"○","gake":"○","takashio":"×","jishin":"×","tsunami":"○","kaji":"×","naisui":"×","kazan":"×"}}
,{"type":"Feature","geometry":{"type":"Point","coordinates":[135.2139531,34.7183517]},"properties":{"Name":"神戸高校","Jusho":"兵庫県神戸市灘区城の下通1-5-1","kouzui":"○","gake":"○","takashio":"×","jishin":"×","tsunami":"○","kaji":"×","naisui":"×","kazan":"×"}}
,{"type":"Feature","geometry":{"type":"Point","coordinates":[135.2127184,34.7112438]},"properties":{"Name":"王子スポーツセンター","Jusho":"兵庫県神戸市灘区青谷町1-1-1","kouzui":"○","gake":"○","takashio":"×","jishin":"×","tsunami":"○","kaji":"×","naisui":"×","kazan":"×"}}
,{"type":"Feature","geometry":{"type":"Point","coordinates":[135.2277828,34.7078003]},"properties":{"Name":"西灘小学校","Jusho":"兵庫県神戸市灘区船寺通3-4-1","kouzui":"○","gake":"○","takashio":"×","jishin":"×","tsunami":"○","kaji":"×","naisui":"×","kazan":"×"}}
,{"type":"Feature","geometry":{"type":"Point","coordinates":[135.228747,34.707957]},"properties":{"Name":"原田中学校","Jusho":"兵庫県神戸市灘区船寺通2-4-1","kouzui":"○","gake":"○","takashio":"×","jishin":"×","tsunami":"○","kaji":"×","naisui":"×","kazan":"×"}}
,{"type":"Feature","geometry":{"type":"Point","coordinates":[135.2224081,34.7113389]},"properties":{"Name":"稗田小学校","Jusho":"兵庫県神戸市灘区岸地通4-2-1","kouzui":"○","gake":"○","takashio":"×","jishin":"×","tsunami":"○","kaji":"×","naisui":"×","kazan":"×"}}
,{"type":"Feature","geometry":{"type":"Point","coordinates":[135.22118,34.7230792]},"properties":{"Name":"美野丘小学校","Jusho":"兵庫県神戸市灘区箕岡通1-3-17","kouzui":"○","gake":"○","takashio":"×","jishin":"×","tsunami":"○","kaji":"×","naisui":"×","kazan":"×"}}
,{"type":"Feature","geometry":{"type":"Point","coordinates":[135.2228913,34.71930199]},"properties":{"Name":"上野中学校","Jusho":"兵庫県神戸市灘区国玉通1-1-1","kouzui":"○","gake":"○","takashio":"×","jishin":"×","tsunami":"○","kaji":"×","naisui":"×","kazan":"×"}}
,{"type":"Feature","geometry":{"type":"Point","coordinates":[135.2205719,34.7157272]},"properties":{"Name":"摩耶小学校","Jusho":"兵庫県神戸市灘区畑原通4-1-1","kouzui":"○","gake":"○","takashio":"×","jishin":"×","tsunami":"○","kaji":"×","naisui":"×","kazan":"×"}}
,{"type":"Feature","geometry":{"type":"Point","coordinates":[135.2325461,34.7132556]},"properties":{"Name":"灘小学校","Jusho":"兵庫県神戸市灘区千旦通1-5-1","kouzui":"○","gake":"○","takashio":"×","jishin":"×","tsunami":"○","kaji":"×","naisui":"×","kazan":"×"}}
,{"type":"Feature","geometry":{"type":"Point","coordinates":[135.2322536,34.7573864]},"properties":{"Name":"六甲山小学校","Jusho":"兵庫県神戸市灘区六甲山町北六甲4512-42","kouzui":"×","gake":"○","takashio":"×","jishin":"×","tsunami":"×","kaji":"×","naisui":"×","kazan":"×"}}
,{"type":"Feature","geometry":{"type":"Point","coordinates":[135.2438533,34.7201547]},"properties":{"Name":"鷹匠中学校","Jusho":"兵庫県神戸市灘区高徳町2-2-19","kouzui":"○","gake":"○","takashio":"×","jishin":"×","tsunami":"○","kaji":"×","naisui":"×","kazan":"×"}}
,{"type":"Feature","geometry":{"type":"Point","coordinates":[135.2376273,34.710672]},"properties":{"Name":"烏帽子中学校","Jusho":"兵庫県神戸市灘区烏帽子町1-2-1","kouzui":"○","gake":"○","takashio":"×","jishin":"×","tsunami":"○","kaji":"×","naisui":"×","kazan":"×"}}
,{"type":"Feature","geometry":{"type":"Point","coordinates":[135.222605,34.7248011]},"properties":{"Name":"長峰中学校","Jusho":"兵庫県神戸市灘区長峰台2-2-1","kouzui":"○","gake":"○","takashio":"×","jishin":"×","tsunami":"○","kaji":"×","naisui":"×","kazan":"×"}}
,{"type":"Feature","geometry":{"type":"Point","coordinates":[135.223696,34.702005]},"properties":{"Name":"灘の浜小学校","Jusho":"兵庫県神戸市灘区摩耶海岸通2-2-1","kouzui":"○","gake":"○","takashio":"×","jishin":"×","tsunami":"○","kaji":"×","naisui":"×","kazan":"×"}}
,{"type":"Feature","geometry":{"type":"Point","coordinates":[135.21141730185,34.709922455263]},"properties":{"Name":"上筒井小学校","Jusho":"兵庫県神戸市中央区野崎通1-1-2","kouzui":"○","gake":"○","takashio":"×","jishin":"×","tsunami":"○","kaji":"×","naisui":"×","kazan":"×"}}
,{"type":"Feature","geometry":{"type":"Point","coordinates":[135.2100675,34.7093111]},"properties":{"Name":"筒井台中学校","Jusho":"兵庫県神戸市中央区野崎通1-1-3","kouzui":"○","gake":"○","takashio":"×","jishin":"×","tsunami":"○","kaji":"×","naisui":"×","kazan":"×"}}
,{"type":"Feature","geometry":{"type":"Point","coordinates":[135.2102842,34.7110108]},"properties":{"Name":"葺合高校","Jusho":"兵庫県神戸市中央区野崎通1-1-1","kouzui":"○","gake":"○","takashio":"×","jishin":"×","tsunami":"○","kaji":"×","naisui":"×","kazan":"×"}}
,{"type":"Feature","geometry":{"type":"Point","coordinates":[135.2117731,34.7067197]},"properties":{"Name":"宮本小学校","Jusho":"兵庫県神戸市中央区宮本通2-1-36","kouzui":"○","gake":"○","takashio":"×","jishin":"×","tsunami":"○","kaji":"×","naisui":"×","kazan":"×"}}
,{"type":"Feature","geometry":{"type":"Point","coordinates":[135.2135256,34.7043033]},"properties":{"Name":"科学技術高校","Jusho":"兵庫県神戸市中央区脇浜町1-4-70","kouzui":"○","gake":"○","takashio":"×","jishin":"×","tsunami":"○","kaji":"×","naisui":"×","kazan":"×"}}
,{"type":"Feature","geometry":{"type":"Point","coordinates":[135.2032542,34.7068444]},"properties":{"Name":"葺合中学校","Jusho":"兵庫県神戸市中央区熊内町1-4-28","kouzui":"○","gake":"×","takashio":"×","jishin":"×","tsunami":"○","kaji":"×","naisui":"×","kazan":"×"}}
,{"type":"Feature","geometry":{"type":"Point","coordinates":[135.20614299,34.70566147]},"properties":{"Name":"春日野小学校","Jusho":"兵庫県神戸市中央区宮本通7-1-6","kouzui":"○","gake":"○","takashio":"×","jishin":"×","tsunami":"○","kaji":"×","naisui":"×","kazan":"×"}}
,{"type":"Feature","geometry":{"type":"Point","coordinates":[135.2110122,34.6977428]},"properties":{"Name":"なぎさ小学校","Jusho":"兵庫県神戸市中央区脇浜海岸通2-4-1","kouzui":"○","gake":"○","takashio":"×","jishin":"×","tsunami":"○","kaji":"×","naisui":"×","kazan":"×"}}
,{"type":"Feature","geometry":{"type":"Point","coordinates":[135.2175697,34.7004675]},"properties":{"Name":"渚中学校","Jusho":"兵庫県神戸市中央区脇浜海岸通2-1-1","kouzui":"○","gake":"○","takashio":"×","jishin":"×","tsunami":"○","kaji":"×","naisui":"×","kazan":"×"}}
,{"type":"Feature","geometry":{"type":"Point","coordinates":[135.2001544,34.7059667]},"properties":{"Name":"雲中小学校","Jusho":"兵庫県神戸市中央区熊内町3-1-7","kouzui":"○","gake":"○","takashio":"×","jishin":"×","tsunami":"○","kaji":"×","naisui":"×","kazan":"×"}}
,{"type":"Feature","geometry":{"type":"Point","coordinates":[135.1991572,34.7094081]},"properties":{"Name":"布引中学校","Jusho":"兵庫県神戸市中央区熊内町6-7-1","kouzui":"○","gake":"×","takashio":"×","jishin":"×","tsunami":"○","kaji":"×","naisui":"×","kazan":"×"}}
,{"type":"Feature","geometry":{"type":"Point","coordinates":[135.1996908,34.7017422]},"properties":{"Name":"中央小学校","Jusho":"兵庫県神戸市中央区神若通7-1-1","kouzui":"○","gake":"○","takashio":"×","jishin":"×","tsunami":"○","kaji":"×","naisui":"×","kazan":"×"}}
,{"type":"Feature","geometry":{"type":"Point","coordinates":[135.2046319,34.6982261]},"properties":{"Name":"コミスタこうべ（生涯学習支援センター）","Jusho":"兵庫県神戸市中央区吾妻通4-1-6","kouzui":"○","gake":"○","takashio":"×","jishin":"×","tsunami":"○","kaji":"×","naisui":"×","kazan":"×"}}
,{"type":"Feature","geometry":{"type":"Point","coordinates":[135.204535,34.694983]},"properties":{"Name":"葺合公民館","Jusho":"兵庫県神戸市中央区真砂通2-1-1","kouzui":"○","gake":"○","takashio":"×","jishin":"×","tsunami":"○","kaji":"×","naisui":"×","kazan":"×"}}
,{"type":"Feature","geometry":{"type":"Point","coordinates":[135.19738,34.6949431]},"properties":{"Name":"勤労会館","Jusho":"兵庫県神戸市中央区雲井通5-1-2","kouzui":"○","gake":"○","takashio":"×","jishin":"×","tsunami":"○","kaji":"×","naisui":"×","kazan":"×"}}
,{"type":"Feature","geometry":{"type":"Point","coordinates":[135.2017676,34.6928637]},"properties":{"Name":"こうべ市民福祉交流センター","Jusho":"兵庫県神戸市中央区磯上通3-1-32","kouzui":"○","gake":"×","takashio":"×","jishin":"×","tsunami":"○","kaji":"×","naisui":"×","kazan":"×"}}
,{"type":"Feature","geometry":{"type":"Point","coordinates":[135.18247,34.6935569]},"properties":{"Name":"こうべ小学校","Jusho":"兵庫県神戸市中央区中山手通4-23-2","kouzui":"○","gake":"○","takashio":"×","jishin":"×","tsunami":"○","kaji":"×","naisui":"×","kazan":"×"}}
,{"type":"Feature","geometry":{"type":"Point","coordinates":[135.18815412954,34.700165352889]},"properties":{"Name":"浄福寺","Jusho":"兵庫県神戸市中央区北野町4-11-19","kouzui":"○","gake":"○","takashio":"×","jishin":"×","tsunami":"○","kaji":"×","naisui":"×","kazan":"×"}}
,{"type":"Feature","geometry":{"type":"Point","coordinates":[135.1846367,34.6974231]},"properties":{"Name":"海外移住と文化の交流センター","Jusho":"兵庫県神戸市中央区山本通3-19-8","kouzui":"○","gake":"×","takashio":"×","jishin":"×","tsunami":"○","kaji":"×","naisui":"×","kazan":"×"}}
,{"type":"Feature","geometry":{"type":"Point","coordinates":[135.1856644,34.6899906]},"properties":{"Name":"神戸生田中学校","Jusho":"兵庫県神戸市中央区北長狭通4-10-1","kouzui":"○","gake":"○","takashio":"×","jishin":"×","tsunami":"○","kaji":"×","naisui":"×","kazan":"×"}}
,{"type":"Feature","geometry":{"type":"Point","coordinates":[135.1757292,34.6906489]},"properties":{"Name":"山の手小学校","Jusho":"兵庫県神戸市中央区中山手通7-31-1","kouzui":"○","gake":"○","takashio":"×","jishin":"×","tsunami":"○","kaji":"×","naisui":"×","kazan":"×"}}
,{"type":"Feature","geometry":{"type":"Point","coordinates":[135.1741492,34.6856249]},"properties":{"Name":"中央図書館","Jusho":"兵庫県神戸市中央区楠町7-2-1","kouzui":"○","gake":"○","takashio":"×","jishin":"×","tsunami":"○","kaji":"×","naisui":"×","kazan":"×"}}
,{"type":"Feature","geometry":{"type":"Point","coordinates":[135.1716466,34.6839972]},"properties":{"Name":"湊翔楠中学校","Jusho":"兵庫県神戸市中央区楠町4-2-5","kouzui":"○","gake":"○","takashio":"×","jishin":"×","tsunami":"○","kaji":"×","naisui":"×","kazan":"×"}}
,{"type":"Feature","geometry":{"type":"Point","coordinates":[135.1744294,34.6827886]},"properties":{"Name":"中央体育館","Jusho":"兵庫県神戸市中央区楠町4-1-1","kouzui":"○","gake":"○","takashio":"×","jishin":"×","tsunami":"○","kaji":"×","naisui":"×","kazan":"×"}}
,{"type":"Feature","geometry":{"type":"Point","coordinates":[135.1808511,34.6768975]},"properties":{"Name":"湊小学校","Jusho":"兵庫県神戸市中央区東川崎町1-4-1","kouzui":"○","gake":"○","takashio":"×","jishin":"×","tsunami":"×","kaji":"×","naisui":"×","kazan":"×"}}
,{"type":"Feature","geometry":{"type":"Point","coordinates":[135.1817956,34.6806028]},"properties":{"Name":"産業振興センター","Jusho":"兵庫県神戸市中央区東川崎1-8-4","kouzui":"○","gake":"○","takashio":"×","jishin":"×","tsunami":"○","kaji":"×","naisui":"×","kazan":"×"}}
,{"type":"Feature","geometry":{"type":"Point","coordinates":[135.1829065,34.6860973]},"properties":{"Name":"こうべまちづくり会館","Jusho":"兵庫県神戸市中央区元町通4-2-14","kouzui":"○","gake":"○","takashio":"×","jishin":"×","tsunami":"×","kaji":"×","naisui":"×","kazan":"×"}}
,{"type":"Feature","geometry":{"type":"Point","coordinates":[135.2140986,34.6696569]},"properties":{"Name":"義務教育学校港島学園","Jusho":"兵庫県神戸市中央区港島中町3-2-2","kouzui":"×","gake":"×","takashio":"×","jishin":"×","tsunami":"○","kaji":"×","naisui":"×","kazan":"×"}}
,{"type":"Feature","geometry":{"type":"Point","coordinates":[135.2126072,34.66373]},"properties":{"Name":"神戸国際展示場","Jusho":"兵庫県神戸市中央区港島中町6-11-1","kouzui":"×","gake":"×","takashio":"×","jishin":"×","tsunami":"○","kaji":"×","naisui":"×","kazan":"×"}}
,{"type":"Feature","geometry":{"type":"Point","coordinates":[135.2101714,34.6639883]},"properties":{"Name":"ワールド記念ホール","Jusho":"兵庫県神戸市中央区港島中町6-12-2","kouzui":"×","gake":"×","takashio":"×","jishin":"×","tsunami":"○","kaji":"×","naisui":"×","kazan":"×"}}
,{"type":"Feature","geometry":{"type":"Point","coordinates":[135.210735,34.6631078]},"properties":{"Name":"ポートアイランドスポーツセンター","Jusho":"兵庫県神戸市中央区港島中町6-12-1","kouzui":"×","gake":"×","takashio":"×","jishin":"×","tsunami":"○","kaji":"×","naisui":"×","kazan":"×"}}
,{"type":"Feature","geometry":{"type":"Point","coordinates":[135.2182844,34.6659964]},"properties":{"Name":"バンドー神戸青少年科学館","Jusho":"兵庫県神戸市中央区港島中町7-7-6","kouzui":"×","gake":"×","takashio":"×","jishin":"×","tsunami":"○","kaji":"×","naisui":"×","kazan":"×"}}
,{"type":"Feature","geometry":{"type":"Point","coordinates":[135.2039939,34.6694625]},"properties":{"Name":"神戸学院大学","Jusho":"兵庫県神戸市中央区港島1-1-3","kouzui":"×","gake":"×","takashio":"×","jishin":"×","tsunami":"○","kaji":"×","naisui":"×","kazan":"×"}}
,{"type":"Feature","geometry":{"type":"Point","coordinates":[135.166986,34.687911]},"properties":{"Name":"神戸祇園小学校","Jusho":"兵庫県神戸市兵庫区下三条町11-1","kouzui":"○","gake":"○","takashio":"×","jishin":"×","tsunami":"○","kaji":"×","naisui":"×","kazan":"×"}}
,{"type":"Feature","geometry":{"type":"Point","coordinates":[135.1482163,34.6984246]},"properties":{"Name":"建設局中央水環境センター鈴蘭台処理場","Jusho":"兵庫県神戸市兵庫区烏原町字譲原","kouzui":"○","gake":"×","takashio":"×","jishin":"×","tsunami":"○","kaji":"×","naisui":"×","kazan":"×"}}
,{"type":"Feature","geometry":{"type":"Point","coordinates":[135.1603502,34.6862663]},"properties":{"Name":"友生支援学校","Jusho":"兵庫県神戸市兵庫区夢野町1-1","kouzui":"○","gake":"○","takashio":"×","jishin":"×","tsunami":"○","kaji":"×","naisui":"×","kazan":"×"}}
,{"type":"Feature","geometry":{"type":"Point","coordinates":[135.153004,34.682073]},"properties":{"Name":"夢野中学校","Jusho":"兵庫県神戸市兵庫区鵯越町10-1","kouzui":"○","gake":"○","takashio":"×","jishin":"×","tsunami":"○","kaji":"×","naisui":"×","kazan":"×"}}
,{"type":"Feature","geometry":{"type":"Point","coordinates":[135.1562126,34.6835817]},"properties":{"Name":"夢野こどもホーム（一階地域交流スペース）","Jusho":"兵庫県神戸市兵庫区夢野町4-3-13","kouzui":"○","gake":"○","takashio":"×","jishin":"×","tsunami":"○","kaji":"×","naisui":"×","kazan":"×"}}
,{"type":"Feature","geometry":{"type":"Point","coordinates":[135.1605583,34.6816692]},"properties":{"Name":"夢野の丘小学校","Jusho":"兵庫県神戸市兵庫区東山町4-20","kouzui":"○","gake":"○","takashio":"×","jishin":"×","tsunami":"○","kaji":"×","naisui":"×","kazan":"×"}}
,{"type":"Feature","geometry":{"type":"Point","coordinates":[135.1652133,34.6792201]},"properties":{"Name":"会下山小学校","Jusho":"兵庫県神戸市兵庫区上沢通1-3-26","kouzui":"○","gake":"○","takashio":"×","jishin":"×","tsunami":"○","kaji":"×","naisui":"×","kazan":"×"}}
,{"type":"Feature","geometry":{"type":"Point","coordinates":[135.1641303,34.6799525]},"properties":{"Name":"湊川中学校・楠高校","Jusho":"兵庫県神戸市兵庫区松本通1-1-1","kouzui":"○","gake":"○","takashio":"×","jishin":"×","tsunami":"○","kaji":"×","naisui":"×","kazan":"×"}}
,{"type":"Feature","geometry":{"type":"Point","coordinates":[135.156764,34.675209]},"properties":{"Name":"神港橘高等学校","Jusho":"兵庫県神戸市兵庫区会下山町3-16-1","kouzui":"○","gake":"○","takashio":"×","jishin":"×","tsunami":"○","kaji":"×","naisui":"×","kazan":"×"}}
,{"type":"Feature","geometry":{"type":"Point","coordinates":[135.1663192,34.67367]},"properties":{"Name":"兵庫大開小学校","Jusho":"兵庫県神戸市兵庫区大開通4-1-39","kouzui":"○","gake":"○","takashio":"×","jishin":"×","tsunami":"○","kaji":"×","naisui":"×","kazan":"×"}}
,{"type":"Feature","geometry":{"type":"Point","coordinates":[135.1594761,34.6703563]},"properties":{"Name":"水木小学絞","Jusho":"兵庫県神戸市兵庫区水木通9-1-8","kouzui":"○","gake":"○","takashio":"×","jishin":"×","tsunami":"○","kaji":"×","naisui":"×","kazan":"×"}}
,{"type":"Feature","geometry":{"type":"Point","coordinates":[135.169955,34.6736533]},"properties":{"Name":"兵庫中学校","Jusho":"兵庫県神戸市兵庫区永沢町4-3-36","kouzui":"○","gake":"○","takashio":"×","jishin":"×","tsunami":"○","kaji":"×","naisui":"×","kazan":"×"}}
,{"type":"Feature","geometry":{"type":"Point","coordinates":[135.1661081,34.6651625]},"properties":{"Name":"明親小学校","Jusho":"兵庫県神戸市兵庫区須佐野通4-1-19","kouzui":"○","gake":"○","takashio":"×","jishin":"×","tsunami":"○","kaji":"×","naisui":"×","kazan":"×"}}
,{"type":"Feature","geometry":{"type":"Point","coordinates":[135.1697442,34.66446]},"properties":{"Name":"須佐野中学絞","Jusho":"兵庫県神戸市兵庫区松原通1-1-44","kouzui":"○","gake":"○","takashio":"×","jishin":"×","tsunami":"○","kaji":"×","naisui":"×","kazan":"×"}}
,{"type":"Feature","geometry":{"type":"Point","coordinates":[135.1754714,34.65515]},"properties":{"Name":"和田岬小学校","Jusho":"兵庫県神戸市兵庫区和田宮通6-1-18","kouzui":"○","gake":"○","takashio":"×","jishin":"×","tsunami":"×","kaji":"×","naisui":"×","kazan":"×"}}
,{"type":"Feature","geometry":{"type":"Point","coordinates":[135.1737856,34.659555]},"properties":{"Name":"兵庫工業高校","Jusho":"兵庫県神戸市兵庫区和田宮通2-1-63","kouzui":"○","gake":"○","takashio":"×","jishin":"×","tsunami":"○","kaji":"×","naisui":"×","kazan":"×"}}
,{"type":"Feature","geometry":{"type":"Point","coordinates":[135.1662009,34.6577497]},"properties":{"Name":"浜山小学校","Jusho":"兵庫県神戸市兵庫区材木町4-2","kouzui":"○","gake":"○","takashio":"×","jishin":"×","tsunami":"○","kaji":"×","naisui":"×","kazan":"×"}}
,{"type":"Feature","geometry":{"type":"Point","coordinates":[135.1711849,34.6521824]},"properties":{"Name":"吉田中学校","Jusho":"兵庫県神戸市兵庫区吉田町1-5-1","kouzui":"○","gake":"○","takashio":"×","jishin":"×","tsunami":"×","kaji":"×","naisui":"×","kazan":"×"}}
,{"type":"Feature","geometry":{"type":"Point","coordinates":[135.1409349,34.6926209]},"properties":{"Name":"高齢者ケアセンターひょうご","Jusho":"兵庫県神戸市兵庫区里山町1-48","kouzui":"○","gake":"○","takashio":"×","jishin":"×","tsunami":"○","kaji":"×","naisui":"×","kazan":"×"}}
,{"type":"Feature","geometry":{"type":"Point","coordinates":[135.16498,34.689826]},"properties":{"Name":"ネイチャー　スタジオ","Jusho":"兵庫県神戸市兵庫区雪御所町2-18-201","kouzui":"○","gake":"○","takashio":"×","jishin":"×","tsunami":"○","kaji":"×","naisui":"×","kazan":"×"}}
,{"type":"Feature","geometry":{"type":"Point","coordinates":[135.119395,34.6940922]},"properties":{"Name":"鵯台中学校","Jusho":"兵庫県神戸市北区ひよどり台1-15-31","kouzui":"○","gake":"○","takashio":"×","jishin":"×","tsunami":"×","kaji":"×","naisui":"×","kazan":"×"}}
,{"type":"Feature","geometry":{"type":"Point","coordinates":[135.1248861,34.6978361]},"properties":{"Name":"ひよどり台小学校","Jusho":"兵庫県神戸市北区ひよどり台3-3","kouzui":"○","gake":"○","takashio":"×","jishin":"×","tsunami":"×","kaji":"×","naisui":"×","kazan":"×"}}
,{"type":"Feature","geometry":{"type":"Point","coordinates":[135.1285742,34.7191089]},"properties":{"Name":"星和台中学校","Jusho":"兵庫県神戸市北区星和台1-6","kouzui":"○","gake":"○","takashio":"×","jishin":"×","tsunami":"×","kaji":"×","naisui":"×","kazan":"×"}}
,{"type":"Feature","geometry":{"type":"Point","coordinates":[135.123755,34.7238111]},"properties":{"Name":"星和台小学校","Jusho":"兵庫県神戸市北区星和台6-21","kouzui":"○","gake":"○","takashio":"×","jishin":"×","tsunami":"×","kaji":"×","naisui":"×","kazan":"×"}}
,{"type":"Feature","geometry":{"type":"Point","coordinates":[135.1325319,34.7293744]},"properties":{"Name":"鈴蘭台中学校","Jusho":"兵庫県神戸市北区北五葉2-10-32","kouzui":"○","gake":"○","takashio":"×","jishin":"×","tsunami":"×","kaji":"×","naisui":"×","kazan":"×"}}
,{"type":"Feature","geometry":{"type":"Point","coordinates":[135.1364567,34.7305658]},"properties":{"Name":"北五葉小学校","Jusho":"兵庫県神戸市北区北五葉3-7-1","kouzui":"○","gake":"○","takashio":"×","jishin":"×","tsunami":"×","kaji":"×","naisui":"×","kazan":"×"}}
,{"type":"Feature","geometry":{"type":"Point","coordinates":[135.11305155981,34.734514439473]},"properties":{"Name":"藍那小河地域福祉センター","Jusho":"兵庫県神戸市北区山田町藍那字下の町77-8","kouzui":"○","gake":"○","takashio":"×","jishin":"×","tsunami":"×","kaji":"×","naisui":"×","kazan":"×"}}
,{"type":"Feature","geometry":{"type":"Point","coordinates":[135.1362431,34.7143622]},"properties":{"Name":"君影小学校","Jusho":"兵庫県神戸市北区君影町1-11-13","kouzui":"○","gake":"○","takashio":"×","jishin":"×","tsunami":"×","kaji":"×","naisui":"×","kazan":"×"}}
,{"type":"Feature","geometry":{"type":"Point","coordinates":[135.1335958,34.7220808]},"properties":{"Name":"南五葉小学校","Jusho":"兵庫県神戸市北区南五葉3-1-1","kouzui":"○","gake":"○","takashio":"×","jishin":"×","tsunami":"×","kaji":"×","naisui":"×","kazan":"×"}}
,{"type":"Feature","geometry":{"type":"Point","coordinates":[135.1409536,34.7253611]},"properties":{"Name":"鈴蘭台小学校","Jusho":"兵庫県神戸市北区鈴蘭台南町2-14-24","kouzui":"○","gake":"○","takashio":"×","jishin":"×","tsunami":"×","kaji":"×","naisui":"×","kazan":"×"}}
,{"type":"Feature","geometry":{"type":"Point","coordinates":[135.1481373,34.7296452]},"properties":{"Name":"小部小学校","Jusho":"兵庫県神戸市北区鈴蘭台北町3-8-1","kouzui":"○","gake":"○","takashio":"×","jishin":"×","tsunami":"×","kaji":"×","naisui":"×","kazan":"×"}}
,{"type":"Feature","geometry":{"type":"Point","coordinates":[135.1552522,34.7304383]},"properties":{"Name":"小部中学校","Jusho":"兵庫県神戸市北区山田町小部字向井谷23-1","kouzui":"○","gake":"○","takashio":"×","jishin":"×","tsunami":"×","kaji":"×","naisui":"×","kazan":"×"}}
,{"type":"Feature","geometry":{"type":"Point","coordinates":[135.1570161,34.7277472]},"properties":{"Name":"小部東小学校","Jusho":"兵庫県神戸市北区鈴蘭台北町7-11-22","kouzui":"○","gake":"○","takashio":"×","jishin":"×","tsunami":"×","kaji":"×","naisui":"×","kazan":"×"}}
,{"type":"Feature","geometry":{"type":"Point","coordinates":[135.1374203,34.7384094]},"properties":{"Name":"泉台小学校","Jusho":"兵庫県神戸市北区泉台3-1-4","kouzui":"○","gake":"○","takashio":"×","jishin":"×","tsunami":"×","kaji":"×","naisui":"×","kazan":"×"}}
,{"type":"Feature","geometry":{"type":"Point","coordinates":[135.1544244,34.7405872]},"properties":{"Name":"桜の宮小学校","Jusho":"兵庫県神戸市北区若葉台1-3-15","kouzui":"○","gake":"○","takashio":"×","jishin":"×","tsunami":"×","kaji":"×","naisui":"×","kazan":"×"}}
,{"type":"Feature","geometry":{"type":"Point","coordinates":[135.1598575,34.7381208]},"properties":{"Name":"桜の宮中学校","Jusho":"兵庫県神戸市北区大脇台6-1","kouzui":"○","gake":"○","takashio":"×","jishin":"×","tsunami":"×","kaji":"×","naisui":"×","kazan":"×"}}
,{"type":"Feature","geometry":{"type":"Point","coordinates":[135.1439031,34.7459253]},"properties":{"Name":"大原中学校","Jusho":"兵庫県神戸市北区大原1-19","kouzui":"○","gake":"○","takashio":"×","jishin":"×","tsunami":"×","kaji":"×","naisui":"×","kazan":"×"}}
,{"type":"Feature","geometry":{"type":"Point","coordinates":[135.14575,34.7478194]},"properties":{"Name":"桂木小学校","Jusho":"兵庫県神戸市北区桂木1-2-5","kouzui":"○","gake":"○","takashio":"×","jishin":"×","tsunami":"×","kaji":"×","naisui":"×","kazan":"×"}}
,{"type":"Feature","geometry":{"type":"Point","coordinates":[135.1501775,34.74457]},"properties":{"Name":"甲緑小学校","Jusho":"兵庫県神戸市北区緑町7-12-10","kouzui":"○","gake":"○","takashio":"×","jishin":"×","tsunami":"×","kaji":"×","naisui":"×","kazan":"×"}}
,{"type":"Feature","geometry":{"type":"Point","coordinates":[135.1494689,34.7582989]},"properties":{"Name":"箕谷小学校","Jusho":"兵庫県神戸市北区松が枝町1-11","kouzui":"○","gake":"○","takashio":"×","jishin":"×","tsunami":"×","kaji":"×","naisui":"×","kazan":"×"}}
,{"type":"Feature","geometry":{"type":"Point","coordinates":[135.1652094,34.7484919]},"properties":{"Name":"広陵小学校","Jusho":"兵庫県神戸市北区筑紫が丘2-9-1","kouzui":"○","gake":"○","takashio":"×","jishin":"×","tsunami":"×","kaji":"×","naisui":"×","kazan":"×"}}
,{"type":"Feature","geometry":{"type":"Point","coordinates":[135.1698603,34.749419]},"properties":{"Name":"広陵中学校","Jusho":"兵庫県神戸市北区小倉台5-1-1","kouzui":"○","gake":"○","takashio":"×","jishin":"×","tsunami":"×","kaji":"×","naisui":"×","kazan":"×"}}
,{"type":"Feature","geometry":{"type":"Point","coordinates":[135.1626847,34.7442508]},"properties":{"Name":"筑紫が丘小学校","Jusho":"兵庫県神戸市北区筑紫が丘3-4-1","kouzui":"○","gake":"○","takashio":"×","jishin":"×","tsunami":"×","kaji":"×","naisui":"×","kazan":"×"}}
,{"type":"Feature","geometry":{"type":"Point","coordinates":[135.15656,34.7631097]},"properties":{"Name":"山田中学校","Jusho":"兵庫県神戸市北区山田町下谷上字宮ノ前15","kouzui":"○","gake":"○","takashio":"×","jishin":"×","tsunami":"×","kaji":"×","naisui":"×","kazan":"×"}}
,{"type":"Feature","geometry":{"type":"Point","coordinates":[135.1695683,34.763356]},"properties":{"Name":"谷上小学校","Jusho":"兵庫県神戸市北区山田町下谷上字中上16","kouzui":"○","gake":"×","takashio":"×","jishin":"×","tsunami":"×","kaji":"×","naisui":"×","kazan":"×"}}
,{"type":"Feature","geometry":{"type":"Point","coordinates":[135.1315793,34.7655384]},"properties":{"Name":"山田小学校","Jusho":"兵庫県神戸市北区山田町中字長尾サ1","kouzui":"○","gake":"○","takashio":"×","jishin":"×","tsunami":"×","kaji":"×","naisui":"×","kazan":"×"}}
,{"type":"Feature","geometry":{"type":"Point","coordinates":[135.1851184,34.765207]},"properties":{"Name":"花山小学校","Jusho":"兵庫県神戸市北区花山東町3-1","kouzui":"○","gake":"○","takashio":"×","jishin":"×","tsunami":"×","kaji":"×","naisui":"×","kazan":"×"}}
,{"type":"Feature","geometry":{"type":"Point","coordinates":[135.1959735,34.7722335]},"properties":{"Name":"大池中学校","Jusho":"兵庫県神戸市北区西大池2-24-3","kouzui":"○","gake":"○","takashio":"×","jishin":"×","tsunami":"×","kaji":"×","naisui":"×","kazan":"×"}}
,{"type":"Feature","geometry":{"type":"Point","coordinates":[135.1985989,34.7721855]},"properties":{"Name":"大池小学校","Jusho":"兵庫県神戸市北区西大池2-24-1","kouzui":"○","gake":"○","takashio":"×","jishin":"×","tsunami":"×","kaji":"×","naisui":"×","kazan":"×"}}
,{"type":"Feature","geometry":{"type":"Point","coordinates":[135.2000142,34.7794996]},"properties":{"Name":"六甲が丘会館","Jusho":"兵庫県神戸市北区東大池1-5-8","kouzui":"○","gake":"○","takashio":"×","jishin":"×","tsunami":"×","kaji":"×","naisui":"×","kazan":"×"}}
,{"type":"Feature","geometry":{"type":"Point","coordinates":[135.2116828,34.7849856]},"properties":{"Name":"唐櫃中学校","Jusho":"兵庫県神戸市北区唐櫃台4-36-1","kouzui":"○","gake":"○","takashio":"×","jishin":"×","tsunami":"×","kaji":"×","naisui":"×","kazan":"×"}}
,{"type":"Feature","geometry":{"type":"Point","coordinates":[135.2140461,34.789835]},"properties":{"Name":"唐櫃小学校","Jusho":"兵庫県神戸市北区唐櫃台2-39-1","kouzui":"○","gake":"○","takashio":"×","jishin":"×","tsunami":"×","kaji":"×","naisui":"×","kazan":"×"}}
,{"type":"Feature","geometry":{"type":"Point","coordinates":[135.2166767,34.7884603]},"properties":{"Name":"神戸北高等学校","Jusho":"兵庫県神戸市北区唐櫃台2-41-1","kouzui":"○","gake":"○","takashio":"×","jishin":"×","tsunami":"×","kaji":"×","naisui":"×","kazan":"×"}}
,{"type":"Feature","geometry":{"type":"Point","coordinates":[135.2484678,34.8009372]},"properties":{"Name":"有馬小学校","Jusho":"兵庫県神戸市北区有馬町1274","kouzui":"○","gake":"○","takashio":"×","jishin":"×","tsunami":"×","kaji":"×","naisui":"×","kazan":"×"}}
,{"type":"Feature","geometry":{"type":"Point","coordinates":[135.2153928,34.8051587]},"properties":{"Name":"五社ふれあい館","Jusho":"兵庫県神戸市北区有野町有野878-1","kouzui":"○","gake":"○","takashio":"×","jishin":"×","tsunami":"×","kaji":"×","naisui":"×","kazan":"×"}}
,{"type":"Feature","geometry":{"type":"Point","coordinates":[135.2264669,34.8096414]},"properties":{"Name":"有馬中学校","Jusho":"兵庫県神戸市北区有野台7-18","kouzui":"○","gake":"○","takashio":"×","jishin":"×","tsunami":"×","kaji":"×","naisui":"×","kazan":"×"}}
,{"type":"Feature","geometry":{"type":"Point","coordinates":[135.229927,34.814105]},"properties":{"Name":"ありの台小学校","Jusho":"兵庫県神戸市北区有野台5-2","kouzui":"○","gake":"○","takashio":"×","jishin":"×","tsunami":"×","kaji":"×","naisui":"×","kazan":"×"}}
,{"type":"Feature","geometry":{"type":"Point","coordinates":[135.2081294,34.8128017]},"properties":{"Name":"藤原台小学校","Jusho":"兵庫県神戸市北区藤原台南町1-13-1","kouzui":"○","gake":"○","takashio":"×","jishin":"×","tsunami":"×","kaji":"×","naisui":"×","kazan":"×"}}
,{"type":"Feature","geometry":{"type":"Point","coordinates":[135.2178647,34.8206678]},"properties":{"Name":"有野小学校","Jusho":"兵庫県神戸市北区藤原台中町3-17-1","kouzui":"○","gake":"○","takashio":"×","jishin":"×","tsunami":"×","kaji":"×","naisui":"×","kazan":"×"}}
,{"type":"Feature","geometry":{"type":"Point","coordinates":[135.214115,34.8220619]},"properties":{"Name":"有野中学校","Jusho":"兵庫県神戸市北区藤原台中町5-2-1","kouzui":"○","gake":"○","takashio":"×","jishin":"×","tsunami":"×","kaji":"×","naisui":"×","kazan":"×"}}
,{"type":"Feature","geometry":{"type":"Point","coordinates":[135.2231308,34.8297614]},"properties":{"Name":"有野北中学校","Jusho":"兵庫県神戸市北区藤原台北町6-4-1","kouzui":"○","gake":"○","takashio":"×","jishin":"×","tsunami":"×","kaji":"×","naisui":"×","kazan":"×"}}
,{"type":"Feature","geometry":{"type":"Point","coordinates":[135.2261756,34.8266315]},"properties":{"Name":"ＪＡ兵庫六甲（神戸北文化センター）","Jusho":"兵庫県神戸市北区有野中町2-12-13","kouzui":"○","gake":"○","takashio":"×","jishin":"×","tsunami":"×","kaji":"×","naisui":"×","kazan":"×"}}
,{"type":"Feature","geometry":{"type":"Point","coordinates":[135.2182786,34.8388828]},"properties":{"Name":"西山小学校","Jusho":"兵庫県神戸市北区西山1-67","kouzui":"○","gake":"○","takashio":"×","jishin":"×","tsunami":"×","kaji":"×","naisui":"×","kazan":"×"}}
,{"type":"Feature","geometry":{"type":"Point","coordinates":[135.2270181,34.837994]},"properties":{"Name":"西二郎集会所","Jusho":"兵庫県神戸市北区有野町有野3556-1","kouzui":"○","gake":"○","takashio":"×","jishin":"×","tsunami":"×","kaji":"×","naisui":"×","kazan":"×"}}
,{"type":"Feature","geometry":{"type":"Point","coordinates":[135.23248537,34.86956563]},"properties":{"Name":"道場小学校","Jusho":"兵庫県神戸市北区道場町塩田1460","kouzui":"×","gake":"○","takashio":"×","jishin":"×","tsunami":"×","kaji":"×","naisui":"×","kazan":"×"}}
,{"type":"Feature","geometry":{"type":"Point","coordinates":[135.250965,34.866292]},"properties":{"Name":"生野自治会館","Jusho":"兵庫県神戸市北区道場町生野285","kouzui":"×","gake":"○","takashio":"×","jishin":"×","tsunami":"×","kaji":"×","naisui":"×","kazan":"×"}}
,{"type":"Feature","geometry":{"type":"Point","coordinates":[135.2390834,34.8514614]},"properties":{"Name":"平田自治会館","Jusho":"兵庫県神戸市北区道場町平田553","kouzui":"○","gake":"○","takashio":"×","jishin":"×","tsunami":"×","kaji":"×","naisui":"×","kazan":"×"}}
,{"type":"Feature","geometry":{"type":"Point","coordinates":[135.27096963093,34.8481991558]},"properties":{"Name":"生野高原安心コミュニティプラザ","Jusho":"兵庫県神戸市北区道場町生野1172-1022","kouzui":"○","gake":"○","takashio":"×","jishin":"×","tsunami":"×","kaji":"×","naisui":"×","kazan":"×"}}
,{"type":"Feature","geometry":{"type":"Point","coordinates":[135.1956558,34.8225998]},"properties":{"Name":"八多小・中学校","Jusho":"兵庫県神戸市北区八多町附物876","kouzui":"○","gake":"○","takashio":"×","jishin":"×","tsunami":"×","kaji":"×","naisui":"×","kazan":"×"}}
,{"type":"Feature","geometry":{"type":"Point","coordinates":[135.216607,34.849362]},"properties":{"Name":"中公民館","Jusho":"兵庫県神戸市北区八多町中1177","kouzui":"○","gake":"○","takashio":"×","jishin":"×","tsunami":"×","kaji":"×","naisui":"×","kazan":"×"}}
,{"type":"Feature","geometry":{"type":"Point","coordinates":[135.1651806,34.8550778]},"properties":{"Name":"大沢小・中学校","Jusho":"兵庫県神戸市北区大沢町中大沢976","kouzui":"○","gake":"○","takashio":"×","jishin":"×","tsunami":"×","kaji":"×","naisui":"×","kazan":"×"}}
,{"type":"Feature","geometry":{"type":"Point","coordinates":[135.1836861,34.8488791]},"properties":{"Name":"上大沢ふれあい会館","Jusho":"兵庫県神戸市北区大沢町上大沢3080","kouzui":"○","gake":"○","takashio":"×","jishin":"×","tsunami":"×","kaji":"×","naisui":"×","kazan":"×"}}
,{"type":"Feature","geometry":{"type":"Point","coordinates":[135.1944764,34.8657092]},"properties":{"Name":"長尾小学校","Jusho":"兵庫県神戸市北区上津台3-4-1","kouzui":"○","gake":"○","takashio":"×","jishin":"×","tsunami":"×","kaji":"×","naisui":"×","kazan":"×"}}
,{"type":"Feature","geometry":{"type":"Point","coordinates":[135.1733832,34.8836095]},"properties":{"Name":"岩谷公会堂","Jusho":"兵庫県神戸市北区長尾町上津4270","kouzui":"○","gake":"○","takashio":"×","jishin":"×","tsunami":"×","kaji":"×","naisui":"×","kazan":"×"}}
,{"type":"Feature","geometry":{"type":"Point","coordinates":[135.2183289,34.8610031]},"properties":{"Name":"鹿の子台小学校","Jusho":"兵庫県神戸市北区鹿の子台北町6-34-1","kouzui":"○","gake":"○","takashio":"×","jishin":"×","tsunami":"×","kaji":"×","naisui":"×","kazan":"×"}}
,{"type":"Feature","geometry":{"type":"Point","coordinates":[135.22287,34.8629167]},"properties":{"Name":"北神戸中学校","Jusho":"兵庫県神戸市北区鹿の子台北町2-8-1","kouzui":"○","gake":"○","takashio":"×","jishin":"×","tsunami":"×","kaji":"×","naisui":"×","kazan":"×"}}
,{"type":"Feature","geometry":{"type":"Point","coordinates":[135.1501956,34.8224556]},"properties":{"Name":"好徳小学校","Jusho":"兵庫県神戸市北区淡河町野瀬487","kouzui":"○","gake":"○","takashio":"×","jishin":"×","tsunami":"×","kaji":"×","naisui":"×","kazan":"×"}}
,{"type":"Feature","geometry":{"type":"Point","coordinates":[135.1240617,34.8195472]},"properties":{"Name":"淡河中学校","Jusho":"兵庫県神戸市北区淡河町行原字中沢179-2","kouzui":"○","gake":"○","takashio":"×","jishin":"×","tsunami":"×","kaji":"×","naisui":"×","kazan":"×"}}
,{"type":"Feature","geometry":{"type":"Point","coordinates":[135.1021525,34.8163308]},"properties":{"Name":"淡河小学校","Jusho":"兵庫県神戸市北区淡河町萩原524","kouzui":"○","gake":"○","takashio":"×","jishin":"×","tsunami":"×","kaji":"×","naisui":"×","kazan":"×"}}
,{"type":"Feature","geometry":{"type":"Point","coordinates":[135.1543644,34.6734728]},"properties":{"Name":"室内小学校","Jusho":"兵庫県神戸市長田区前原町1-17-1","kouzui":"○","gake":"○","takashio":"×","jishin":"×","tsunami":"○","kaji":"×","naisui":"×","kazan":"×"}}
,{"type":"Feature","geometry":{"type":"Point","coordinates":[135.1545541,34.6697571]},"properties":{"Name":"長田公民館","Jusho":"兵庫県神戸市長田区四番町4-51","kouzui":"○","gake":"○","takashio":"×","jishin":"×","tsunami":"○","kaji":"×","naisui":"×","kazan":"×"}}
,{"type":"Feature","geometry":{"type":"Point","coordinates":[135.1534672,34.6770833]},"properties":{"Name":"夢野台高校","Jusho":"兵庫県神戸市長田区房王寺町2-1-1","kouzui":"○","gake":"○","takashio":"×","jishin":"×","tsunami":"○","kaji":"×","naisui":"×","kazan":"×"}}
,{"type":"Feature","geometry":{"type":"Point","coordinates":[135.1479261,34.6799497]},"properties":{"Name":"名倉小学校","Jusho":"兵庫県神戸市長田区房王寺町4-7-15","kouzui":"○","gake":"○","takashio":"×","jishin":"×","tsunami":"○","kaji":"×","naisui":"×","kazan":"×"}}
,{"type":"Feature","geometry":{"type":"Point","coordinates":[135.1487342,34.6780025]},"properties":{"Name":"丸山中学校","Jusho":"兵庫県神戸市長田区大丸町2-17-1","kouzui":"○","gake":"○","takashio":"×","jishin":"×","tsunami":"○","kaji":"×","naisui":"×","kazan":"×"}}
,{"type":"Feature","geometry":{"type":"Point","coordinates":[135.1343131,34.6915231]},"properties":{"Name":"雲雀丘中学校","Jusho":"兵庫県神戸市長田区雲雀ヶ丘1-1-1","kouzui":"○","gake":"○","takashio":"×","jishin":"×","tsunami":"○","kaji":"×","naisui":"×","kazan":"×"}}
,{"type":"Feature","geometry":{"type":"Point","coordinates":[135.1375906,34.686435]},"properties":{"Name":"丸山ひばり小学校","Jusho":"兵庫県神戸市長田区西丸山町3-2-1","kouzui":"○","gake":"○","takashio":"×","jishin":"×","tsunami":"○","kaji":"×","naisui":"×","kazan":"×"}}
,{"type":"Feature","geometry":{"type":"Point","coordinates":[135.1400806,34.6833695]},"properties":{"Name":"総合療育センター","Jusho":"兵庫県神戸市長田区丸山町2-3-50","kouzui":"○","gake":"○","takashio":"×","jishin":"×","tsunami":"○","kaji":"×","naisui":"×","kazan":"×"}}
,{"type":"Feature","geometry":{"type":"Point","coordinates":[135.1409072,34.685991]},"properties":{"Name":"丸山コミュニティ・センター","Jusho":"兵庫県神戸市長田区西丸山町1-7-5","kouzui":"○","gake":"○","takashio":"×","jishin":"×","tsunami":"○","kaji":"×","naisui":"×","kazan":"×"}}
,{"type":"Feature","geometry":{"type":"Point","coordinates":[135.1472888,34.6722262]},"properties":{"Name":"宮川小学校","Jusho":"兵庫県神戸市長田区長田町4-1-1","kouzui":"○","gake":"○","takashio":"×","jishin":"×","tsunami":"○","kaji":"×","naisui":"×","kazan":"×"}}
,{"type":"Feature","geometry":{"type":"Point","coordinates":[135.1449296,34.6678811]},"properties":{"Name":"池田小学校","Jusho":"兵庫県神戸市長田区池田上町19","kouzui":"○","gake":"○","takashio":"×","jishin":"×","tsunami":"○","kaji":"×","naisui":"×","kazan":"×"}}
,{"type":"Feature","geometry":{"type":"Point","coordinates":[135.1396686,34.6681814]},"properties":{"Name":"西代中学校","Jusho":"兵庫県神戸市長田区上池田2-4-1","kouzui":"○","gake":"×","takashio":"×","jishin":"×","tsunami":"○","kaji":"×","naisui":"×","kazan":"×"}}
,{"type":"Feature","geometry":{"type":"Point","coordinates":[135.1435322,34.6702422]},"properties":{"Name":"長田高校","Jusho":"兵庫県神戸市長田区池田谷町2-5","kouzui":"○","gake":"○","takashio":"×","jishin":"×","tsunami":"○","kaji":"×","naisui":"×","kazan":"×"}}
,{"type":"Feature","geometry":{"type":"Point","coordinates":[135.1432128,34.662435]},"properties":{"Name":"蓮池小学校","Jusho":"兵庫県神戸市長田区大谷町1-1-10","kouzui":"○","gake":"○","takashio":"×","jishin":"×","tsunami":"○","kaji":"×","naisui":"×","kazan":"×"}}
,{"type":"Feature","geometry":{"type":"Point","coordinates":[135.1411825,34.6654958]},"properties":{"Name":"神戸常盤大学","Jusho":"兵庫県神戸市長田区大谷町2-6-2","kouzui":"○","gake":"○","takashio":"×","jishin":"×","tsunami":"○","kaji":"×","naisui":"×","kazan":"×"}}
,{"type":"Feature","geometry":{"type":"Point","coordinates":[135.1428822,34.6725142]},"properties":{"Name":"長田小学校","Jusho":"兵庫県神戸市長田区西山町2-4-1","kouzui":"○","gake":"○","takashio":"×","jishin":"×","tsunami":"○","kaji":"×","naisui":"×","kazan":"×"}}
,{"type":"Feature","geometry":{"type":"Point","coordinates":[135.1372353,34.6713811]},"properties":{"Name":"高取台中学校","Jusho":"兵庫県神戸市長田区高取山町1-1-1","kouzui":"○","gake":"○","takashio":"×","jishin":"×","tsunami":"○","kaji":"×","naisui":"×","kazan":"×"}}
,{"type":"Feature","geometry":{"type":"Point","coordinates":[135.1348078,34.6684842]},"properties":{"Name":"育英高校","Jusho":"兵庫県神戸市長田区長尾町2-1-15","kouzui":"○","gake":"×","takashio":"×","jishin":"×","tsunami":"○","kaji":"×","naisui":"×","kazan":"×"}}
,{"type":"Feature","geometry":{"type":"Point","coordinates":[135.1363515,34.6660659]},"properties":{"Name":"五位の池小学校","Jusho":"兵庫県神戸市長田区五位ノ池町2-3-1","kouzui":"○","gake":"○","takashio":"×","jishin":"×","tsunami":"○","kaji":"×","naisui":"×","kazan":"×"}}
,{"type":"Feature","geometry":{"type":"Point","coordinates":[135.15504176617,34.666368804621]},"properties":{"Name":"御蔵小学校","Jusho":"兵庫県神戸市長田区一番町4-1","kouzui":"○","gake":"○","takashio":"×","jishin":"×","tsunami":"○","kaji":"×","naisui":"×","kazan":"×"}}
,{"type":"Feature","geometry":{"type":"Point","coordinates":[135.1540769,34.6570313]},"properties":{"Name":"真野小学校","Jusho":"兵庫県神戸市長田区苅藻通3-4-32","kouzui":"○","gake":"○","takashio":"×","jishin":"×","tsunami":"○","kaji":"×","naisui":"×","kazan":"×"}}
,{"type":"Feature","geometry":{"type":"Point","coordinates":[135.1531092,34.6614128]},"properties":{"Name":"長田中学校","Jusho":"兵庫県神戸市長田区真野町8-1","kouzui":"○","gake":"○","takashio":"×","jishin":"×","tsunami":"○","kaji":"×","naisui":"×","kazan":"×"}}
,{"type":"Feature","geometry":{"type":"Point","coordinates":[135.1498543,34.6618374]},"properties":{"Name":"長田南小学校","Jusho":"兵庫県神戸市長田区神楽町1-3-1","kouzui":"○","gake":"○","takashio":"×","jishin":"×","tsunami":"○","kaji":"×","naisui":"×","kazan":"×"}}
,{"type":"Feature","geometry":{"type":"Point","coordinates":[135.1434603,34.6551358]},"properties":{"Name":"駒ヶ林中学校","Jusho":"兵庫県神戸市長田区若松町7-1-23","kouzui":"○","gake":"○","takashio":"×","jishin":"×","tsunami":"○","kaji":"×","naisui":"×","kazan":"×"}}
,{"type":"Feature","geometry":{"type":"Point","coordinates":[135.1512872,34.6555025]},"properties":{"Name":"真陽小学校","Jusho":"兵庫県神戸市長田区二葉町1-5-5","kouzui":"○","gake":"○","takashio":"×","jishin":"×","tsunami":"○","kaji":"×","naisui":"×","kazan":"×"}}
,{"type":"Feature","geometry":{"type":"Point","coordinates":[135.146261,34.6517707]},"properties":{"Name":"ふたば学舎","Jusho":"兵庫県神戸市長田区二葉町7-1-18","kouzui":"○","gake":"○","takashio":"×","jishin":"×","tsunami":"○","kaji":"×","naisui":"×","kazan":"×"}}
,{"type":"Feature","geometry":{"type":"Point","coordinates":[135.1414645,34.6500314]},"properties":{"Name":"駒ケ林小学校","Jusho":"兵庫県神戸市長田区野田町6-1-16","kouzui":"○","gake":"○","takashio":"×","jishin":"×","tsunami":"○","kaji":"×","naisui":"×","kazan":"×"}}
,{"type":"Feature","geometry":{"type":"Point","coordinates":[135.1314996,34.6463436]},"properties":{"Name":"若宮小学校","Jusho":"兵庫県神戸市須磨区若宮町2-1-21","kouzui":"×","gake":"○","takashio":"×","jishin":"×","tsunami":"○","kaji":"×","naisui":"×","kazan":"×"}}
,{"type":"Feature","geometry":{"type":"Point","coordinates":[135.1326031,34.6479475]},"properties":{"Name":"鷹取中学校","Jusho":"兵庫県神戸市須磨区青葉町3-1-1","kouzui":"×","gake":"○","takashio":"×","jishin":"×","tsunami":"○","kaji":"×","naisui":"×","kazan":"×"}}
,{"type":"Feature","geometry":{"type":"Point","coordinates":[135.1333241,34.6488167]},"properties":{"Name":"南須磨公民館","Jusho":"兵庫県神戸市須磨区青葉町2-2-3","kouzui":"×","gake":"○","takashio":"×","jishin":"×","tsunami":"○","kaji":"×","naisui":"×","kazan":"×"}}
,{"type":"Feature","geometry":{"type":"Point","coordinates":[135.1204206,34.6466586]},"properties":{"Name":"西須磨小学校","Jusho":"兵庫県神戸市須磨区行幸町3-4-18","kouzui":"○","gake":"○","takashio":"×","jishin":"×","tsunami":"○","kaji":"×","naisui":"×","kazan":"×"}}
,{"type":"Feature","geometry":{"type":"Point","coordinates":[135.1060922,34.6411794]},"properties":{"Name":"須磨一の谷プラザ","Jusho":"兵庫県神戸市須磨区一ノ谷町5-2-1","kouzui":"○","gake":"○","takashio":"×","jishin":"×","tsunami":"○","kaji":"×","naisui":"×","kazan":"×"}}
,{"type":"Feature","geometry":{"type":"Point","coordinates":[135.1152711,34.6526467]},"properties":{"Name":"北須磨小学校","Jusho":"兵庫県神戸市須磨区離宮西町2-1-1","kouzui":"○","gake":"○","takashio":"×","jishin":"×","tsunami":"○","kaji":"×","naisui":"×","kazan":"×"}}
,{"type":"Feature","geometry":{"type":"Point","coordinates":[135.1342833,34.6542553]},"properties":{"Name":"だいち小学校","Jusho":"兵庫県神戸市須磨区大池町5-15-1","kouzui":"○","gake":"○","takashio":"×","jishin":"×","tsunami":"○","kaji":"×","naisui":"×","kazan":"×"}}
,{"type":"Feature","geometry":{"type":"Point","coordinates":[135.1329026,34.6576629]},"properties":{"Name":"太田中学校","Jusho":"兵庫県神戸市須磨区大黒町5-1-1","kouzui":"○","gake":"○","takashio":"×","jishin":"×","tsunami":"○","kaji":"×","naisui":"×","kazan":"×"}}
,{"type":"Feature","geometry":{"type":"Point","coordinates":[135.1276478,34.654805]},"properties":{"Name":"東須磨小学校","Jusho":"兵庫県神戸市須磨区堀池町1-2-1","kouzui":"○","gake":"○","takashio":"×","jishin":"×","tsunami":"○","kaji":"×","naisui":"×","kazan":"×"}}
,{"type":"Feature","geometry":{"type":"Point","coordinates":[135.1289669,34.6507528]},"properties":{"Name":"須磨体育館","Jusho":"兵庫県神戸市須磨区中島町1-2-2","kouzui":"○","gake":"○","takashio":"×","jishin":"×","tsunami":"○","kaji":"×","naisui":"×","kazan":"×"}}
,{"type":"Feature","geometry":{"type":"Point","coordinates":[135.1257339,34.6582739]},"properties":{"Name":"飛松中学校","Jusho":"兵庫県神戸市須磨区大手町8-4-25","kouzui":"○","gake":"○","takashio":"×","jishin":"×","tsunami":"○","kaji":"×","naisui":"×","kazan":"×"}}
,{"type":"Feature","geometry":{"type":"Point","coordinates":[135.1041192,34.6562628]},"properties":{"Name":"高倉台小学校","Jusho":"兵庫県神戸市須磨区高倉台4-1-1","kouzui":"○","gake":"○","takashio":"×","jishin":"×","tsunami":"○","kaji":"×","naisui":"×","kazan":"×"}}
,{"type":"Feature","geometry":{"type":"Point","coordinates":[135.1074356,34.6536575]},"properties":{"Name":"高倉中学校","Jusho":"兵庫県神戸市須磨区高倉台1-8-1","kouzui":"○","gake":"○","takashio":"×","jishin":"×","tsunami":"○","kaji":"×","naisui":"×","kazan":"×"}}
,{"type":"Feature","geometry":{"type":"Point","coordinates":[135.1331303,34.6630653]},"properties":{"Name":"板宿小学校","Jusho":"兵庫県神戸市須磨区菊池町1-1-1","kouzui":"○","gake":"○","takashio":"×","jishin":"×","tsunami":"○","kaji":"×","naisui":"×","kazan":"×"}}
,{"type":"Feature","geometry":{"type":"Point","coordinates":[135.0943419,34.6688778]},"properties":{"Name":"多井畑小学校","Jusho":"兵庫県神戸市須磨区友が丘3-106","kouzui":"○","gake":"○","takashio":"×","jishin":"×","tsunami":"○","kaji":"×","naisui":"×","kazan":"×"}}
,{"type":"Feature","geometry":{"type":"Point","coordinates":[135.0994969,34.6731275]},"properties":{"Name":"友が丘中学校","Jusho":"兵庫県神戸市須磨区友が丘7-283-1","kouzui":"○","gake":"○","takashio":"×","jishin":"×","tsunami":"○","kaji":"×","naisui":"×","kazan":"×"}}
,{"type":"Feature","geometry":{"type":"Point","coordinates":[135.0931745,34.6608772]},"properties":{"Name":"多井畑自治会館","Jusho":"兵庫県神戸市須磨区多井畑字東所22","kouzui":"○","gake":"○","takashio":"×","jishin":"×","tsunami":"○","kaji":"×","naisui":"×","kazan":"×"}}
,{"type":"Feature","geometry":{"type":"Point","coordinates":[135.1115681,34.6704253]},"properties":{"Name":"横尾小学校","Jusho":"兵庫県神戸市須磨区横尾5-3","kouzui":"○","gake":"○","takashio":"×","jishin":"×","tsunami":"○","kaji":"×","naisui":"×","kazan":"×"}}
,{"type":"Feature","geometry":{"type":"Point","coordinates":[135.1157451,34.6728241]},"properties":{"Name":"横尾中学校","Jusho":"兵庫県神戸市須磨区横尾2-1-2","kouzui":"○","gake":"○","takashio":"×","jishin":"×","tsunami":"○","kaji":"×","naisui":"×","kazan":"×"}}
,{"type":"Feature","geometry":{"type":"Point","coordinates":[135.1172147,34.6760865]},"properties":{"Name":"妙法寺小学校","Jusho":"兵庫県神戸市須磨区妙法寺字桜界地106-1","kouzui":"○","gake":"○","takashio":"×","jishin":"×","tsunami":"○","kaji":"×","naisui":"×","kazan":"×"}}
,{"type":"Feature","geometry":{"type":"Point","coordinates":[135.1162619,34.6820128]},"properties":{"Name":"神戸星城高校","Jusho":"兵庫県神戸市須磨区緑ヶ丘1-12-1","kouzui":"○","gake":"○","takashio":"×","jishin":"×","tsunami":"○","kaji":"×","naisui":"×","kazan":"×"}}
,{"type":"Feature","geometry":{"type":"Point","coordinates":[135.1014661,34.6763078]},"properties":{"Name":"南落合小学校","Jusho":"兵庫県神戸市須磨区南落合3-11-1","kouzui":"○","gake":"○","takashio":"×","jishin":"×","tsunami":"○","kaji":"×","naisui":"×","kazan":"×"}}
,{"type":"Feature","geometry":{"type":"Point","coordinates":[135.0911614,34.6745411]},"properties":{"Name":"竜が台小学校","Jusho":"兵庫県神戸市須磨区竜が台6-15-1","kouzui":"○","gake":"○","takashio":"×","jishin":"×","tsunami":"○","kaji":"×","naisui":"×","kazan":"×"}}
,{"type":"Feature","geometry":{"type":"Point","coordinates":[135.0882228,34.6755908]},"properties":{"Name":"竜が台中学校","Jusho":"兵庫県神戸市須磨区竜が台4-1","kouzui":"○","gake":"○","takashio":"×","jishin":"×","tsunami":"○","kaji":"×","naisui":"×","kazan":"×"}}
,{"type":"Feature","geometry":{"type":"Point","coordinates":[135.0836983,34.6721939]},"properties":{"Name":"菅の台小学校","Jusho":"兵庫県神戸市須磨区菅の台4-3-2","kouzui":"○","gake":"○","takashio":"×","jishin":"×","tsunami":"○","kaji":"×","naisui":"×","kazan":"×"}}
,{"type":"Feature","geometry":{"type":"Point","coordinates":[135.1012968,34.6800732]},"properties":{"Name":"花谷小学校","Jusho":"兵庫県神戸市須磨区東落合1-4-1","kouzui":"○","gake":"○","takashio":"×","jishin":"×","tsunami":"○","kaji":"×","naisui":"×","kazan":"×"}}
,{"type":"Feature","geometry":{"type":"Point","coordinates":[135.0994494,34.6823986]},"properties":{"Name":"東落合中学校","Jusho":"兵庫県神戸市須磨区東落合2-15-1","kouzui":"○","gake":"○","takashio":"×","jishin":"×","tsunami":"○","kaji":"×","naisui":"×","kazan":"×"}}
,{"type":"Feature","geometry":{"type":"Point","coordinates":[135.0892339,34.6819375]},"properties":{"Name":"西落合小学校","Jusho":"兵庫県神戸市須磨区西落合7-1-3","kouzui":"○","gake":"○","takashio":"×","jishin":"×","tsunami":"○","kaji":"×","naisui":"×","kazan":"×"}}
,{"type":"Feature","geometry":{"type":"Point","coordinates":[135.0954409,34.6839355]},"properties":{"Name":"北須磨文化センター","Jusho":"兵庫県神戸市須磨区中落合3-1-2","kouzui":"○","gake":"○","takashio":"×","jishin":"×","tsunami":"○","kaji":"×","naisui":"×","kazan":"×"}}
,{"type":"Feature","geometry":{"type":"Point","coordinates":[135.0824564,34.6851425]},"properties":{"Name":"西落合中学校","Jusho":"兵庫県神戸市須磨区西落合4-1-1","kouzui":"○","gake":"○","takashio":"×","jishin":"×","tsunami":"○","kaji":"×","naisui":"×","kazan":"×"}}
,{"type":"Feature","geometry":{"type":"Point","coordinates":[135.0887922,34.6779933]},"properties":{"Name":"須磨翔風高校","Jusho":"兵庫県神戸市須磨区西落合1-1-5","kouzui":"○","gake":"○","takashio":"×","jishin":"×","tsunami":"○","kaji":"×","naisui":"×","kazan":"×"}}
,{"type":"Feature","geometry":{"type":"Point","coordinates":[135.1148719,34.6876362]},"properties":{"Name":"若草小学校","Jusho":"兵庫県神戸市須磨区若草町1-13","kouzui":"○","gake":"○","takashio":"×","jishin":"×","tsunami":"○","kaji":"×","naisui":"×","kazan":"×"}}
,{"type":"Feature","geometry":{"type":"Point","coordinates":[135.1102097,34.6920283]},"properties":{"Name":"須磨北中学校","Jusho":"兵庫県神戸市須磨区東白川台5-1-1","kouzui":"○","gake":"○","takashio":"×","jishin":"×","tsunami":"○","kaji":"×","naisui":"×","kazan":"×"}}
,{"type":"Feature","geometry":{"type":"Point","coordinates":[135.1009689,34.6852289]},"properties":{"Name":"東落合小学校","Jusho":"兵庫県神戸市須磨区東落合2-18-1","kouzui":"○","gake":"○","takashio":"×","jishin":"×","tsunami":"○","kaji":"×","naisui":"×","kazan":"×"}}
,{"type":"Feature","geometry":{"type":"Point","coordinates":[135.0917225,34.6866175]},"properties":{"Name":"松尾小学校","Jusho":"兵庫県神戸市須磨区北落合2-13-1","kouzui":"○","gake":"○","takashio":"×","jishin":"×","tsunami":"○","kaji":"×","naisui":"×","kazan":"×"}}
,{"type":"Feature","geometry":{"type":"Point","coordinates":[135.0854611,34.6885015]},"properties":{"Name":"神の谷小学校","Jusho":"兵庫県神戸市須磨区神の谷5-1-1","kouzui":"○","gake":"○","takashio":"×","jishin":"×","tsunami":"○","kaji":"×","naisui":"×","kazan":"×"}}
,{"type":"Feature","geometry":{"type":"Point","coordinates":[135.1006022,34.6960794]},"properties":{"Name":"白川小学校","Jusho":"兵庫県神戸市須磨区白川台7-3-2","kouzui":"○","gake":"○","takashio":"×","jishin":"×","tsunami":"○","kaji":"×","naisui":"×","kazan":"×"}}
,{"type":"Feature","geometry":{"type":"Point","coordinates":[135.0964414,34.6927503]},"properties":{"Name":"白川台中学校","Jusho":"兵庫県神戸市須磨区白川台1-25-2","kouzui":"○","gake":"○","takashio":"×","jishin":"×","tsunami":"○","kaji":"×","naisui":"×","kazan":"×"}}
,{"type":"Feature","geometry":{"type":"Point","coordinates":[135.0813161,34.6379922]},"properties":{"Name":"塩屋小学校","Jusho":"兵庫県神戸市垂水区塩屋町3-18-1","kouzui":"○","gake":"○","takashio":"×","jishin":"×","tsunami":"○","kaji":"×","naisui":"×","kazan":"×"}}
,{"type":"Feature","geometry":{"type":"Point","coordinates":[135.0771217,34.6439331]},"properties":{"Name":"塩屋中学校","Jusho":"兵庫県神戸市垂水区塩屋町字大谷","kouzui":"○","gake":"○","takashio":"×","jishin":"×","tsunami":"○","kaji":"×","naisui":"×","kazan":"×"}}
,{"type":"Feature","geometry":{"type":"Point","coordinates":[135.077551,34.633111]},"properties":{"Name":"兵庫県自治研修所","Jusho":"兵庫県神戸市垂水区塩屋町5-3-1","kouzui":"○","gake":"○","takashio":"×","jishin":"×","tsunami":"○","kaji":"×","naisui":"×","kazan":"×"}}
,{"type":"Feature","geometry":{"type":"Point","coordinates":[135.0906539,34.6470275]},"properties":{"Name":"塩屋北小学校","Jusho":"兵庫県神戸市垂水区塩屋北町4-10-1","kouzui":"○","gake":"○","takashio":"×","jishin":"×","tsunami":"○","kaji":"×","naisui":"×","kazan":"×"}}
,{"type":"Feature","geometry":{"type":"Point","coordinates":[135.0835281,34.6418375]},"properties":{"Name":"塩屋台自治会館","Jusho":"兵庫県神戸市垂水区塩屋台1-21","kouzui":"○","gake":"○","takashio":"×","jishin":"×","tsunami":"○","kaji":"×","naisui":"×","kazan":"×"}}
,{"type":"Feature","geometry":{"type":"Point","coordinates":[135.0830569,34.6560514]},"properties":{"Name":"下畑台小学校","Jusho":"兵庫県神戸市垂水区桃山台3-20","kouzui":"○","gake":"○","takashio":"×","jishin":"×","tsunami":"○","kaji":"×","naisui":"×","kazan":"×"}}
,{"type":"Feature","geometry":{"type":"Point","coordinates":[135.0797656,34.6579178]},"properties":{"Name":"桃山台中学校","Jusho":"兵庫県神戸市垂水区桃山台4-8","kouzui":"○","gake":"○","takashio":"×","jishin":"×","tsunami":"○","kaji":"×","naisui":"×","kazan":"×"}}
,{"type":"Feature","geometry":{"type":"Point","coordinates":[135.086614,34.652706]},"properties":{"Name":"下畑公会堂","Jusho":"兵庫県神戸市垂水区下畑町字谷川2120","kouzui":"○","gake":"○","takashio":"×","jishin":"×","tsunami":"○","kaji":"×","naisui":"×","kazan":"×"}}
,{"type":"Feature","geometry":{"type":"Point","coordinates":[135.0786778,34.6574376]},"properties":{"Name":"つつじが丘小学校","Jusho":"兵庫県神戸市垂水区つつじが丘3-1385-79","kouzui":"○","gake":"○","takashio":"×","jishin":"×","tsunami":"○","kaji":"×","naisui":"×","kazan":"×"}}
,{"type":"Feature","geometry":{"type":"Point","coordinates":[135.0665735,34.6411637]},"properties":{"Name":"福田小学校","Jusho":"兵庫県神戸市垂水区乙木3-3-1","kouzui":"○","gake":"○","takashio":"×","jishin":"×","tsunami":"○","kaji":"×","naisui":"×","kazan":"×"}}
,{"type":"Feature","geometry":{"type":"Point","coordinates":[135.0711864,34.6348258]},"properties":{"Name":"東垂水小学校","Jusho":"兵庫県神戸市垂水区王居殿2-5-25","kouzui":"○","gake":"○","takashio":"×","jishin":"×","tsunami":"○","kaji":"×","naisui":"×","kazan":"×"}}
,{"type":"Feature","geometry":{"type":"Point","coordinates":[135.0692837,34.633196]},"properties":{"Name":"視覚特別支援学校","Jusho":"兵庫県神戸市垂水区城が山4-2-1","kouzui":"○","gake":"○","takashio":"×","jishin":"×","tsunami":"○","kaji":"×","naisui":"×","kazan":"×"}}
,{"type":"Feature","geometry":{"type":"Point","coordinates":[135.0709614,34.6403306]},"properties":{"Name":"乙木小学校","Jusho":"兵庫県神戸市垂水区美山台2-1-1","kouzui":"○","gake":"○","takashio":"×","jishin":"×","tsunami":"○","kaji":"×","naisui":"×","kazan":"×"}}
,{"type":"Feature","geometry":{"type":"Point","coordinates":[135.0721917,34.6409722]},"properties":{"Name":"垂水東中学校","Jusho":"兵庫県神戸市垂水区青山台3-4-1","kouzui":"○","gake":"○","takashio":"×","jishin":"×","tsunami":"○","kaji":"×","naisui":"×","kazan":"×"}}
,{"type":"Feature","geometry":{"type":"Point","coordinates":[135.0684339,34.6368394]},"properties":{"Name":"東垂水公民館","Jusho":"兵庫県神戸市垂水区東垂水1-1-1","kouzui":"○","gake":"○","takashio":"×","jishin":"×","tsunami":"○","kaji":"×","naisui":"×","kazan":"×"}}
,{"type":"Feature","geometry":{"type":"Point","coordinates":[135.0709858,34.6633169]},"properties":{"Name":"名谷小学校","Jusho":"兵庫県神戸市垂水区名谷町1896","kouzui":"○","gake":"○","takashio":"×","jishin":"×","tsunami":"○","kaji":"×","naisui":"×","kazan":"×"}}
,{"type":"Feature","geometry":{"type":"Point","coordinates":[135.0605674,34.6515827]},"properties":{"Name":"福田中学校","Jusho":"兵庫県神戸市垂水区名谷町字猿倉254","kouzui":"○","gake":"○","takashio":"×","jishin":"×","tsunami":"○","kaji":"×","naisui":"×","kazan":"×"}}
,{"type":"Feature","geometry":{"type":"Point","coordinates":[135.0613262,34.6381384]},"properties":{"Name":"高丸小学校","Jusho":"兵庫県神戸市垂水区大町2-6-9","kouzui":"○","gake":"○","takashio":"×","jishin":"×","tsunami":"○","kaji":"×","naisui":"×","kazan":"×"}}
,{"type":"Feature","geometry":{"type":"Point","coordinates":[135.0581761,34.6433439]},"properties":{"Name":"千鳥が丘小学校","Jusho":"兵庫県神戸市垂水区千鳥が丘3-10-37","kouzui":"○","gake":"○","takashio":"×","jishin":"×","tsunami":"○","kaji":"×","naisui":"×","kazan":"×"}}
,{"type":"Feature","geometry":{"type":"Point","coordinates":[135.0558767,34.6315758]},"properties":{"Name":"垂水小学校","Jusho":"兵庫県神戸市垂水区日向2-4-6","kouzui":"○","gake":"○","takashio":"×","jishin":"×","tsunami":"○","kaji":"×","naisui":"×","kazan":"×"}}
,{"type":"Feature","geometry":{"type":"Point","coordinates":[135.0590125,34.6280792]},"properties":{"Name":"垂水年金会館","Jusho":"兵庫県神戸市垂水区平磯1-2-5","kouzui":"○","gake":"○","takashio":"×","jishin":"×","tsunami":"○","kaji":"×","naisui":"×","kazan":"×"}}
,{"type":"Feature","geometry":{"type":"Point","coordinates":[135.06013628836,34.626278488481]},"properties":{"Name":"垂水体育館","Jusho":"兵庫県神戸市垂水区平磯1-1-56","kouzui":"○","gake":"○","takashio":"×","jishin":"×","tsunami":"○","kaji":"×","naisui":"×","kazan":"×"}}
,{"type":"Feature","geometry":{"type":"Point","coordinates":[135.0427583,34.63337]},"properties":{"Name":"霞ヶ丘小学校","Jusho":"兵庫県神戸市垂水区霞ヶ丘4-6-16","kouzui":"○","gake":"○","takashio":"×","jishin":"×","tsunami":"○","kaji":"×","naisui":"×","kazan":"×"}}
,{"type":"Feature","geometry":{"type":"Point","coordinates":[135.0412611,34.6363944]},"properties":{"Name":"歌敷山中学校","Jusho":"兵庫県神戸市垂水区歌敷山2-4-1","kouzui":"○","gake":"○","takashio":"×","jishin":"×","tsunami":"○","kaji":"×","naisui":"×","kazan":"×"}}
,{"type":"Feature","geometry":{"type":"Point","coordinates":[135.0364975,34.6393497]},"properties":{"Name":"東舞子小学校","Jusho":"兵庫県神戸市垂水区舞子台4-10-1","kouzui":"○","gake":"○","takashio":"×","jishin":"×","tsunami":"○","kaji":"×","naisui":"×","kazan":"×"}}
,{"type":"Feature","geometry":{"type":"Point","coordinates":[135.0303701,34.6437937]},"properties":{"Name":"舞子小学校","Jusho":"兵庫県神戸市垂水区西舞子4-7-43","kouzui":"○","gake":"○","takashio":"×","jishin":"×","tsunami":"○","kaji":"×","naisui":"×","kazan":"×"}}
,{"type":"Feature","geometry":{"type":"Point","coordinates":[135.0307367,34.6497317]},"properties":{"Name":"西舞子小学校","Jusho":"兵庫県神戸市垂水区狩口台3-1-2","kouzui":"○","gake":"○","takashio":"×","jishin":"×","tsunami":"○","kaji":"×","naisui":"×","kazan":"×"}}
,{"type":"Feature","geometry":{"type":"Point","coordinates":[135.0298064,34.649665]},"properties":{"Name":"舞子中学校","Jusho":"兵庫県神戸市垂水区狩口台3-1-1","kouzui":"○","gake":"○","takashio":"×","jishin":"×","tsunami":"○","kaji":"×","naisui":"×","kazan":"×"}}
,{"type":"Feature","geometry":{"type":"Point","coordinates":[135.0340639,34.6598917]},"properties":{"Name":"神陵台小学校","Jusho":"兵庫県神戸市垂水区神陵台3-1-1","kouzui":"○","gake":"○","takashio":"×","jishin":"×","tsunami":"○","kaji":"×","naisui":"×","kazan":"×"}}
,{"type":"Feature","geometry":{"type":"Point","coordinates":[135.0332281,34.6601417]},"properties":{"Name":"神陵台中学校","Jusho":"兵庫県神戸市垂水区神陵台3-1-2","kouzui":"○","gake":"○","takashio":"×","jishin":"×","tsunami":"○","kaji":"×","naisui":"×","kazan":"×"}}
,{"type":"Feature","geometry":{"type":"Point","coordinates":[135.040405,34.6621528]},"properties":{"Name":"多聞台小学校","Jusho":"兵庫県神戸市垂水区多聞台3-9-29","kouzui":"○","gake":"○","takashio":"×","jishin":"×","tsunami":"○","kaji":"×","naisui":"×","kazan":"×"}}
,{"type":"Feature","geometry":{"type":"Point","coordinates":[135.0387581,34.6560033]},"properties":{"Name":"西脇小学校","Jusho":"兵庫県神戸市垂水区西脇1-8-6","kouzui":"○","gake":"○","takashio":"×","jishin":"×","tsunami":"○","kaji":"×","naisui":"×","kazan":"×"}}
,{"type":"Feature","geometry":{"type":"Point","coordinates":[135.0517939,34.6410918]},"properties":{"Name":"千代が丘小学校","Jusho":"兵庫県神戸市垂水区上高丸1-4-2","kouzui":"○","gake":"○","takashio":"×","jishin":"×","tsunami":"○","kaji":"×","naisui":"×","kazan":"×"}}
,{"type":"Feature","geometry":{"type":"Point","coordinates":[135.0516019,34.6408164]},"properties":{"Name":"垂水中学校","Jusho":"兵庫県神戸市垂水区上高丸1-4-1","kouzui":"○","gake":"○","takashio":"×","jishin":"×","tsunami":"○","kaji":"×","naisui":"×","kazan":"×"}}
,{"type":"Feature","geometry":{"type":"Point","coordinates":[135.0480711,34.6580783]},"properties":{"Name":"多聞の丘小学校（旧：本多聞小学校）","Jusho":"兵庫県神戸市垂水区本多聞4-4-1","kouzui":"○","gake":"○","takashio":"×","jishin":"×","tsunami":"○","kaji":"×","naisui":"×","kazan":"×"}}
,{"type":"Feature","geometry":{"type":"Point","coordinates":[135.0460825,34.6565978]},"properties":{"Name":"本多聞中学校","Jusho":"兵庫県神戸市垂水区本多聞2-16-1","kouzui":"○","gake":"○","takashio":"×","jishin":"×","tsunami":"○","kaji":"×","naisui":"×","kazan":"×"}}
,{"type":"Feature","geometry":{"type":"Point","coordinates":[135.049208,34.66687]},"properties":{"Name":"舞多聞小学校","Jusho":"兵庫県神戸市垂水区舞多聞西5-11-12","kouzui":"○","gake":"○","takashio":"×","jishin":"×","tsunami":"○","kaji":"×","naisui":"×","kazan":"×"}}
,{"type":"Feature","geometry":{"type":"Point","coordinates":[135.0466269,34.6528678]},"properties":{"Name":"多聞の丘小学校（旧：多聞南小学校）","Jusho":"兵庫県神戸市垂水区本多聞5-2-1","kouzui":"×","gake":"×","takashio":"×","jishin":"×","tsunami":"×","kaji":"×","naisui":"×","kazan":"×"}}
,{"type":"Feature","geometry":{"type":"Point","coordinates":[135.0612669,34.6664886]},"properties":{"Name":"小束山小学校","Jusho":"兵庫県神戸市垂水区小束山7-868-362","kouzui":"○","gake":"○","takashio":"×","jishin":"×","tsunami":"○","kaji":"×","naisui":"×","kazan":"×"}}
,{"type":"Feature","geometry":{"type":"Point","coordinates":[135.0478936,34.6465297]},"properties":{"Name":"星陵台中学校","Jusho":"兵庫県神戸市垂水区星陵台4-3-3","kouzui":"○","gake":"○","takashio":"×","jishin":"×","tsunami":"○","kaji":"×","naisui":"×","kazan":"×"}}
,{"type":"Feature","geometry":{"type":"Point","coordinates":[135.0495769,34.6449103]},"properties":{"Name":"星陵高校","Jusho":"兵庫県神戸市垂水区星陵台4-3-2","kouzui":"○","gake":"○","takashio":"×","jishin":"×","tsunami":"○","kaji":"×","naisui":"×","kazan":"×"}}
,{"type":"Feature","geometry":{"type":"Point","coordinates":[135.0477467,34.6438522]},"properties":{"Name":"神戸商業高校","Jusho":"兵庫県神戸市垂水区星陵台4-3-1","kouzui":"○","gake":"○","takashio":"×","jishin":"×","tsunami":"○","kaji":"×","naisui":"×","kazan":"×"}}
,{"type":"Feature","geometry":{"type":"Point","coordinates":[135.0552622,34.6586283]},"properties":{"Name":"多聞東小学校","Jusho":"兵庫県神戸市垂水区学が丘4-1-1","kouzui":"○","gake":"○","takashio":"×","jishin":"×","tsunami":"○","kaji":"×","naisui":"×","kazan":"×"}}
,{"type":"Feature","geometry":{"type":"Point","coordinates":[135.0542236,34.6546706]},"properties":{"Name":"多聞東中学校","Jusho":"兵庫県神戸市垂水区学が丘3-1-1","kouzui":"○","gake":"○","takashio":"×","jishin":"×","tsunami":"○","kaji":"×","naisui":"×","kazan":"×"}}
,{"type":"Feature","geometry":{"type":"Point","coordinates":[135.0551067,34.6559647]},"properties":{"Name":"舞子高校","Jusho":"兵庫県神戸市垂水区学が丘3-2","kouzui":"○","gake":"○","takashio":"×","jishin":"×","tsunami":"○","kaji":"×","naisui":"×","kazan":"×"}}
,{"type":"Feature","geometry":{"type":"Point","coordinates":[135.063445,34.640439]},"properties":{"Name":"神戸聴覚特別支援学校","Jusho":"兵庫県神戸市垂水区福田1-3-1","kouzui":"○","gake":"○","takashio":"×","jishin":"×","tsunami":"○","kaji":"×","naisui":"×","kazan":"×"}}
,{"type":"Feature","geometry":{"type":"Point","coordinates":[135.0553447,34.6962522]},"properties":{"Name":"太山寺小学校","Jusho":"兵庫県神戸市西区伊川谷町前開860","kouzui":"○","gake":"○","takashio":"×","jishin":"×","tsunami":"×","kaji":"×","naisui":"×","kazan":"×"}}
,{"type":"Feature","geometry":{"type":"Point","coordinates":[135.0123878,34.67194]},"properties":{"Name":"伊川谷小学校","Jusho":"兵庫県神戸市西区北別府3-3-1","kouzui":"○","gake":"○","takashio":"×","jishin":"×","tsunami":"×","kaji":"×","naisui":"×","kazan":"×"}}
,{"type":"Feature","geometry":{"type":"Point","coordinates":[135.0375386,34.6690519]},"properties":{"Name":"長坂小学校","Jusho":"兵庫県神戸市西区伊川谷町長坂910-1","kouzui":"○","gake":"○","takashio":"×","jishin":"×","tsunami":"×","kaji":"×","naisui":"×","kazan":"×"}}
,{"type":"Feature","geometry":{"type":"Point","coordinates":[135.0374164,34.6707128]},"properties":{"Name":"長坂中学校","Jusho":"兵庫県神戸市西区伊川谷町長坂841-1","kouzui":"○","gake":"○","takashio":"×","jishin":"×","tsunami":"×","kaji":"×","naisui":"×","kazan":"×"}}
,{"type":"Feature","geometry":{"type":"Point","coordinates":[135.0356914,34.6709433]},"properties":{"Name":"伊川谷高校","Jusho":"兵庫県神戸市西区伊川谷町長坂910-5","kouzui":"○","gake":"○","takashio":"×","jishin":"×","tsunami":"×","kaji":"×","naisui":"×","kazan":"×"}}
,{"type":"Feature","geometry":{"type":"Point","coordinates":[135.0186403,34.6641328]},"properties":{"Name":"有瀬小学校","Jusho":"兵庫県神戸市西区伊川谷町有瀬1137-1","kouzui":"○","gake":"○","takashio":"×","jishin":"×","tsunami":"×","kaji":"×","naisui":"×","kazan":"×"}}
,{"type":"Feature","geometry":{"type":"Point","coordinates":[135.0193008,34.6779617]},"properties":{"Name":"伊川谷中学校","Jusho":"兵庫県神戸市西区伊川谷町上脇1005-2","kouzui":"○","gake":"×","takashio":"×","jishin":"×","tsunami":"×","kaji":"×","naisui":"×","kazan":"×"}}
,{"type":"Feature","geometry":{"type":"Point","coordinates":[135.0545452,34.6837347]},"properties":{"Name":"小寺小学校","Jusho":"兵庫県神戸市西区学園西町5-5","kouzui":"○","gake":"○","takashio":"×","jishin":"×","tsunami":"×","kaji":"×","naisui":"×","kazan":"×"}}
,{"type":"Feature","geometry":{"type":"Point","coordinates":[135.05207755265,34.678246520299]},"properties":{"Name":"兵庫県立大学（神戸商科キャンパス）","Jusho":"兵庫県神戸市西区学園西町8-2-1","kouzui":"○","gake":"○","takashio":"×","jishin":"×","tsunami":"×","kaji":"×","naisui":"×","kazan":"×"}}
,{"type":"Feature","geometry":{"type":"Point","coordinates":[135.0648386,34.6844064]},"properties":{"Name":"東町小学校","Jusho":"兵庫県神戸市西区学園東町5-5","kouzui":"○","gake":"○","takashio":"×","jishin":"×","tsunami":"×","kaji":"×","naisui":"×","kazan":"×"}}
,{"type":"Feature","geometry":{"type":"Point","coordinates":[135.0605806,34.6846672]},"properties":{"Name":"太山寺中学校","Jusho":"兵庫県神戸市西区学園東町2-2","kouzui":"○","gake":"○","takashio":"×","jishin":"×","tsunami":"×","kaji":"×","naisui":"×","kazan":"×"}}
,{"type":"Feature","geometry":{"type":"Point","coordinates":[135.0604031,34.6798088]},"properties":{"Name":"神戸市外国語大学","Jusho":"兵庫県神戸市西区学園東町9-1","kouzui":"○","gake":"×","takashio":"×","jishin":"×","tsunami":"×","kaji":"×","naisui":"×","kazan":"×"}}
,{"type":"Feature","geometry":{"type":"Point","coordinates":[135.0675356,34.6793236]},"properties":{"Name":"工業高等専門学校","Jusho":"兵庫県神戸市西区学園東町8-3","kouzui":"○","gake":"×","takashio":"×","jishin":"×","tsunami":"×","kaji":"×","naisui":"×","kazan":"×"}}
,{"type":"Feature","geometry":{"type":"Point","coordinates":[135.0380156,34.7040231]},"properties":{"Name":"井吹東小学校","Jusho":"兵庫県神戸市西区井吹台東町5-32","kouzui":"○","gake":"○","takashio":"×","jishin":"×","tsunami":"×","kaji":"×","naisui":"×","kazan":"×"}}
,{"type":"Feature","geometry":{"type":"Point","coordinates":[135.0303164,34.6968239]},"properties":{"Name":"井吹台中学校","Jusho":"兵庫県神戸市西区井吹台西町2-3","kouzui":"○","gake":"○","takashio":"×","jishin":"×","tsunami":"×","kaji":"×","naisui":"×","kazan":"×"}}
,{"type":"Feature","geometry":{"type":"Point","coordinates":[135.0228586,34.6934683]},"properties":{"Name":"井吹西小学校","Jusho":"兵庫県神戸市西区井吹台西町4-3","kouzui":"○","gake":"○","takashio":"×","jishin":"×","tsunami":"×","kaji":"×","naisui":"×","kazan":"×"}}
,{"type":"Feature","geometry":{"type":"Point","coordinates":[135.030916,34.705529]},"properties":{"Name":"井吹の丘小学校","Jusho":"兵庫県神戸市西区井吹台北町2-18","kouzui":"○","gake":"○","takashio":"×","jishin":"×","tsunami":"×","kaji":"×","naisui":"×","kazan":"×"}}
,{"type":"Feature","geometry":{"type":"Point","coordinates":[134.9957164,34.7088081]},"properties":{"Name":"春日台小学校","Jusho":"兵庫県神戸市西区春日台4-1","kouzui":"○","gake":"○","takashio":"×","jishin":"×","tsunami":"×","kaji":"×","naisui":"×","kazan":"×"}}
,{"type":"Feature","geometry":{"type":"Point","coordinates":[134.9982078,34.7096692]},"properties":{"Name":"平野中学校","Jusho":"兵庫県神戸市西区春日台2-20","kouzui":"○","gake":"○","takashio":"×","jishin":"×","tsunami":"×","kaji":"×","naisui":"×","kazan":"×"}}
,{"type":"Feature","geometry":{"type":"Point","coordinates":[134.9890086,34.7029142]},"properties":{"Name":"西体育館","Jusho":"兵庫県神戸市西区春日台5-436","kouzui":"○","gake":"○","takashio":"×","jishin":"×","tsunami":"×","kaji":"×","naisui":"×","kazan":"×"}}
,{"type":"Feature","geometry":{"type":"Point","coordinates":[135.0056153,34.7199569]},"properties":{"Name":"美賀多台小学校","Jusho":"兵庫県神戸市西区美賀多台6-1","kouzui":"○","gake":"○","takashio":"×","jishin":"×","tsunami":"×","kaji":"×","naisui":"×","kazan":"×"}}
,{"type":"Feature","geometry":{"type":"Point","coordinates":[134.9820253,34.7062146]},"properties":{"Name":"平野小学校","Jusho":"兵庫県神戸市西区平野町宮前301","kouzui":"○","gake":"○","takashio":"×","jishin":"×","tsunami":"×","kaji":"×","naisui":"×","kazan":"×"}}
,{"type":"Feature","geometry":{"type":"Point","coordinates":[135.0256053,34.7100417]},"properties":{"Name":"櫨谷小学校","Jusho":"兵庫県神戸市西区櫨谷町池谷203-2","kouzui":"○","gake":"○","takashio":"×","jishin":"×","tsunami":"×","kaji":"×","naisui":"×","kazan":"×"}}
,{"type":"Feature","geometry":{"type":"Point","coordinates":[135.0234694,34.7197461]},"properties":{"Name":"糀台小学校","Jusho":"兵庫県神戸市西区糀台3-32-1","kouzui":"○","gake":"○","takashio":"×","jishin":"×","tsunami":"×","kaji":"×","naisui":"×","kazan":"×"}}
,{"type":"Feature","geometry":{"type":"Point","coordinates":[135.0286272,34.7179436]},"properties":{"Name":"櫨谷中学校","Jusho":"兵庫県神戸市西区糀台1-2","kouzui":"○","gake":"○","takashio":"×","jishin":"×","tsunami":"×","kaji":"×","naisui":"×","kazan":"×"}}
,{"type":"Feature","geometry":{"type":"Point","coordinates":[135.03239362,34.72279041]},"properties":{"Name":"狩場台小学校","Jusho":"兵庫県神戸市西区狩場台3-6-1","kouzui":"○","gake":"○","takashio":"×","jishin":"×","tsunami":"×","kaji":"×","naisui":"×","kazan":"×"}}
,{"type":"Feature","geometry":{"type":"Point","coordinates":[135.0127814,34.7126633]},"properties":{"Name":"竹の台小学校","Jusho":"兵庫県神戸市西区竹の台2-10-2","kouzui":"○","gake":"○","takashio":"×","jishin":"×","tsunami":"×","kaji":"×","naisui":"×","kazan":"×"}}
,{"type":"Feature","geometry":{"type":"Point","coordinates":[135.0096733,34.7142075]},"properties":{"Name":"西神中学校","Jusho":"兵庫県神戸市西区竹の台5-21","kouzui":"○","gake":"○","takashio":"×","jishin":"×","tsunami":"×","kaji":"×","naisui":"×","kazan":"×"}}
,{"type":"Feature","geometry":{"type":"Point","coordinates":[135.0016297,34.7065139]},"properties":{"Name":"樫野台小学校","Jusho":"兵庫県神戸市西区樫野台3-3-1","kouzui":"○","gake":"○","takashio":"×","jishin":"×","tsunami":"×","kaji":"×","naisui":"×","kazan":"×"}}
,{"type":"Feature","geometry":{"type":"Point","coordinates":[135.0654018,34.7432542]},"properties":{"Name":"木津小学校","Jusho":"兵庫県神戸市西区桜が丘東町5-149-31","kouzui":"○","gake":"○","takashio":"×","jishin":"×","tsunami":"×","kaji":"×","naisui":"×","kazan":"×"}}
,{"type":"Feature","geometry":{"type":"Point","coordinates":[135.0583913,34.7451914]},"properties":{"Name":"桜が丘小学校","Jusho":"兵庫県神戸市西区桜が丘中町3-3-2","kouzui":"○","gake":"○","takashio":"×","jishin":"×","tsunami":"×","kaji":"×","naisui":"×","kazan":"×"}}
,{"type":"Feature","geometry":{"type":"Point","coordinates":[135.0608211,34.7487378]},"properties":{"Name":"桜が丘中学校","Jusho":"兵庫県神戸市西区桜が丘東町2-11-1","kouzui":"○","gake":"○","takashio":"×","jishin":"×","tsunami":"×","kaji":"×","naisui":"×","kazan":"×"}}
,{"type":"Feature","geometry":{"type":"Point","coordinates":[135.0376092,34.7556728]},"properties":{"Name":"押部谷小学校","Jusho":"兵庫県神戸市西区押部谷町福住552-3","kouzui":"○","gake":"○","takashio":"×","jishin":"×","tsunami":"×","kaji":"×","naisui":"×","kazan":"×"}}
,{"type":"Feature","geometry":{"type":"Point","coordinates":[135.0313931,34.7627022]},"properties":{"Name":"北山小学校","Jusho":"兵庫県神戸市西区北山台3-26-1","kouzui":"○","gake":"○","takashio":"×","jishin":"×","tsunami":"×","kaji":"×","naisui":"×","kazan":"×"}}
,{"type":"Feature","geometry":{"type":"Point","coordinates":[135.0443642,34.7573756]},"properties":{"Name":"押部谷中学校","Jusho":"兵庫県神戸市西区押部谷町押部722","kouzui":"○","gake":"○","takashio":"×","jishin":"×","tsunami":"×","kaji":"×","naisui":"×","kazan":"×"}}
,{"type":"Feature","geometry":{"type":"Point","coordinates":[135.0491254,34.7595488]},"properties":{"Name":"月が丘小学校","Jusho":"兵庫県神戸市西区月が丘7-2","kouzui":"○","gake":"○","takashio":"×","jishin":"×","tsunami":"×","kaji":"×","naisui":"×","kazan":"×"}}
,{"type":"Feature","geometry":{"type":"Point","coordinates":[135.0128176,34.7411234]},"properties":{"Name":"高和小学校","Jusho":"兵庫県神戸市西区押部谷町高和565","kouzui":"○","gake":"○","takashio":"×","jishin":"×","tsunami":"×","kaji":"×","naisui":"×","kazan":"×"}}
,{"type":"Feature","geometry":{"type":"Point","coordinates":[134.9877978,34.68478]},"properties":{"Name":"玉津第一小学校","Jusho":"兵庫県神戸市西区小山1-4-1","kouzui":"○","gake":"○","takashio":"×","jishin":"×","tsunami":"×","kaji":"×","naisui":"×","kazan":"×"}}
,{"type":"Feature","geometry":{"type":"Point","coordinates":[134.9726714,34.6774028]},"properties":{"Name":"出合小学校","Jusho":"兵庫県神戸市西区中野1-22-1","kouzui":"○","gake":"○","takashio":"×","jishin":"×","tsunami":"×","kaji":"×","naisui":"×","kazan":"×"}}
,{"type":"Feature","geometry":{"type":"Point","coordinates":[134.97354378,34.67410326]},"properties":{"Name":"王塚台中学校","Jusho":"兵庫県神戸市西区王塚台4-58","kouzui":"○","gake":"○","takashio":"×","jishin":"×","tsunami":"×","kaji":"×","naisui":"×","kazan":"×"}}
,{"type":"Feature","geometry":{"type":"Point","coordinates":[134.9778628,34.6647678]},"properties":{"Name":"枝吉小学校","Jusho":"兵庫県神戸市西区技吉2-95","kouzui":"○","gake":"○","takashio":"×","jishin":"×","tsunami":"×","kaji":"×","naisui":"×","kazan":"×"}}
,{"type":"Feature","geometry":{"type":"Point","coordinates":[134.9949753,34.6702592]},"properties":{"Name":"高津橋小学校","Jusho":"兵庫県神戸市西区玉津町高津橋640-1","kouzui":"○","gake":"○","takashio":"×","jishin":"×","tsunami":"×","kaji":"×","naisui":"×","kazan":"×"}}
,{"type":"Feature","geometry":{"type":"Point","coordinates":[134.99081753,34.66024924]},"properties":{"Name":"玉津南公民館","Jusho":"兵庫県神戸市西区玉津町上池314","kouzui":"○","gake":"○","takashio":"×","jishin":"×","tsunami":"×","kaji":"×","naisui":"×","kazan":"×"}}
,{"type":"Feature","geometry":{"type":"Point","coordinates":[134.9924864,34.6783472]},"properties":{"Name":"玉津中学校","Jusho":"兵庫県神戸市西区玉津町今津364","kouzui":"○","gake":"○","takashio":"×","jishin":"×","tsunami":"×","kaji":"×","naisui":"×","kazan":"×"}}
,{"type":"Feature","geometry":{"type":"Point","coordinates":[134.9877333,34.7473706]},"properties":{"Name":"神出小学校","Jusho":"兵庫県神戸市西区神出町田井444","kouzui":"○","gake":"○","takashio":"×","jishin":"×","tsunami":"×","kaji":"×","naisui":"×","kazan":"×"}}
,{"type":"Feature","geometry":{"type":"Point","coordinates":[134.9964433,34.7548142]},"properties":{"Name":"神出中学校","Jusho":"兵庫県神戸市西区神出町東1167","kouzui":"○","gake":"○","takashio":"×","jishin":"×","tsunami":"×","kaji":"×","naisui":"×","kazan":"×"}}
,{"type":"Feature","geometry":{"type":"Point","coordinates":[134.9442931,34.7182292]},"properties":{"Name":"岩岡小学校","Jusho":"兵庫県神戸市西区岩岡町古郷267","kouzui":"○","gake":"○","takashio":"×","jishin":"×","tsunami":"×","kaji":"×","naisui":"×","kazan":"×"}}
,{"type":"Feature","geometry":{"type":"Point","coordinates":[134.9433792,34.7162822]},"properties":{"Name":"岩岡中学校","Jusho":"兵庫県神戸市西区岩岡町古郷249-1","kouzui":"○","gake":"○","takashio":"×","jishin":"×","tsunami":"×","kaji":"×","naisui":"×","kazan":"×"}}
,{"type":"Feature","geometry":{"type":"Point","coordinates":[135.28877439392,34.720544231015]},"properties":{"Name":"本庄小学校グラウンド","Jusho":"兵庫県神戸市東灘区青木4-4-1","kouzui":"×","gake":"×","takashio":"×","jishin":"○","tsunami":"×","kaji":"○","naisui":"×","kazan":"×"}}
,{"type":"Feature","geometry":{"type":"Point","coordinates":[135.28789018228,34.72009133124]},"properties":{"Name":"本庄中学校グラウンド","Jusho":"兵庫県神戸市東灘区青木4-4-2","kouzui":"×","gake":"×","takashio":"×","jishin":"○","tsunami":"×","kaji":"○","naisui":"×","kazan":"×"}}
,{"type":"Feature","geometry":{"type":"Point","coordinates":[135.2850366,34.7195558]},"properties":{"Name":"本庄中央公園","Jusho":"兵庫県神戸市東灘区青木5-18","kouzui":"×","gake":"×","takashio":"×","jishin":"○","tsunami":"×","kaji":"○","naisui":"×","kazan":"×"}}
,{"type":"Feature","geometry":{"type":"Point","coordinates":[135.26973979206,34.724899481012]},"properties":{"Name":"本山第二小学校グラウンド","Jusho":"兵庫県神戸市東灘区西岡本1-3-1","kouzui":"×","gake":"×","takashio":"×","jishin":"○","tsunami":"○","kaji":"○","naisui":"×","kazan":"×"}}
,{"type":"Feature","geometry":{"type":"Point","coordinates":[135.27099900371,34.725117838512]},"properties":{"Name":"本山中学校グラウンド","Jusho":"兵庫県神戸市東灘区岡本3-3-1","kouzui":"×","gake":"×","takashio":"×","jishin":"○","tsunami":"○","kaji":"○","naisui":"×","kazan":"×"}}
,{"type":"Feature","geometry":{"type":"Point","coordinates":[135.26470523624,34.716729369798]},"properties":{"Name":"住吉小学校グラウンド","Jusho":"兵庫県神戸市東灘区住吉東町4-1-31","kouzui":"×","gake":"×","takashio":"×","jishin":"○","tsunami":"○","kaji":"○","naisui":"×","kazan":"×"}}
,{"type":"Feature","geometry":{"type":"Point","coordinates":[135.26357267673,34.716795332028]},"properties":{"Name":"住吉宮町公園","Jusho":"兵庫県神戸市東灘区住吉宮町3-2","kouzui":"×","gake":"×","takashio":"×","jishin":"○","tsunami":"○","kaji":"○","naisui":"×","kazan":"×"}}
,{"type":"Feature","geometry":{"type":"Point","coordinates":[135.2624276,34.7162364]},"properties":{"Name":"住吉公園","Jusho":"兵庫県神戸市東灘区住吉宮町3-3","kouzui":"×","gake":"×","takashio":"×","jishin":"○","tsunami":"○","kaji":"○","naisui":"×","kazan":"×"}}
,{"type":"Feature","geometry":{"type":"Point","coordinates":[135.25167077487,34.714421940904]},"properties":{"Name":"御影小学校グラウンド","Jusho":"兵庫県神戸市東灘区御影石町3-1-1","kouzui":"×","gake":"×","takashio":"×","jishin":"○","tsunami":"○","kaji":"○","naisui":"×","kazan":"×"}}
,{"type":"Feature","geometry":{"type":"Point","coordinates":[135.25091689074,34.715359906033]},"properties":{"Name":"御影幼稚園グラウンド","Jusho":"兵庫県神戸市東灘区御影石町3-13-1","kouzui":"×","gake":"×","takashio":"×","jishin":"○","tsunami":"○","kaji":"○","naisui":"×","kazan":"×"}}
,{"type":"Feature","geometry":{"type":"Point","coordinates":[135.2506612,34.7388364]},"properties":{"Name":"渦が森小学校グラウンド","Jusho":"兵庫県神戸市東灘区渦森台1-12-1","kouzui":"×","gake":"×","takashio":"×","jishin":"○","tsunami":"○","kaji":"○","naisui":"×","kazan":"×"}}
,{"type":"Feature","geometry":{"type":"Point","coordinates":[135.27924368227,34.721473259268]},"properties":{"Name":"福池小学校グラウンド","Jusho":"兵庫県神戸市東灘区本山南町4-4-28","kouzui":"×","gake":"×","takashio":"×","jishin":"○","tsunami":"○","kaji":"○","naisui":"×","kazan":"×"}}
,{"type":"Feature","geometry":{"type":"Point","coordinates":[135.280288,34.721703]},"properties":{"Name":"小寄公園","Jusho":"兵庫県神戸市東灘区本山南町4-4","kouzui":"×","gake":"×","takashio":"×","jishin":"○","tsunami":"○","kaji":"○","naisui":"×","kazan":"×"}}
,{"type":"Feature","geometry":{"type":"Point","coordinates":[135.25432715952,34.731645506396]},"properties":{"Name":"神大附属中等教育学校グラウンド","Jusho":"兵庫県神戸市東灘区住吉山手5-11-1","kouzui":"×","gake":"×","takashio":"×","jishin":"○","tsunami":"○","kaji":"○","naisui":"×","kazan":"×"}}
,{"type":"Feature","geometry":{"type":"Point","coordinates":[135.27089269577,34.723358445265]},"properties":{"Name":"本山南中学校グラウンド","Jusho":"兵庫県神戸市東灘区田中町4-12-1","kouzui":"×","gake":"×","takashio":"×","jishin":"○","tsunami":"○","kaji":"○","naisui":"×","kazan":"×"}}
,{"type":"Feature","geometry":{"type":"Point","coordinates":[135.27144492275,34.724114142742]},"properties":{"Name":"手水公園","Jusho":"兵庫県神戸市東灘区田中町3-16","kouzui":"×","gake":"×","takashio":"×","jishin":"○","tsunami":"○","kaji":"○","naisui":"×","kazan":"×"}}
,{"type":"Feature","geometry":{"type":"Point","coordinates":[135.2535562,34.7156447]},"properties":{"Name":"御影中学校グラウンド","Jusho":"兵庫県神戸市東灘区御影中町5-1-1","kouzui":"×","gake":"×","takashio":"×","jishin":"○","tsunami":"○","kaji":"○","naisui":"×","kazan":"×"}}
,{"type":"Feature","geometry":{"type":"Point","coordinates":[135.25417685508,34.714992072684]},"properties":{"Name":"御影公園","Jusho":"兵庫県神戸市東灘区御影中町5-1","kouzui":"×","gake":"×","takashio":"×","jishin":"○","tsunami":"○","kaji":"○","naisui":"×","kazan":"×"}}
,{"type":"Feature","geometry":{"type":"Point","coordinates":[135.27968622276,34.713409400657]},"properties":{"Name":"魚崎中学校グラウンド","Jusho":"兵庫県神戸市東灘区魚崎南町1-2-1","kouzui":"×","gake":"×","takashio":"×","jishin":"○","tsunami":"×","kaji":"○","naisui":"×","kazan":"×"}}
,{"type":"Feature","geometry":{"type":"Point","coordinates":[135.2801512,34.7127397]},"properties":{"Name":"瀬戸公園","Jusho":"兵庫県神戸市東灘区魚崎南町1-2","kouzui":"×","gake":"×","takashio":"×","jishin":"○","tsunami":"×","kaji":"○","naisui":"×","kazan":"×"}}
,{"type":"Feature","geometry":{"type":"Point","coordinates":[135.290864,34.729851]},"properties":{"Name":"森公園","Jusho":"兵庫県神戸市東灘区森南町2-10","kouzui":"×","gake":"×","takashio":"×","jishin":"○","tsunami":"○","kaji":"○","naisui":"×","kazan":"×"}}
,{"type":"Feature","geometry":{"type":"Point","coordinates":[135.2423583553,34.715282105817]},"properties":{"Name":"成徳小学校グラウンド","Jusho":"兵庫県神戸市灘区備後町1-3-1","kouzui":"×","gake":"×","takashio":"×","jishin":"○","tsunami":"○","kaji":"○","naisui":"×","kazan":"×"}}
,{"type":"Feature","geometry":{"type":"Point","coordinates":[135.24213615278,34.714748843024]},"properties":{"Name":"成徳公園","Jusho":"兵庫県神戸市灘区備後町1-3","kouzui":"×","gake":"×","takashio":"×","jishin":"○","tsunami":"○","kaji":"○","naisui":"×","kazan":"×"}}
,{"type":"Feature","geometry":{"type":"Point","coordinates":[135.24296428518,34.716518735258]},"properties":{"Name":"大和公園","Jusho":"兵庫県神戸市灘区中郷町5-1　他","kouzui":"×","gake":"×","takashio":"×","jishin":"○","tsunami":"○","kaji":"○","naisui":"×","kazan":"×"}}
,{"type":"Feature","geometry":{"type":"Point","coordinates":[135.235168,34.715526]},"properties":{"Name":"六甲風の郷公園","Jusho":"兵庫県神戸市灘区六甲町2-4-25","kouzui":"×","gake":"×","takashio":"×","jishin":"○","tsunami":"○","kaji":"○","naisui":"×","kazan":"×"}}
,{"type":"Feature","geometry":{"type":"Point","coordinates":[135.238937,34.712787]},"properties":{"Name":"六甲道南公園","Jusho":"兵庫県神戸市灘区桜口4　他","kouzui":"×","gake":"×","takashio":"×","jishin":"○","tsunami":"○","kaji":"○","naisui":"×","kazan":"×"}}
,{"type":"Feature","geometry":{"type":"Point","coordinates":[135.2169476,34.7100258]},"properties":{"Name":"王子公園","Jusho":"兵庫県神戸市灘区王子町2-1　他","kouzui":"×","gake":"×","takashio":"×","jishin":"○","tsunami":"○","kaji":"○","naisui":"×","kazan":"×"}}
,{"type":"Feature","geometry":{"type":"Point","coordinates":[135.2248194,34.7021519]},"properties":{"Name":"西郷川河口公園","Jusho":"兵庫県神戸市灘区摩耶海岸通2-1","kouzui":"×","gake":"×","takashio":"×","jishin":"○","tsunami":"○","kaji":"○","naisui":"×","kazan":"×"}}
,{"type":"Feature","geometry":{"type":"Point","coordinates":[135.2215447,34.7000798]},"properties":{"Name":"摩耶海岸通公園","Jusho":"兵庫県神戸市灘区摩耶海岸通1-2","kouzui":"×","gake":"×","takashio":"×","jishin":"○","tsunami":"×","kaji":"○","naisui":"×","kazan":"×"}}
,{"type":"Feature","geometry":{"type":"Point","coordinates":[135.21142050185,34.710487707149]},"properties":{"Name":"上筒井小学校グラウンド","Jusho":"兵庫県神戸市中央区野崎通1-1-2","kouzui":"×","gake":"×","takashio":"×","jishin":"○","tsunami":"○","kaji":"○","naisui":"×","kazan":"×"}}
,{"type":"Feature","geometry":{"type":"Point","coordinates":[135.20980227909,34.709861416839]},"properties":{"Name":"筒井台中学校グラウンド","Jusho":"兵庫県神戸市中央区野崎通1-1-3","kouzui":"×","gake":"×","takashio":"×","jishin":"○","tsunami":"○","kaji":"○","naisui":"×","kazan":"×"}}
,{"type":"Feature","geometry":{"type":"Point","coordinates":[135.21057890185,34.710187009511]},"properties":{"Name":"葺合高校グラウンド","Jusho":"兵庫県神戸市中央区野崎通1-1-1","kouzui":"×","gake":"×","takashio":"×","jishin":"○","tsunami":"○","kaji":"○","naisui":"×","kazan":"×"}}
,{"type":"Feature","geometry":{"type":"Point","coordinates":[135.2146065,34.6969216]},"properties":{"Name":"なぎさ公園","Jusho":"兵庫県神戸市中央区脇浜海岸通1-2","kouzui":"×","gake":"×","takashio":"×","jishin":"○","tsunami":"×","kaji":"○","naisui":"×","kazan":"×"}}
,{"type":"Feature","geometry":{"type":"Point","coordinates":[135.209196,34.695005]},"properties":{"Name":"脇浜海岸通公園","Jusho":"兵庫県神戸市中央区脇浜海岸通4-2","kouzui":"×","gake":"×","takashio":"×","jishin":"○","tsunami":"×","kaji":"○","naisui":"×","kazan":"×"}}
,{"type":"Feature","geometry":{"type":"Point","coordinates":[135.21066384841,34.697893654979]},"properties":{"Name":"なぎさ小学校グラウンド","Jusho":"兵庫県神戸市中央区脇浜海岸通2-4-1","kouzui":"×","gake":"×","takashio":"×","jishin":"○","tsunami":"○","kaji":"○","naisui":"×","kazan":"×"}}
,{"type":"Feature","geometry":{"type":"Point","coordinates":[135.21726008413,34.700719861804]},"properties":{"Name":"渚中学校グラウンド","Jusho":"兵庫県神戸市中央区脇浜海岸通2-1-1","kouzui":"×","gake":"×","takashio":"×","jishin":"○","tsunami":"○","kaji":"○","naisui":"×","kazan":"×"}}
,{"type":"Feature","geometry":{"type":"Point","coordinates":[135.196064,34.6887998]},"properties":{"Name":"東遊園地","Jusho":"兵庫県神戸市中央区加納町6-4","kouzui":"×","gake":"×","takashio":"×","jishin":"○","tsunami":"○","kaji":"○","naisui":"×","kazan":"×"}}
,{"type":"Feature","geometry":{"type":"Point","coordinates":[135.199181,34.691486]},"properties":{"Name":"磯上公園","Jusho":"兵庫県神戸市中央区八幡通2-1","kouzui":"×","gake":"×","takashio":"×","jishin":"○","tsunami":"○","kaji":"○","naisui":"×","kazan":"×"}}
,{"type":"Feature","geometry":{"type":"Point","coordinates":[135.1889965135,34.683209198754]},"properties":{"Name":"メリケンパーク","Jusho":"兵庫県神戸市中央区波止場町2","kouzui":"×","gake":"×","takashio":"×","jishin":"○","tsunami":"×","kaji":"○","naisui":"×","kazan":"×"}}
,{"type":"Feature","geometry":{"type":"Point","coordinates":[135.1729242,34.686397]},"properties":{"Name":"大倉山公園","Jusho":"兵庫県神戸市中央区楠町7-4","kouzui":"×","gake":"×","takashio":"×","jishin":"○","tsunami":"○","kaji":"○","naisui":"×","kazan":"×"}}
,{"type":"Feature","geometry":{"type":"Point","coordinates":[135.17221522831,34.683829575101]},"properties":{"Name":"湊翔楠中学校グラウンド","Jusho":"兵庫県神戸市中央区楠町4-2-5","kouzui":"×","gake":"×","takashio":"×","jishin":"○","tsunami":"○","kaji":"○","naisui":"×","kazan":"×"}}
,{"type":"Feature","geometry":{"type":"Point","coordinates":[135.20472184918,34.693454233396]},"properties":{"Name":"生田川公園（ＨＡＴゆめ公園）","Jusho":"兵庫県神戸市中央区脇浜海岸通3","kouzui":"×","gake":"×","takashio":"×","jishin":"○","tsunami":"×","kaji":"○","naisui":"×","kazan":"×"}}
,{"type":"Feature","geometry":{"type":"Point","coordinates":[135.20084751197,34.686750709589]},"properties":{"Name":"神戸震災復興記念公園（みなとのもり公園）","Jusho":"兵庫県神戸市中央区小野浜町","kouzui":"×","gake":"×","takashio":"×","jishin":"○","tsunami":"×","kaji":"○","naisui":"×","kazan":"×"}}
,{"type":"Feature","geometry":{"type":"Point","coordinates":[135.1662804,34.679967]},"properties":{"Name":"湊川公園","Jusho":"兵庫県神戸市兵庫区荒田町1-20","kouzui":"×","gake":"×","takashio":"×","jishin":"○","tsunami":"○","kaji":"○","naisui":"×","kazan":"×"}}
,{"type":"Feature","geometry":{"type":"Point","coordinates":[135.1668247,34.6823501]},"properties":{"Name":"荒田公園","Jusho":"兵庫県神戸市兵庫区荒田町2-19","kouzui":"×","gake":"×","takashio":"×","jishin":"○","tsunami":"○","kaji":"○","naisui":"×","kazan":"×"}}
,{"type":"Feature","geometry":{"type":"Point","coordinates":[135.1533091,34.6823332]},"properties":{"Name":"夢野中学校第２グラウンド","Jusho":"兵庫県神戸市兵庫区鵯越町10-1","kouzui":"×","gake":"×","takashio":"×","jishin":"○","tsunami":"○","kaji":"○","naisui":"×","kazan":"×"}}
,{"type":"Feature","geometry":{"type":"Point","coordinates":[135.15134398718,34.682827919859]},"properties":{"Name":"夢野台公園","Jusho":"兵庫県神戸市兵庫区滝山町","kouzui":"×","gake":"×","takashio":"×","jishin":"○","tsunami":"○","kaji":"○","naisui":"×","kazan":"×"}}
,{"type":"Feature","geometry":{"type":"Point","coordinates":[135.15682222699,34.677117438049]},"properties":{"Name":"会下山公園","Jusho":"兵庫県神戸市兵庫区会下山町3","kouzui":"×","gake":"×","takashio":"×","jishin":"○","tsunami":"○","kaji":"○","naisui":"×","kazan":"×"}}
,{"type":"Feature","geometry":{"type":"Point","coordinates":[135.15516523041,34.678142766858]},"properties":{"Name":"会下山配水場","Jusho":"兵庫県神戸市兵庫区湊川町10","kouzui":"×","gake":"×","takashio":"×","jishin":"○","tsunami":"○","kaji":"○","naisui":"×","kazan":"×"}}
,{"type":"Feature","geometry":{"type":"Point","coordinates":[135.16498696802,34.667617705495]},"properties":{"Name":"キャナルタウン広場（駅前）","Jusho":"兵庫県神戸市兵庫区駅南通5-1","kouzui":"×","gake":"×","takashio":"×","jishin":"○","tsunami":"○","kaji":"○","naisui":"×","kazan":"×"}}
,{"type":"Feature","geometry":{"type":"Point","coordinates":[135.16055595872,34.664696877186]},"properties":{"Name":"兵庫駅南公園","Jusho":"兵庫県神戸市兵庫区駅南通5-2","kouzui":"×","gake":"×","takashio":"×","jishin":"○","tsunami":"○","kaji":"○","naisui":"×","kazan":"×"}}
,{"type":"Feature","geometry":{"type":"Point","coordinates":[135.1606865,34.6638656]},"properties":{"Name":"正慶町公園","Jusho":"兵庫県神戸市兵庫区駅南通4-1","kouzui":"×","gake":"×","takashio":"×","jishin":"○","tsunami":"○","kaji":"○","naisui":"×","kazan":"×"}}
,{"type":"Feature","geometry":{"type":"Point","coordinates":[135.16106021401,34.665058677217]},"properties":{"Name":"キャナルタウン広場（西）","Jusho":"兵庫県神戸市兵庫区駅南通5-2","kouzui":"×","gake":"×","takashio":"×","jishin":"○","tsunami":"○","kaji":"○","naisui":"×","kazan":"×"}}
,{"type":"Feature","geometry":{"type":"Point","coordinates":[135.1701277,34.6576663]},"properties":{"Name":"御崎公園","Jusho":"兵庫県神戸市兵庫区御崎町1-2","kouzui":"×","gake":"×","takashio":"×","jishin":"○","tsunami":"×","kaji":"○","naisui":"×","kazan":"×"}}
,{"type":"Feature","geometry":{"type":"Point","coordinates":[135.1624445,34.6863052]},"properties":{"Name":"菊水公園","Jusho":"兵庫県神戸市兵庫区菊水町3","kouzui":"×","gake":"×","takashio":"×","jishin":"○","tsunami":"○","kaji":"○","naisui":"×","kazan":"×"}}
,{"type":"Feature","geometry":{"type":"Point","coordinates":[135.1355404,34.7225006]},"properties":{"Name":"鈴蘭公園","Jusho":"兵庫県神戸市北区南五葉5-1","kouzui":"×","gake":"×","takashio":"×","jishin":"○","tsunami":"×","kaji":"○","naisui":"×","kazan":"×"}}
,{"type":"Feature","geometry":{"type":"Point","coordinates":[135.13385639206,34.72177535914]},"properties":{"Name":"南五葉小学校グラウンド","Jusho":"兵庫県神戸市北区南五葉3-1-1","kouzui":"×","gake":"×","takashio":"×","jishin":"○","tsunami":"×","kaji":"○","naisui":"×","kazan":"×"}}
,{"type":"Feature","geometry":{"type":"Point","coordinates":[135.13874342426,34.694068010292]},"properties":{"Name":"鵯越墓園","Jusho":"兵庫県神戸市北区山田町下谷上字中一里山","kouzui":"×","gake":"×","takashio":"×","jishin":"○","tsunami":"×","kaji":"○","naisui":"×","kazan":"×"}}
,{"type":"Feature","geometry":{"type":"Point","coordinates":[135.1505957,34.6620795]},"properties":{"Name":"長田南小学校グラウンド","Jusho":"兵庫県神戸市長田区神楽町1-4","kouzui":"×","gake":"×","takashio":"×","jishin":"○","tsunami":"○","kaji":"○","naisui":"×","kazan":"×"}}
,{"type":"Feature","geometry":{"type":"Point","coordinates":[135.1505901,34.6630488]},"properties":{"Name":"神楽公園","Jusho":"兵庫県神戸市長田区細田町1-2","kouzui":"×","gake":"×","takashio":"×","jishin":"○","tsunami":"○","kaji":"○","naisui":"×","kazan":"×"}}
,{"type":"Feature","geometry":{"type":"Point","coordinates":[135.15107357434,34.663725307652]},"properties":{"Name":"新湊川公園","Jusho":"兵庫県神戸市長田区細田町１","kouzui":"×","gake":"×","takashio":"×","jishin":"○","tsunami":"○","kaji":"○","naisui":"×","kazan":"×"}}
,{"type":"Feature","geometry":{"type":"Point","coordinates":[135.14366371297,34.662671772405]},"properties":{"Name":"蓮池小学校グラウンド","Jusho":"兵庫県神戸市長田区大谷町1-1-10","kouzui":"×","gake":"×","takashio":"×","jishin":"○","tsunami":"○","kaji":"○","naisui":"×","kazan":"×"}}
,{"type":"Feature","geometry":{"type":"Point","coordinates":[135.1440462,34.6641265]},"properties":{"Name":"西代蓮池公園","Jusho":"兵庫県神戸市長田区蓮池町","kouzui":"×","gake":"×","takashio":"×","jishin":"○","tsunami":"○","kaji":"○","naisui":"×","kazan":"×"}}
,{"type":"Feature","geometry":{"type":"Point","coordinates":[135.143986,34.660314]},"properties":{"Name":"水笠通公園","Jusho":"兵庫県神戸市長田区水笠通2","kouzui":"×","gake":"×","takashio":"×","jishin":"○","tsunami":"○","kaji":"○","naisui":"×","kazan":"×"}}
,{"type":"Feature","geometry":{"type":"Point","coordinates":[135.1439465,34.6554106]},