var nigata={"type":"FeatureCollection","name":"nigata","features":[
{"type":"Feature","geometry":{"type":"Point","coordinates":[139.21716202037,37.907798245762]},"properties":{"Name":"葛塚小学校","Jusho":"新潟県新潟市北区川西３丁目９番24号","kouzui":"○","gake":"×","takashio":"×","jishin":"○","tsunami":"×","kaji":"×","naisui":"○","kazan":"×"}}
,{"type":"Feature","geometry":{"type":"Point","coordinates":[139.21620370744,37.907944495622]},"properties":{"Name":"豊栄武道館","Jusho":"新潟県新潟市北区川西３丁目5202番地３","kouzui":"×","gake":"×","takashio":"×","jishin":"○","tsunami":"×","kaji":"×","naisui":"×","kazan":"×"}}
,{"type":"Feature","geometry":{"type":"Point","coordinates":[139.21878125406,37.904423038547]},"properties":{"Name":"光晴中学校","Jusho":"新潟県新潟市北区上土地亀4981番地","kouzui":"○","gake":"×","takashio":"×","jishin":"○","tsunami":"×","kaji":"×","naisui":"○","kazan":"×"}}
,{"type":"Feature","geometry":{"type":"Point","coordinates":[139.20832851104,37.911549778718]},"properties":{"Name":"豊栄高等学校","Jusho":"新潟県新潟市北区上土地亀大曲761番地","kouzui":"○","gake":"×","takashio":"×","jishin":"○","tsunami":"×","kaji":"×","naisui":"○","kazan":"×"}}
,{"type":"Feature","geometry":{"type":"Point","coordinates":[139.2187905582,37.916531039331]},"properties":{"Name":"葛塚コミュニティセンター","Jusho":"新潟県新潟市北区葛塚3197番地","kouzui":"○","gake":"×","takashio":"×","jishin":"○","tsunami":"×","kaji":"×","naisui":"○","kazan":"×"}}
,{"type":"Feature","geometry":{"type":"Point","coordinates":[139.22128113465,37.914083025672]},"properties":{"Name":"豊栄さわやか老人福祉センター","Jusho":"新潟県新潟市北区東栄町１丁目１番35号","kouzui":"○","gake":"×","takashio":"×","jishin":"○","tsunami":"×","kaji":"×","naisui":"○","kazan":"×"}}
,{"type":"Feature","geometry":{"type":"Point","coordinates":[139.21865644582,37.912442482105]},"properties":{"Name":"かやま保育園","Jusho":"新潟県新潟市北区嘉山１丁目２番41号","kouzui":"×","gake":"×","takashio":"×","jishin":"○","tsunami":"×","kaji":"×","naisui":"×","kazan":"×"}}
,{"type":"Feature","geometry":{"type":"Point","coordinates":[139.22426018456,37.905664530527]},"properties":{"Name":"豊栄総合体育館","Jusho":"新潟県新潟市北区嘉山488番地３","kouzui":"○","gake":"×","takashio":"×","jishin":"○","tsunami":"×","kaji":"×","naisui":"○","kazan":"×"}}
,{"type":"Feature","geometry":{"type":"Point","coordinates":[139.23249260256,37.902958034771]},"properties":{"Name":"若葉保育園","Jusho":"新潟県新潟市北区新鼻279番地２","kouzui":"×","gake":"×","takashio":"×","jishin":"○","tsunami":"×","kaji":"×","naisui":"×","kazan":"×"}}
,{"type":"Feature","geometry":{"type":"Point","coordinates":[139.22712818452,37.916793779162]},"properties":{"Name":"葛塚東小学校","Jusho":"新潟県新潟市北区朝日町４丁目１番２号","kouzui":"○","gake":"×","takashio":"×","jishin":"○","tsunami":"×","kaji":"×","naisui":"○","kazan":"×"}}
,{"type":"Feature","geometry":{"type":"Point","coordinates":[139.22959553948,37.922221463125]},"properties":{"Name":"葛塚中学校","Jusho":"新潟県新潟市北区太田乙433番地","kouzui":"○","gake":"○","takashio":"×","jishin":"○","tsunami":"×","kaji":"×","naisui":"○","kazan":"×"}}
,{"type":"Feature","geometry":{"type":"Point","coordinates":[139.21636544546,37.923171443483]},"properties":{"Name":"県立若草寮","Jusho":"新潟県新潟市北区石動１丁目１番地１","kouzui":"○","gake":"×","takashio":"×","jishin":"○","tsunami":"×","kaji":"×","naisui":"○","kazan":"×"}}
,{"type":"Feature","geometry":{"type":"Point","coordinates":[139.21475612005,37.921842695302]},"properties":{"Name":"すみれ保育園","Jusho":"新潟県新潟市北区石動１丁目10番地１","kouzui":"×","gake":"×","takashio":"×","jishin":"○","tsunami":"×","kaji":"×","naisui":"×","kazan":"×"}}
,{"type":"Feature","geometry":{"type":"Point","coordinates":[139.237525,37.931042]},"properties":{"Name":"新潟市文書館","Jusho":"新潟県新潟市北区太田862番地1","kouzui":"○","gake":"×","takashio":"×","jishin":"○","tsunami":"×","kaji":"×","naisui":"○","kazan":"×"}}
,{"type":"Feature","geometry":{"type":"Point","coordinates":[139.23563981308,37.932096107442]},"properties":{"Name":"太田保育園","Jusho":"新潟県新潟市北区太田2005番地","kouzui":"○","gake":"×","takashio":"×","jishin":"○","tsunami":"×","kaji":"×","naisui":"○","kazan":"×"}}
,{"type":"Feature","geometry":{"type":"Point","coordinates":[139.19482348962,37.940949977312]},"properties":{"Name":"木崎小学校","Jusho":"新潟県新潟市北区木崎2973番地","kouzui":"○","gake":"×","takashio":"×","jishin":"○","tsunami":"×","kaji":"×","naisui":"○","kazan":"×"}}
,{"type":"Feature","geometry":{"type":"Point","coordinates":[139.20115298165,37.94529482059]},"properties":{"Name":"木崎中学校","Jusho":"新潟県新潟市北区木崎3291番地１","kouzui":"○","gake":"×","takashio":"×","jishin":"○","tsunami":"×","kaji":"×","naisui":"○","kazan":"×"}}
,{"type":"Feature","geometry":{"type":"Point","coordinates":[139.2001647615,37.945464002675]},"properties":{"Name":"木崎コミュニティセンター","Jusho":"新潟県新潟市北区木崎3227番地","kouzui":"○","gake":"×","takashio":"×","jishin":"○","tsunami":"×","kaji":"×","naisui":"○","kazan":"×"}}
,{"type":"Feature","geometry":{"type":"Point","coordinates":[139.20447775012,37.952510615641]},"properties":{"Name":"笹山公民館","Jusho":"新潟県新潟市北区笹山2058番地","kouzui":"×","gake":"×","takashio":"×","jishin":"○","tsunami":"×","kaji":"×","naisui":"×","kazan":"×"}}
,{"type":"Feature","geometry":{"type":"Point","coordinates":[139.21857029681,37.938083222597]},"properties":{"Name":"木崎保育園","Jusho":"新潟県新潟市北区横井279番地","kouzui":"○","gake":"×","takashio":"×","jishin":"○","tsunami":"×","kaji":"×","naisui":"○","kazan":"×"}}
,{"type":"Feature","geometry":{"type":"Point","coordinates":[139.18568420151,37.876777572906]},"properties":{"Name":"岡方第一小学校","Jusho":"新潟県新潟市北区長戸呂985番地","kouzui":"○","gake":"×","takashio":"×","jishin":"○","tsunami":"×","kaji":"×","naisui":"○","kazan":"×"}}
,{"type":"Feature","geometry":{"type":"Point","coordinates":[139.18577846083,37.877289574737]},"properties":{"Name":"越岡保育園","Jusho":"新潟県新潟市北区十二321番地","kouzui":"×","gake":"×","takashio":"×","jishin":"○","tsunami":"×","kaji":"×","naisui":"×","kazan":"×"}}
,{"type":"Feature","geometry":{"type":"Point","coordinates":[139.16803555196,37.887092973417]},"properties":{"Name":"岡方中学校","Jusho":"新潟県新潟市北区太子堂104番地","kouzui":"○","gake":"×","takashio":"×","jishin":"○","tsunami":"×","kaji":"×","naisui":"○","kazan":"×"}}
,{"type":"Feature","geometry":{"type":"Point","coordinates":[139.17863611159,37.884149301424]},"properties":{"Name":"岡方コミュニティセンター","Jusho":"新潟県新潟市北区長戸呂4601番地","kouzui":"×","gake":"×","takashio":"×","jishin":"○","tsunami":"×","kaji":"×","naisui":"×","kazan":"×"}}
,{"type":"Feature","geometry":{"type":"Point","coordinates":[139.16491294131,37.90483821104]},"properties":{"Name":"岡方第二小学校","Jusho":"新潟県新潟市北区森下1223番地","kouzui":"○","gake":"○","takashio":"×","jishin":"○","tsunami":"×","kaji":"×","naisui":"○","kazan":"×"}}
,{"type":"Feature","geometry":{"type":"Point","coordinates":[139.1659214519,37.905278410379]},"properties":{"Name":"三ツ森保育園","Jusho":"新潟県新潟市北区森下1409番地","kouzui":"×","gake":"×","takashio":"×","jishin":"○","tsunami":"×","kaji":"×","naisui":"×","kazan":"×"}}
,{"type":"Feature","geometry":{"type":"Point","coordinates":[139.2136934959,37.878776108308]},"properties":{"Name":"豊栄南小学校","Jusho":"新潟県新潟市北区長場2621番地","kouzui":"○","gake":"×","takashio":"×","jishin":"○","tsunami":"×","kaji":"×","naisui":"○","kazan":"×"}}
,{"type":"Feature","geometry":{"type":"Point","coordinates":[139.21341950794,37.885834944829]},"properties":{"Name":"長浦コミュニティセンター","Jusho":"新潟県新潟市北区長場1834番地１","kouzui":"×","gake":"×","takashio":"×","jishin":"○","tsunami":"×","kaji":"×","naisui":"×","kazan":"×"}}
,{"type":"Feature","geometry":{"type":"Point","coordinates":[139.18393065603,37.919060741761]},"properties":{"Name":"早通南小学校","Jusho":"新潟県新潟市北区須戸１丁目１番地１","kouzui":"○","gake":"×","takashio":"×","jishin":"○","tsunami":"×","kaji":"×","naisui":"○","kazan":"×"}}
,{"type":"Feature","geometry":{"type":"Point","coordinates":[139.1796448675,37.920510437937]},"properties":{"Name":"早通南保育園","Jusho":"新潟県新潟市北区早通南１丁目９番７号","kouzui":"○","gake":"×","takashio":"×","jishin":"○","tsunami":"×","kaji":"×","naisui":"○","kazan":"×"}}
,{"type":"Feature","geometry":{"type":"Point","coordinates":[139.17638263351,37.920342237581]},"properties":{"Name":"早通コミュニティセンター","Jusho":"新潟県新潟市北区早通37番地１","kouzui":"○","gake":"×","takashio":"×","jishin":"○","tsunami":"×","kaji":"×","naisui":"○","kazan":"×"}}
,{"type":"Feature","geometry":{"type":"Point","coordinates":[139.17651674394,37.920105256026]},"properties":{"Name":"早通児童センター","Jusho":"新潟県新潟市北区早通37番地１","kouzui":"×","gake":"×","takashio":"×","jishin":"○","tsunami":"×","kaji":"×","naisui":"×","kazan":"×"}}
,{"type":"Feature","geometry":{"type":"Point","coordinates":[139.18829174061,37.922032223941]},"properties":{"Name":"早通中学校","Jusho":"新潟県新潟市北区早通396番地","kouzui":"○","gake":"×","takashio":"×","jishin":"○","tsunami":"×","kaji":"×","naisui":"○","kazan":"×"}}
,{"type":"Feature","geometry":{"type":"Point","coordinates":[139.18391387306,37.921000022774]},"properties":{"Name":"早通北保育園","Jusho":"新潟県新潟市北区早通北３丁目７番30号","kouzui":"×","gake":"×","takashio":"×","jishin":"○","tsunami":"×","kaji":"×","naisui":"×","kazan":"×"}}
,{"type":"Feature","geometry":{"type":"Point","coordinates":[139.14004875819,37.952949324325]},"properties":{"Name":"松浜小学校","Jusho":"新潟県新潟市北区松浜３丁目19番地１","kouzui":"○","gake":"○","takashio":"×","jishin":"○","tsunami":"○","kaji":"×","naisui":"○","kazan":"×"}}
,{"type":"Feature","geometry":{"type":"Point","coordinates":[139.14383851262,37.95647478871]},"properties":{"Name":"松浜中学校","Jusho":"新潟県新潟市北区松浜５丁目12番地２","kouzui":"○","gake":"×","takashio":"×","jishin":"○","tsunami":"○","kaji":"×","naisui":"○","kazan":"×"}}
,{"type":"Feature","geometry":{"type":"Point","coordinates":[139.1565265781,37.950545051711]},"properties":{"Name":"北地区コミュニティセンター","Jusho":"新潟県新潟市北区名目所３丁目1129番地","kouzui":"○","gake":"×","takashio":"×","jishin":"○","tsunami":"×","kaji":"×","naisui":"○","kazan":"×"}}
,{"type":"Feature","geometry":{"type":"Point","coordinates":[139.16286167688,37.957154469587]},"properties":{"Name":"太夫浜小学校","Jusho":"新潟県新潟市北区太夫浜2045番地２","kouzui":"○","gake":"×","takashio":"×","jishin":"○","tsunami":"×","kaji":"×","naisui":"○","kazan":"×"}}
,{"type":"Feature","geometry":{"type":"Point","coordinates":[139.19676068155,37.970322397025]},"properties":{"Name":"南浜小学校","Jusho":"新潟県新潟市北区島見町2078番地","kouzui":"○","gake":"×","takashio":"×","jishin":"○","tsunami":"×","kaji":"×","naisui":"○","kazan":"×"}}
,{"type":"Feature","geometry":{"type":"Point","coordinates":[139.19864257479,37.964965048228]},"properties":{"Name":"南浜中学校","Jusho":"新潟県新潟市北区島見町3965番地","kouzui":"○","gake":"×","takashio":"×","jishin":"○","tsunami":"×","kaji":"×","naisui":"○","kazan":"×"}}
,{"type":"Feature","geometry":{"type":"Point","coordinates":[139.20855689932,37.980252916553]},"properties":{"Name":"旧埋蔵文化財センター","Jusho":"新潟県新潟市北区太郎代2554番地","kouzui":"○","gake":"○","takashio":"×","jishin":"○","tsunami":"×","kaji":"×","naisui":"○","kazan":"×"}}
,{"type":"Feature","geometry":{"type":"Point","coordinates":[139.15914444727,37.930747467653]},"properties":{"Name":"濁川小学校","Jusho":"新潟県新潟市北区濁川284番地","kouzui":"○","gake":"×","takashio":"×","jishin":"○","tsunami":"×","kaji":"×","naisui":"○","kazan":"×"}}
,{"type":"Feature","geometry":{"type":"Point","coordinates":[139.16572322985,37.930513457763]},"properties":{"Name":"濁川中学校","Jusho":"新潟県新潟市北区新崎5437番地","kouzui":"○","gake":"×","takashio":"×","jishin":"○","tsunami":"×","kaji":"×","naisui":"○","kazan":"×"}}
,{"type":"Feature","geometry":{"type":"Point","coordinates":[139.07344379679,37.940195565087]},"properties":{"Name":"山の下小学校","Jusho":"新潟県新潟市東区山の下町８番55号","kouzui":"○","gake":"×","takashio":"×","jishin":"○","tsunami":"○","kaji":"×","naisui":"○","kazan":"×"}}
,{"type":"Feature","geometry":{"type":"Point","coordinates":[139.0782269081,37.944463097259]},"properties":{"Name":"桃山小学校","Jusho":"新潟県新潟市東区桃山町２丁目204番地","kouzui":"○","gake":"×","takashio":"×","jishin":"○","tsunami":"○","kaji":"×","naisui":"○","kazan":"×"}}
,{"type":"Feature","geometry":{"type":"Point","coordinates":[139.08287309073,37.942012076654]},"properties":{"Name":"山の下中学校","Jusho":"新潟県新潟市東区秋葉通２丁目3722番７号","kouzui":"○","gake":"×","takashio":"×","jishin":"○","tsunami":"○","kaji":"×","naisui":"○","kazan":"×"}}
,{"type":"Feature","geometry":{"type":"Point","coordinates":[139.09787045151,37.948931696984]},"properties":{"Name":"新潟朝鮮初中級学校","Jusho":"新潟県新潟市東区空港西２丁目14番１号","kouzui":"○","gake":"×","takashio":"×","jishin":"×","tsunami":"×","kaji":"×","naisui":"○","kazan":"×"}}
,{"type":"Feature","geometry":{"type":"Point","coordinates":[139.09114555449,37.934258146101]},"properties":{"Name":"東山の下小学校","Jusho":"新潟県新潟市東区藤見町１丁目23番57号","kouzui":"○","gake":"×","takashio":"×","jishin":"○","tsunami":"○","kaji":"×","naisui":"○","kazan":"×"}}
,{"type":"Feature","geometry":{"type":"Point","coordinates":[139.09262259259,37.938352504286]},"properties":{"Name":"藤見中学校","Jusho":"新潟県新潟市東区小金町３丁目５番１号","kouzui":"○","gake":"○","takashio":"×","jishin":"○","tsunami":"×","kaji":"×","naisui":"○","kazan":"×"}}
,{"type":"Feature","geometry":{"type":"Point","coordinates":[139.09924926603,37.938089533468]},"properties":{"Name":"新潟東高等学校","Jusho":"新潟県新潟市東区小金町２丁目６番１号","kouzui":"○","gake":"×","takashio":"×","jishin":"○","tsunami":"×","kaji":"×","naisui":"○","kazan":"×"}}
,{"type":"Feature","geometry":{"type":"Point","coordinates":[139.09798825541,37.940064895571]},"properties":{"Name":"中地区コミュニティセンター","Jusho":"新潟県新潟市東区松和町15番８号","kouzui":"○","gake":"○","takashio":"×","jishin":"○","tsunami":"×","kaji":"×","naisui":"○","kazan":"×"}}
,{"type":"Feature","geometry":{"type":"Point","coordinates":[139.11647451521,37.943435155342]},"properties":{"Name":"下山小学校","Jusho":"新潟県新潟市東区太平２丁目18番地","kouzui":"○","gake":"×","takashio":"×","jishin":"○","tsunami":"○","kaji":"×","naisui":"○","kazan":"×"}}
,{"type":"Feature","geometry":{"type":"Point","coordinates":[139.11942759986,37.944597393479]},"properties":{"Name":"下山中学校","Jusho":"新潟県新潟市東区下山１丁目120番地","kouzui":"○","gake":"×","takashio":"×","jishin":"○","tsunami":"○","kaji":"×","naisui":"○","kazan":"×"}}
,{"type":"Feature","geometry":{"type":"Point","coordinates":[139.12061699289,37.944088671508]},"properties":{"Name":"下山コミュニティハウス","Jusho":"新潟県新潟市東区下山1丁目121番地","kouzui":"×","gake":"×","takashio":"×","jishin":"○","tsunami":"×","kaji":"×","naisui":"×","kazan":"×"}}
,{"type":"Feature","geometry":{"type":"Point","coordinates":[139.08654060674,37.915872143118]},"properties":{"Name":"木戸小学校","Jusho":"新潟県新潟市東区中山４丁目１番１号","kouzui":"○","gake":"×","takashio":"×","jishin":"○","tsunami":"○","kaji":"×","naisui":"○","kazan":"×"}}
,{"type":"Feature","geometry":{"type":"Point","coordinates":[139.08944710315,37.911020921217]},"properties":{"Name":"竹尾小学校","Jusho":"新潟県新潟市東区竹尾２丁目18番１号","kouzui":"○","gake":"×","takashio":"×","jishin":"○","tsunami":"○","kaji":"×","naisui":"○","kazan":"×"}}
,{"type":"Feature","geometry":{"type":"Point","coordinates":[139.07841554002,37.91936535109]},"properties":{"Name":"東新潟中学校","Jusho":"新潟県新潟市東区山木戸１丁目２番１号","kouzui":"○","gake":"×","takashio":"×","jishin":"○","tsunami":"○","kaji":"×","naisui":"○","kazan":"×"}}
,{"type":"Feature","geometry":{"type":"Point","coordinates":[139.08748965527,37.915270570211]},"properties":{"Name":"木戸コミュニティセンター","Jusho":"新潟県新潟市東区中山４丁目２番６号","kouzui":"○","gake":"×","takashio":"×","jishin":"○","tsunami":"×","kaji":"×","naisui":"○","kazan":"×"}}
,{"type":"Feature","geometry":{"type":"Point","coordinates":[139.09864136167,37.918949514565]},"properties":{"Name":"牡丹山小学校","Jusho":"新潟県新潟市東区牡丹山６丁目15番１号","kouzui":"○","gake":"×","takashio":"×","jishin":"○","tsunami":"○","kaji":"×","naisui":"○","kazan":"×"}}
,{"type":"Feature","geometry":{"type":"Point","coordinates":[139.10244030934,37.919987102363]},"properties":{"Name":"木戸中学校","Jusho":"新潟県新潟市東区上木戸５丁目１番１号","kouzui":"○","gake":"×","takashio":"×","jishin":"○","tsunami":"○","kaji":"×","naisui":"○","kazan":"×"}}
,{"type":"Feature","geometry":{"type":"Point","coordinates":[139.10079556893,37.915372971621]},"properties":{"Name":"はなみずきコミュニティハウス","Jusho":"新潟県新潟市東区はなみずき１丁目15番12号","kouzui":"○","gake":"×","takashio":"×","jishin":"○","tsunami":"×","kaji":"×","naisui":"○","kazan":"×"}}
,{"type":"Feature","geometry":{"type":"Point","coordinates":[139.12004127919,37.924522447279]},"properties":{"Name":"大形小学校","Jusho":"新潟県新潟市東区大形本町２丁目６番１号","kouzui":"○","gake":"×","takashio":"×","jishin":"○","tsunami":"○","kaji":"×","naisui":"○","kazan":"×"}}
,{"type":"Feature","geometry":{"type":"Point","coordinates":[139.12711263366,37.93221474741]},"properties":{"Name":"大形中学校","Jusho":"新潟県新潟市東区海老ヶ瀬122番地１","kouzui":"○","gake":"×","takashio":"×","jishin":"○","tsunami":"○","kaji":"×","naisui":"○","kazan":"×"}}
,{"type":"Feature","geometry":{"type":"Point","coordinates":[139.13157957944,37.918656355339]},"properties":{"Name":"新潟北高等学校","Jusho":"新潟県新潟市東区本所847番地１","kouzui":"○","gake":"×","takashio":"×","jishin":"○","tsunami":"×","kaji":"×","naisui":"○","kazan":"×"}}
,{"type":"Feature","geometry":{"type":"Point","coordinates":[139.08252924766,37.904351304096]},"properties":{"Name":"江南小学校","Jusho":"新潟県新潟市東区江南５丁目１番１号","kouzui":"○","gake":"×","takashio":"×","jishin":"○","tsunami":"○","kaji":"×","naisui":"○","kazan":"×"}}
,{"type":"Feature","geometry":{"type":"Point","coordinates":[139.08910590215,37.898565843017]},"properties":{"Name":"石山中学校","Jusho":"新潟県新潟市東区東明６丁目２番地","kouzui":"○","gake":"×","takashio":"×","jishin":"○","tsunami":"○","kaji":"×","naisui":"○","kazan":"×"}}
,{"type":"Feature","geometry":{"type":"Point","coordinates":[139.10120742068,37.902901360162]},"properties":{"Name":"中野山小学校","Jusho":"新潟県新潟市東区中野山１丁目１番１号","kouzui":"○","gake":"×","takashio":"×","jishin":"○","tsunami":"×","kaji":"×","naisui":"○","kazan":"×"}}
,{"type":"Feature","geometry":{"type":"Point","coordinates":[139.11036481836,37.905098160148]},"properties":{"Name":"シルバーピア石山","Jusho":"新潟県新潟市東区石山団地10番13号","kouzui":"○","gake":"×","takashio":"×","jishin":"○","tsunami":"×","kaji":"×","naisui":"○","kazan":"×"}}
,{"type":"Feature","geometry":{"type":"Point","coordinates":[139.10604762311,37.896066026805]},"properties":{"Name":"南中野山小学校","Jusho":"新潟県新潟市東区中野山863番地１","kouzui":"○","gake":"×","takashio":"×","jishin":"○","tsunami":"×","kaji":"×","naisui":"○","kazan":"×"}}
,{"type":"Feature","geometry":{"type":"Point","coordinates":[139.11947131179,37.904647428655]},"properties":{"Name":"東中野山小学校","Jusho":"新潟県新潟市東区猿ヶ馬場９番地","kouzui":"○","gake":"×","takashio":"×","jishin":"○","tsunami":"×","kaji":"×","naisui":"○","kazan":"×"}}
,{"type":"Feature","geometry":{"type":"Point","coordinates":[139.11520418098,37.900883218733]},"properties":{"Name":"東石山中学校","Jusho":"新潟県新潟市東区若葉町2丁目16番1号","kouzui":"○","gake":"×","takashio":"×","jishin":"○","tsunami":"×","kaji":"×","naisui":"○","kazan":"×"}}
,{"type":"Feature","geometry":{"type":"Point","coordinates":[139.01342033116,37.912199110831]},"properties":{"Name":"浜浦小学校","Jusho":"新潟県新潟市中央区浜浦町１丁目１番地","kouzui":"○","gake":"×","takashio":"×","jishin":"○","tsunami":"○","kaji":"×","naisui":"○","kazan":"×"}}
,{"type":"Feature","geometry":{"type":"Point","coordinates":[139.02542079251,37.916095794444]},"properties":{"Name":"関屋小学校","Jusho":"新潟県新潟市中央区関屋下川原２丁目664番地","kouzui":"○","gake":"×","takashio":"×","jishin":"○","tsunami":"○","kaji":"×","naisui":"○","kazan":"×"}}
,{"type":"Feature","geometry":{"type":"Point","coordinates":[139.03201449959,37.915402182398]},"properties":{"Name":"鏡淵小学校","Jusho":"新潟県新潟市中央区白山浦1丁目207番地３","kouzui":"○","gake":"×","takashio":"×","jishin":"○","tsunami":"○","kaji":"×","naisui":"○","kazan":"×"}}
,{"type":"Feature","geometry":{"type":"Point","coordinates":[139.04243721246,37.914383524465]},"properties":{"Name":"白山小学校","Jusho":"新潟県新潟市中央区川端町１丁目１番地","kouzui":"○","gake":"×","takashio":"×","jishin":"○","tsunami":"○","kaji":"×","naisui":"○","kazan":"×"}}
,{"type":"Feature","geometry":{"type":"Point","coordinates":[139.04000516196,37.923929288332]},"properties":{"Name":"新潟小学校","Jusho":"新潟県新潟市中央区東大畑通１番町679番地","kouzui":"○","gake":"×","takashio":"×","jishin":"○","tsunami":"○","kaji":"×","naisui":"○","kazan":"×"}}
,{"type":"Feature","geometry":{"type":"Point","coordinates":[139.04876332964,37.935323394542]},"properties":{"Name":"日和山小学校","Jusho":"新潟県新潟市中央区栄町３丁目5930番地２","kouzui":"○","gake":"×","takashio":"×","jishin":"○","tsunami":"○","kaji":"×","naisui":"○","kazan":"×"}}
,{"type":"Feature","geometry":{"type":"Point","coordinates":[139.0533091316,37.926942263553]},"properties":{"Name":"旧豊照小学校体育館","Jusho":"新潟県新潟市中央区豊照町2518番地1号","kouzui":"×","gake":"×","takashio":"×","jishin":"○","tsunami":"×","kaji":"×","naisui":"×","kazan":"×"}}
,{"type":"Feature","geometry":{"type":"Point","coordinates":[139.06504114946,37.917478803048]},"properties":{"Name":"万代長嶺小学校","Jusho":"新潟県新潟市中央区東万代町４番１号","kouzui":"○","gake":"×","takashio":"×","jishin":"○","tsunami":"○","kaji":"×","naisui":"○","kazan":"×"}}
,{"type":"Feature","geometry":{"type":"Point","coordinates":[139.07450753445,37.915994806057]},"properties":{"Name":"沼垂小学校","Jusho":"新潟県新潟市中央区鏡が岡５番５号","kouzui":"○","gake":"×","takashio":"×","jishin":"○","tsunami":"○","kaji":"×","naisui":"○","kazan":"×"}}
,{"type":"Feature","geometry":{"type":"Point","coordinates":[139.07165256023,37.889325985712]},"properties":{"Name":"山潟小学校","Jusho":"新潟県新潟市中央区弁天橋通３丁目３番１号","kouzui":"○","gake":"×","takashio":"×","jishin":"○","tsunami":"×","kaji":"×","naisui":"○","kazan":"×"}}
,{"type":"Feature","geometry":{"type":"Point","coordinates":[139.04418458413,37.90276434165]},"properties":{"Name":"上所小学校","Jusho":"新潟県新潟市中央区近江３丁目２番１号","kouzui":"○","gake":"×","takashio":"×","jishin":"○","tsunami":"○","kaji":"×","naisui":"○","kazan":"×"}}
,{"type":"Feature","geometry":{"type":"Point","coordinates":[139.01851544513,37.883195590481]},"properties":{"Name":"鳥屋野小学校","Jusho":"新潟県新潟市中央区美咲町２丁目４番地７","kouzui":"○","gake":"×","takashio":"×","jishin":"○","tsunami":"○","kaji":"×","naisui":"○","kazan":"×"}}
,{"type":"Feature","geometry":{"type":"Point","coordinates":[139.06861966882,37.912103049042]},"properties":{"Name":"笹口小学校","Jusho":"新潟県新潟市中央区笹口２番47号","kouzui":"○","gake":"×","takashio":"×","jishin":"○","tsunami":"○","kaji":"×","naisui":"○","kazan":"×"}}
,{"type":"Feature","geometry":{"type":"Point","coordinates":[139.04371594792,37.89249720763]},"properties":{"Name":"女池小学校","Jusho":"新潟県新潟市中央区女池６丁目４番１号","kouzui":"○","gake":"×","takashio":"×","jishin":"○","tsunami":"○","kaji":"×","naisui":"○","kazan":"×"}}
,{"type":"Feature","geometry":{"type":"Point","coordinates":[139.01132656089,37.901967740854]},"properties":{"Name":"有明台小学校","Jusho":"新潟県新潟市中央区有明台４番１号","kouzui":"○","gake":"×","takashio":"×","jishin":"○","tsunami":"○","kaji":"×","naisui":"○","kazan":"×"}}
,{"type":"Feature","geometry":{"type":"Point","coordinates":[139.0504227963,37.913453195494]},"properties":{"Name":"南万代小学校","Jusho":"新潟県新潟市中央区幸西４丁目１番１号","kouzui":"○","gake":"×","takashio":"×","jishin":"○","tsunami":"○","kaji":"×","naisui":"○","kazan":"×"}}
,{"type":"Feature","geometry":{"type":"Point","coordinates":[139.0312504138,37.895609976771]},"properties":{"Name":"上山小学校","Jusho":"新潟県新潟市中央区女池上山１-１-28","kouzui":"○","gake":"×","takashio":"×","jishin":"○","tsunami":"○","kaji":"×","naisui":"○","kazan":"×"}}
,{"type":"Feature","geometry":{"type":"Point","coordinates":[139.07972781972,37.892534069153]},"properties":{"Name":"桜が丘小学校","Jusho":"新潟県新潟市中央区姥ヶ山６丁目１番21号","kouzui":"○","gake":"×","takashio":"×","jishin":"○","tsunami":"×","kaji":"×","naisui":"○","kazan":"×"}}
,{"type":"Feature","geometry":{"type":"Point","coordinates":[139.05967545828,37.898628916889]},"properties":{"Name":"紫竹山小学校","Jusho":"新潟県新潟市中央区紫竹山１丁目12番１号","kouzui":"○","gake":"×","takashio":"×","jishin":"○","tsunami":"○","kaji":"×","naisui":"○","kazan":"×"}}
,{"type":"Feature","geometry":{"type":"Point","coordinates":[139.00927455103,37.910231301348]},"properties":{"Name":"関屋中学校","Jusho":"新潟県新潟市中央区浜浦町２丁目１番地","kouzui":"○","gake":"×","takashio":"×","jishin":"○","tsunami":"○","kaji":"×","naisui":"○","kazan":"×"}}
,{"type":"Feature","geometry":{"type":"Point","coordinates":[139.03926327994,37.896838467791]},"properties":{"Name":"鳥屋野中学校","Jusho":"新潟県新潟市中央区女池４丁目31番地１","kouzui":"○","gake":"×","takashio":"×","jishin":"○","tsunami":"○","kaji":"×","naisui":"○","kazan":"×"}}
,{"type":"Feature","geometry":{"type":"Point","coordinates":[139.03288483382,37.91081831641]},"properties":{"Name":"白新中学校","Jusho":"新潟県新潟市中央区川岸町２丁目４番地","kouzui":"○","gake":"×","takashio":"×","jishin":"○","tsunami":"○","kaji":"×","naisui":"○","kazan":"×"}}
,{"type":"Feature","geometry":{"type":"Point","coordinates":[139.03762567551,37.92304683965]},"properties":{"Name":"寄居中学校","Jusho":"新潟県新潟市中央区営所通２番町592番地12","kouzui":"○","gake":"○","takashio":"×","jishin":"○","tsunami":"○","kaji":"×","naisui":"○","kazan":"×"}}
,{"type":"Feature","geometry":{"type":"Point","coordinates":[139.05003586705,37.936089648783]},"properties":{"Name":"新潟柳都中学校","Jusho":"新潟県新潟市中央区栄町３丁目4213番地","kouzui":"○","gake":"○","takashio":"×","jishin":"○","tsunami":"○","kaji":"×","naisui":"○","kazan":"×"}}
,{"type":"Feature","geometry":{"type":"Point","coordinates":[139.06046355296,37.920220114567]},"properties":{"Name":"宮浦中学校","Jusho":"新潟県新潟市中央区万代５丁目６番１号","kouzui":"○","gake":"×","takashio":"×","jishin":"○","tsunami":"○","kaji":"×","naisui":"○","kazan":"×"}}
,{"type":"Feature","geometry":{"type":"Point","coordinates":[139.02876154157,37.895203109127]},"properties":{"Name":"上山中学校","Jusho":"新潟県新潟市中央区女池上山５-１-13","kouzui":"○","gake":"×","takashio":"×","jishin":"○","tsunami":"○","kaji":"×","naisui":"○","kazan":"×"}}
,{"type":"Feature","geometry":{"type":"Point","coordinates":[139.08538424202,37.888721789983]},"properties":{"Name":"山潟中学校","Jusho":"新潟県新潟市中央区山二ツ１番地１","kouzui":"○","gake":"×","takashio":"×","jishin":"○","tsunami":"×","kaji":"×","naisui":"○","kazan":"×"}}
,{"type":"Feature","geometry":{"type":"Point","coordinates":[139.06912638524,37.926084159805]},"properties":{"Name":"万代高等学校","Jusho":"新潟県新潟市中央区沼垂東６丁目８番１号","kouzui":"○","gake":"×","takashio":"×","jishin":"○","tsunami":"○","kaji":"×","naisui":"○","kazan":"×"}}
,{"type":"Feature","geometry":{"type":"Point","coordinates":[139.06880988457,37.927222418108]},"properties":{"Name":"明鏡高等学校","Jusho":"新潟県新潟市中央区沼垂東６丁目11番１号","kouzui":"○","gake":"×","takashio":"×","jishin":"○","tsunami":"○","kaji":"×","naisui":"○","kazan":"×"}}
,{"type":"Feature","geometry":{"type":"Point","coordinates":[139.07403327461,37.897131771349]},"properties":{"Name":"高志中等教育学校","Jusho":"新潟県新潟市中央区高志１丁目15番１号","kouzui":"○","gake":"×","takashio":"×","jishin":"○","tsunami":"○","kaji":"×","naisui":"○","kazan":"×"}}
,{"type":"Feature","geometry":{"type":"Point","coordinates":[139.02342054905,37.914981803744]},"properties":{"Name":"新潟高等学校","Jusho":"新潟県新潟市中央区関屋下川原町２丁目635番地","kouzui":"○","gake":"×","takashio":"×","jishin":"○","tsunami":"×","kaji":"×","naisui":"○","kazan":"×"}}
,{"type":"Feature","geometry":{"type":"Point","coordinates":[139.03089698699,37.91810711269]},"properties":{"Name":"新潟中央高等学校","Jusho":"新潟県新潟市中央区学校町通２番町5317番地１","kouzui":"○","gake":"×","takashio":"×","jishin":"○","tsunami":"○","kaji":"×","naisui":"○","kazan":"×"}}
,{"type":"Feature","geometry":{"type":"Point","coordinates":[139.04383209938,37.908713865135]},"properties":{"Name":"新潟南高等学校","Jusho":"新潟県新潟市中央区上所１丁目３番１号","kouzui":"○","gake":"×","takashio":"×","jishin":"○","tsunami":"○","kaji":"×","naisui":"○","kazan":"×"}}
,{"type":"Feature","geometry":{"type":"Point","coordinates":[139.04282763684,37.887702613286]},"properties":{"Name":"新潟江南高等学校","Jusho":"新潟県新潟市中央区女池南３丁目６番１号","kouzui":"○","gake":"×","takashio":"×","jishin":"○","tsunami":"×","kaji":"×","naisui":"○","kazan":"×"}}
,{"type":"Feature","geometry":{"type":"Point","coordinates":[139.02806370609,37.915320172655]},"properties":{"Name":"新潟商業高等学校","Jusho":"新潟県新潟市中央区白山浦２丁目68番２号","kouzui":"○","gake":"×","takashio":"×","jishin":"○","tsunami":"×","kaji":"×","naisui":"○","kazan":"×"}}
,{"type":"Feature","geometry":{"type":"Point","coordinates":[139.05562585937,37.90469725195]},"properties":{"Name":"北越高等学校（体育館）","Jusho":"新潟県新潟市中央区米山５丁目１２-１","kouzui":"○","gake":"×","takashio":"×","jishin":"○","tsunami":"○","kaji":"×","naisui":"○","kazan":"×"}}
,{"type":"Feature","geometry":{"type":"Point","coordinates":[139.05490247938,37.933094911921]},"properties":{"Name":"北部総合コミュニティセンター","Jusho":"新潟県新潟市中央区稲荷町３５１１-１","kouzui":"○","gake":"×","takashio":"×","jishin":"○","tsunami":"○","kaji":"×","naisui":"○","kazan":"×"}}
,{"type":"Feature","geometry":{"type":"Point","coordinates":[139.06032179122,37.904723251038]},"properties":{"Name":"駅南コミュニティセンター","Jusho":"新潟県新潟市中央区米山４丁目12-20","kouzui":"○","gake":"×","takashio":"×","jishin":"○","tsunami":"○","kaji":"×","naisui":"○","kazan":"×"}}
,{"type":"Feature","geometry":{"type":"Point","coordinates":[139.02968466904,37.91462876088]},"properties":{"Name":"白新コミュニティハウス","Jusho":"新潟県新潟市中央区白山浦２丁目180-３","kouzui":"○","gake":"×","takashio":"×","jishin":"○","tsunami":"×","kaji":"×","naisui":"○","kazan":"×"}}
,{"type":"Feature","geometry":{"type":"Point","coordinates":[139.01891292475,37.90903413492]},"properties":{"Name":"関屋地区公民館","Jusho":"新潟県新潟市中央区関屋昭和町３丁目１４８-１","kouzui":"×","gake":"×","takashio":"×","jishin":"○","tsunami":"○","kaji":"×","naisui":"○","kazan":"×"}}
,{"type":"Feature","geometry":{"type":"Point","coordinates":[139.02300930029,37.894366313532]},"properties":{"Name":"上山コミュニティハウス","Jusho":"新潟県新潟市中央区網川原２丁目１-15","kouzui":"○","gake":"×","takashio":"×","jishin":"○","tsunami":"×","kaji":"×","naisui":"○","kazan":"×"}}
,{"type":"Feature","geometry":{"type":"Point","coordinates":[139.04419225975,37.931718077007]},"properties":{"Name":"二葉コミュニティハウス","Jusho":"新潟県新潟市中央区古町通13番町5148-２","kouzui":"○","gake":"○","takashio":"×","jishin":"○","tsunami":"○","kaji":"×","naisui":"○","kazan":"×"}}
,{"type":"Feature","geometry":{"type":"Point","coordinates":[139.03836496695,37.929221172441]},"properties":{"Name":"ゆいぽーと","Jusho":"新潟県新潟市中央区二葉町２丁目５９３２番地２","kouzui":"○","gake":"○","takashio":"×","jishin":"○","tsunami":"○","kaji":"×","naisui":"○","kazan":"×"}}
,{"type":"Feature","geometry":{"type":"Point","coordinates":[139.06205890673,37.916657369675]},"properties":{"Name":"万代市民会館","Jusho":"新潟県新潟市中央区東万代町９-１","kouzui":"○","gake":"×","takashio":"×","jishin":"○","tsunami":"○","kaji":"×","naisui":"○","kazan":"×"}}
,{"type":"Feature","geometry":{"type":"Point","coordinates":[139.04216428966,37.915113702979]},"properties":{"Name":"白山コミュニティハウス","Jusho":"新潟県新潟市中央区本町通１番町168-２","kouzui":"○","gake":"×","takashio":"×","jishin":"○","tsunami":"×","kaji":"×","naisui":"○","kazan":"×"}}
,{"type":"Feature","geometry":{"type":"Point","coordinates":[139.05341591704,37.91329539903]},"properties":{"Name":"総合福祉会館","Jusho":"新潟県新潟市中央区八千代１-３-１","kouzui":"○","gake":"×","takashio":"×","jishin":"○","tsunami":"○","kaji":"×","naisui":"○","kazan":"×"}}
,{"type":"Feature","geometry":{"type":"Point","coordinates":[139.05054319947,37.922352736032]},"properties":{"Name":"クロスパルにいがた","Jusho":"新潟県新潟市中央区礎町通３ノ町2086番地","kouzui":"○","gake":"×","takashio":"×","jishin":"○","tsunami":"○","kaji":"×","naisui":"○","kazan":"×"}}
,{"type":"Feature","geometry":{"type":"Point","coordinates":[139.05042108812,37.879894226493]},"properties":{"Name":"食育・花育センター","Jusho":"新潟県新潟市中央区清五郎401番地","kouzui":"○","gake":"×","takashio":"×","jishin":"○","tsunami":"×","kaji":"×","naisui":"○","kazan":"×"}}
,{"type":"Feature","geometry":{"type":"Point","coordinates":[139.04246934322,37.926571325081]},"properties":{"Name":"教育相談センター","Jusho":"新潟県新潟市中央区西大畑町458番地1","kouzui":"○","gake":"○","takashio":"×","jishin":"○","tsunami":"○","kaji":"×","naisui":"○","kazan":"×"}}
,{"type":"Feature","geometry":{"type":"Point","coordinates":[139.06935381997,37.884940720457]},"properties":{"Name":"山潟会館","Jusho":"新潟県新潟市中央区長潟827番地","kouzui":"○","gake":"×","takashio":"×","jishin":"○","tsunami":"×","kaji":"×","naisui":"○","kazan":"×"}}
,{"type":"Feature","geometry":{"type":"Point","coordinates":[139.03270373576,37.857434826598]},"properties":{"Name":"曽野木小学校","Jusho":"新潟県新潟市江南区天野２丁目７番１号","kouzui":"○","gake":"×","takashio":"×","jishin":"○","tsunami":"○","kaji":"×","naisui":"○","kazan":"×"}}
,{"type":"Feature","geometry":{"type":"Point","coordinates":[139.04894899083,37.868353698792]},"properties":{"Name":"東曽野木小学校","Jusho":"新潟県新潟市江南区鐘木214番地１","kouzui":"○","gake":"×","takashio":"×","jishin":"○","tsunami":"○","kaji":"×","naisui":"○","kazan":"×"}}
,{"type":"Feature","geometry":{"type":"Point","coordinates":[139.0430019654,37.855783908524]},"properties":{"Name":"曽野木中学校","Jusho":"新潟県新潟市江南区曽川甲387番地１","kouzui":"○","gake":"×","takashio":"×","jishin":"○","tsunami":"○","kaji":"×","naisui":"○","kazan":"×"}}
,{"type":"Feature","geometry":{"type":"Point","coordinates":[139.07226419228,37.837907424941]},"properties":{"Name":"両川小学校","Jusho":"新潟県新潟市江南区酒屋町687番地１","kouzui":"○","gake":"×","takashio":"×","jishin":"○","tsunami":"×","kaji":"×","naisui":"○","kazan":"×"}}
,{"type":"Feature","geometry":{"type":"Point","coordinates":[139.0709470724,37.837828318821]},"properties":{"Name":"両川中学校","Jusho":"新潟県新潟市江南区酒屋町702番地１","kouzui":"○","gake":"×","takashio":"×","jishin":"○","tsunami":"×","kaji":"×","naisui":"○","kazan":"×"}}
,{"type":"Feature","geometry":{"type":"Point","coordinates":[139.12981586755,37.879181776525]},"properties":{"Name":"丸山小学校","Jusho":"新潟県新潟市江南区丸山300番地","kouzui":"○","gake":"×","takashio":"×","jishin":"○","tsunami":"×","kaji":"×","naisui":"○","kazan":"×"}}
,{"type":"Feature","geometry":{"type":"Point","coordinates":[139.14003319764,37.899841764849]},"properties":{"Name":"大淵小学校","Jusho":"新潟県新潟市江南区大淵1760番地１","kouzui":"○","gake":"×","takashio":"×","jishin":"○","tsunami":"×","kaji":"×","naisui":"○","kazan":"×"}}
,{"type":"Feature","geometry":{"type":"Point","coordinates":[139.14000667668,37.88550258927]},"properties":{"Name":"大江山中学校","Jusho":"新潟県新潟市江南区西山491番地","kouzui":"○","gake":"○","takashio":"×","jishin":"○","tsunami":"×","kaji":"×","naisui":"○","kazan":"×"}}
,{"type":"Feature","geometry":{"type":"Point","coordinates":[139.11095207454,37.868123786682]},"properties":{"Name":"亀田小学校","Jusho":"新潟県新潟市江南区亀田新明町１丁目１番46号","kouzui":"○","gake":"×","takashio":"×","jishin":"○","tsunami":"×","kaji":"×","naisui":"○","kazan":"×"}}
,{"type":"Feature","geometry":{"type":"Point","coordinates":[139.11835826192,37.86905665874]},"properties":{"Name":"亀田東小学校","Jusho":"新潟県新潟市江南区亀田水道町３丁目２番45号","kouzui":"○","gake":"×","takashio":"×","jishin":"○","tsunami":"×","kaji":"×","naisui":"○","kazan":"×"}}
,{"type":"Feature","geometry":{"type":"Point","coordinates":[139.09984234969,37.870208684794]},"properties":{"Name":"亀田西小学校","Jusho":"新潟県新潟市江南区亀田四ツ興野４丁目１番１号","kouzui":"○","gake":"×","takashio":"×","jishin":"○","tsunami":"×","kaji":"×","naisui":"○","kazan":"×"}}
,{"type":"Feature","geometry":{"type":"Point","coordinates":[139.08732300699,37.861802361923]},"properties":{"Name":"早通小学校","Jusho":"新潟県新潟市江南区早通５丁目７番２号","kouzui":"○","gake":"×","takashio":"×","jishin":"○","tsunami":"×","kaji":"×","naisui":"○","kazan":"×"}}
,{"type":"Feature","geometry":{"type":"Point","coordinates":[139.11099307924,37.862961526638]},"properties":{"Name":"亀田中学校","Jusho":"新潟県新潟市江南区城山１丁目３番５号","kouzui":"○","gake":"×","takashio":"×","jishin":"○","tsunami":"×","kaji":"×","naisui":"○","kazan":"×"}}
,{"type":"Feature","geometry":{"type":"Point","coordinates":[139.09400186077,37.869067382471]},"properties":{"Name":"亀田西中学校","Jusho":"新潟県新潟市江南区早苗３丁目１番８号","kouzui":"○","gake":"×","takashio":"×","jishin":"○","tsunami":"×","kaji":"×","naisui":"○","kazan":"×"}}
,{"type":"Feature","geometry":{"type":"Point","coordinates":[139.10869566731,37.881244579796]},"properties":{"Name":"新潟向陽高等学校","Jusho":"新潟県新潟市江南区亀田向陽４丁目３-１","kouzui":"○","gake":"×","takashio":"×","jishin":"○","tsunami":"×","kaji":"×","naisui":"○","kazan":"×"}}
,{"type":"Feature","geometry":{"type":"Point","coordinates":[139.1103261249,37.867001545941]},"properties":{"Name":"亀田第一保育園","Jusho":"新潟県新潟市江南区亀田新明町２丁目６番１号","kouzui":"○","gake":"×","takashio":"×","jishin":"○","tsunami":"×","kaji":"×","naisui":"○","kazan":"×"}}
,{"type":"Feature","geometry":{"type":"Point","coordinates":[139.11161095329,37.873993326898]},"properties":{"Name":"亀田第二保育園","Jusho":"新潟県新潟市江南区諏訪１丁目６番10号","kouzui":"○","gake":"×","takashio":"×","jishin":"○","tsunami":"×","kaji":"×","naisui":"○","kazan":"×"}}
,{"type":"Feature","geometry":{"type":"Point","coordinates":[139.11524154744,37.867488170195]},"properties":{"Name":"亀田第三保育園","Jusho":"新潟県新潟市江南区亀田東町３丁目５番15号","kouzui":"○","gake":"×","takashio":"×","jishin":"○","tsunami":"×","kaji":"×","naisui":"○","kazan":"×"}}
,{"type":"Feature","geometry":{"type":"Point","coordinates":[139.10496669419,37.873385322566]},"properties":{"Name":"亀田第四保育園","Jusho":"新潟県新潟市江南区西町４丁目６番24号","kouzui":"○","gake":"×","takashio":"×","jishin":"○","tsunami":"×","kaji":"×","naisui":"○","kazan":"×"}}
,{"type":"Feature","geometry":{"type":"Point","coordinates":[139.10327627839,37.883511180712]},"properties":{"Name":"亀田第五保育園","Jusho":"新潟県新潟市江南区亀田中島２丁目４番14号","kouzui":"○","gake":"×","takashio":"×","jishin":"○","tsunami":"×","kaji":"×","naisui":"○","kazan":"×"}}
,{"type":"Feature","geometry":{"type":"Point","coordinates":[139.1039813206,37.867274804366]},"properties":{"Name":"亀田市民会館","Jusho":"新潟県新潟市江南区船戸山５丁目７番２号","kouzui":"○","gake":"×","takashio":"×","jishin":"○","tsunami":"×","kaji":"×","naisui":"○","kazan":"×"}}
,{"type":"Feature","geometry":{"type":"Point","coordinates":[139.09736426207,37.856048716327]},"properties":{"Name":"亀田総合体育館","Jusho":"新潟県新潟市江南区茅野山３丁目１番13号","kouzui":"○","gake":"×","takashio":"×","jishin":"○","tsunami":"×","kaji":"×","naisui":"○","kazan":"×"}}
,{"type":"Feature","geometry":{"type":"Point","coordinates":[139.14854011549,37.851893868146]},"properties":{"Name":"横越小学校","Jusho":"新潟県新潟市江南区横越中央６丁目３番１号","kouzui":"○","gake":"×","takashio":"×","jishin":"○","tsunami":"×","kaji":"×","naisui":"○","kazan":"×"}}
,{"type":"Feature","geometry":{"type":"Point","coordinates":[139.15125101322,37.854677503629]},"properties":{"Name":"横越中学校","Jusho":"新潟県新潟市江南区横越中央３丁目４番１号","kouzui":"○","gake":"×","takashio":"×","jishin":"○","tsunami":"×","kaji":"×","naisui":"○","kazan":"×"}}
,{"type":"Feature","geometry":{"type":"Point","coordinates":[139.14918349634,37.854927605637]},"properties":{"Name":"横越中央保育園","Jusho":"新潟県新潟市江南区横越中央３丁目２番８号","kouzui":"○","gake":"×","takashio":"×","jishin":"○","tsunami":"×","kaji":"×","naisui":"○","kazan":"×"}}
,{"type":"Feature","geometry":{"type":"Point","coordinates":[139.12175419484,37.835702870785]},"properties":{"Name":"横越双葉保育園","Jusho":"新潟県新潟市江南区木津５丁目５番10号","kouzui":"○","gake":"×","takashio":"×","jishin":"○","tsunami":"×","kaji":"×","naisui":"○","kazan":"×"}}
,{"type":"Feature","geometry":{"type":"Point","coordinates":[139.16140360558,37.875196242566]},"properties":{"Name":"横越小杉保育園","Jusho":"新潟県新潟市江南区小杉３丁目14番16号","kouzui":"×","gake":"×","takashio":"×","jishin":"○","tsunami":"×","kaji":"×","naisui":"×","kazan":"×"}}
,{"type":"Feature","geometry":{"type":"Point","coordinates":[139.11460007797,37.846816546326]},"properties":{"Name":"横越体育センター・二本木地区コミュニティセンター","Jusho":"新潟県新潟市江南区二本木３丁目２番50号","kouzui":"×","gake":"×","takashio":"×","jishin":"○","tsunami":"×","kaji":"×","naisui":"×","kazan":"×"}}
,{"type":"Feature","geometry":{"type":"Point","coordinates":[139.16219299389,37.873815757105]},"properties":{"Name":"小杉地区コミュニティセンター","Jusho":"新潟県新潟市江南区小杉３丁目11番26号","kouzui":"○","gake":"×","takashio":"×","jishin":"○","tsunami":"×","kaji":"×","naisui":"○","kazan":"×"}}
,{"type":"Feature","geometry":{"type":"Point","coordinates":[139.13658934688,37.852818425396]},"properties":{"Name":"横越地区勤労者 総合福祉センター","Jusho":"新潟県新潟市江南区横越川根町２丁目20番１号","kouzui":"×","gake":"×","takashio":"×","jishin":"○","tsunami":"×","kaji":"×","naisui":"×","kazan":"×"}}
,{"type":"Feature","geometry":{"type":"Point","coordinates":[139.15349327693,37.829073743577]},"properties":{"Name":"横越農村環境改善 センター","Jusho":"新潟県新潟市江南区沢海３丁目１番30号","kouzui":"○","gake":"×","takashio":"×","jishin":"○","tsunami":"×","kaji":"×","naisui":"○","kazan":"×"}}
,{"type":"Feature","geometry":{"type":"Point","coordinates":[139.13245087852,37.836987579415]},"properties":{"Name":"木津地域研修センター","Jusho":"新潟県新潟市江南区木津２丁目３番28号","kouzui":"×","gake":"×","takashio":"×","jishin":"○","tsunami":"×","kaji":"×","naisui":"×","kazan":"×"}}
,{"type":"Feature","geometry":{"type":"Point","coordinates":[139.1443231546,37.858270464251]},"properties":{"Name":"横越総合体育館","Jusho":"新潟県新潟市江南区いぶき野１丁目１番１号","kouzui":"○","gake":"×","takashio":"×","jishin":"○","tsunami":"×","kaji":"×","naisui":"○","kazan":"×"}}
,{"type":"Feature","geometry":{"type":"Point","coordinates":[139.12542764963,37.793728920872]},"properties":{"Name":"新津第一幼稚園","Jusho":"新潟県新潟市秋葉区新津本町４丁目４番３号","kouzui":"○","gake":"×","takashio":"×","jishin":"○","tsunami":"×","kaji":"×","naisui":"○","kazan":"×"}}
,{"type":"Feature","geometry":{"type":"Point","coordinates":[139.12509505571,37.793338924333]},"properties":{"Name":"新津第一小学校","Jusho":"新潟県新潟市秋葉区新津本町４丁目４番３号","kouzui":"○","gake":"○","takashio":"×","jishin":"○","tsunami":"×","kaji":"×","naisui":"○","kazan":"×"}}
,{"type":"Feature","geometry":{"type":"Point","coordinates":[139.12027712162,37.791729962331]},"properties":{"Name":"新津第一中学校","Jusho":"新潟県新潟市秋葉区新栄町４番１号","kouzui":"○","gake":"○","takashio":"×","jishin":"○","tsunami":"×","kaji":"×","naisui":"○","kazan":"×"}}
,{"type":"Feature","geometry":{"type":"Point","coordinates":[139.13088260769,37.789440169783]},"properties":{"Name":"新津高等学校","Jusho":"新潟県新潟市秋葉区秋葉１丁目19番１号","kouzui":"○","gake":"○","takashio":"×","jishin":"○","tsunami":"×","kaji":"×","naisui":"○","kazan":"×"}}
,{"type":"Feature","geometry":{"type":"Point","coordinates":[139.12220005396,37.798788669844]},"properties":{"Name":"新津地域交流 センター","Jusho":"新潟県新潟市秋葉区新津本町１丁目２番39号","kouzui":"○","gake":"×","takashio":"×","jishin":"○","tsunami":"×","kaji":"×","naisui":"○","kazan":"×"}}
,{"type":"Feature","geometry":{"type":"Point","coordinates":[139.11274758327,37.801403797373]},"properties":{"Name":"新津第三幼稚園","Jusho":"新潟県新潟市秋葉区山谷町３丁目4785番地","kouzui":"○","gake":"×","takashio":"×","jishin":"○","tsunami":"×","kaji":"×","naisui":"○","kazan":"×"}}
,{"type":"Feature","geometry":{"type":"Point","coordinates":[139.11262420166,37.800589973771]},"properties":{"Name":"新津第三小学校","Jusho":"新潟県新潟市秋葉区山谷町３丁目4785番地","kouzui":"○","gake":"×","takashio":"×","jishin":"○","tsunami":"×","kaji":"×","naisui":"○","kazan":"×"}}
,{"type":"Feature","geometry":{"type":"Point","coordinates":[139.07712868383,37.833638985973]},"properties":{"Name":"市之瀬幼稚園","Jusho":"新潟県新潟市秋葉区市之瀬349番地２","kouzui":"×","gake":"×","takashio":"×","jishin":"○","tsunami":"×","kaji":"×","naisui":"×","kazan":"×"}}
,{"type":"Feature","geometry":{"type":"Point","coordinates":[139.12056436655,37.828555690884]},"properties":{"Name":"結幼稚園","Jusho":"新潟県新潟市秋葉区結160番地３","kouzui":"×","gake":"×","takashio":"×","jishin":"○","tsunami":"×","kaji":"×","naisui":"×","kazan":"×"}}
,{"type":"Feature","geometry":{"type":"Point","coordinates":[139.1214434722,37.827955197278]},"properties":{"Name":"結小学校","Jusho":"新潟県新潟市秋葉区結132番地","kouzui":"○","gake":"×","takashio":"×","jishin":"○","tsunami":"×","kaji":"×","naisui":"○","kazan":"×"}}
,{"type":"Feature","geometry":{"type":"Point","coordinates":[139.10035554285,37.833988825204]},"properties":{"Name":"荻川小学校","Jusho":"新潟県新潟市秋葉区車場922番地１","kouzui":"○","gake":"×","takashio":"×","jishin":"○","tsunami":"×","kaji":"×","naisui":"○","kazan":"×"}}
,{"type":"Feature","geometry":{"type":"Point","coordinates":[139.11874180685,37.833830108215]},"properties":{"Name":"新津第二中学校","Jusho":"新潟県新潟市秋葉区荻島１丁目15番17号","kouzui":"○","gake":"×","takashio":"×","jishin":"○","tsunami":"×","kaji":"×","naisui":"○","kazan":"×"}}
,{"type":"Feature","geometry":{"type":"Point","coordinates":[139.10837602835,37.832887303112]},"properties":{"Name":"荻川コミュニティ センター","Jusho":"新潟県新潟市秋葉区中野５丁目１番50号","kouzui":"○","gake":"×","takashio":"×","jishin":"○","tsunami":"×","kaji":"×","naisui":"○","kazan":"×"}}
,{"type":"Feature","geometry":{"type":"Point","coordinates":[139.14908581422,37.824320616777]},"properties":{"Name":"旧満日小学校","Jusho":"新潟県新潟市秋葉区七日町17番地乙","kouzui":"○","gake":"×","takashio":"×","jishin":"○","tsunami":"×","kaji":"×","naisui":"○","kazan":"×"}}
,{"type":"Feature","geometry":{"type":"Point","coordinates":[139.14353901299,37.817226963893]},"properties":{"Name":"新津Ｂ＆Ｇ海洋 センター","Jusho":"新潟県新潟市秋葉区七日町2186番地９","kouzui":"○","gake":"×","takashio":"×","jishin":"○","tsunami":"×","kaji":"×","naisui":"○","kazan":"×"}}
,{"type":"Feature","geometry":{"type":"Point","coordinates":[139.12864161193,37.797605864278]},"properties":{"Name":"新津東保育園","Jusho":"新潟県新潟市秋葉区日宝町９番４号","kouzui":"○","gake":"×","takashio":"×","jishin":"○","tsunami":"×","kaji":"×","naisui":"○","kazan":"×"}}
,{"type":"Feature","geometry":{"type":"Point","coordinates":[139.1316429416,37.79729832998]},"properties":{"Name":"新津第二小学校","Jusho":"新潟県新潟市秋葉区新町２丁目３番３号","kouzui":"○","gake":"○","takashio":"×","jishin":"○","tsunami":"×","kaji":"×","naisui":"○","kazan":"×"}}
,{"type":"Feature","geometry":{"type":"Point","coordinates":[139.12757505039,37.796425988884]},"properties":{"Name":"新津図書館","Jusho":"新潟県新潟市秋葉区日宝町６番２号","kouzui":"○","gake":"×","takashio":"×","jishin":"○","tsunami":"×","kaji":"×","naisui":"○","kazan":"×"}}
,{"type":"Feature","geometry":{"type":"Point","coordinates":[139.14507589256,37.797820452004]},"properties":{"Name":"新金沢保育園","Jusho":"新潟県新潟市秋葉区新金沢町12番11号","kouzui":"×","gake":"×","takashio":"×","jishin":"○","tsunami":"×","kaji":"×","naisui":"×","kazan":"×"}}
,{"type":"Feature","geometry":{"type":"Point","coordinates":[139.14549374184,37.800520267538]},"properties":{"Name":"阿賀小学校","Jusho":"新潟県新潟市秋葉区新津東町２丁目1325番地","kouzui":"○","gake":"×","takashio":"×","jishin":"○","tsunami":"×","kaji":"×","naisui":"○","kazan":"×"}}
,{"type":"Feature","geometry":{"type":"Point","coordinates":[139.14295719986,37.800581191024]},"properties":{"Name":"新津第五中学校","Jusho":"新潟県新潟市秋葉区新津東町２丁目７番29号","kouzui":"○","gake":"×","takashio":"×","jishin":"○","tsunami":"×","kaji":"×","naisui":"○","kazan":"×"}}
,{"type":"Feature","geometry":{"type":"Point","coordinates":[139.14069548578,37.804512983979]},"properties":{"Name":"新津工業高等学校","Jusho":"新潟県新潟市秋葉区新津東町１丁目12番９号","kouzui":"○","gake":"×","takashio":"×","jishin":"○","tsunami":"×","kaji":"×","naisui":"○","kazan":"×"}}
,{"type":"Feature","geometry":{"type":"Point","coordinates":[139.14202587687,37.802072620814]},"properties":{"Name":"新津地域学園","Jusho":"新潟県新潟市秋葉区新津東町２丁目５番６号","kouzui":"○","gake":"×","takashio":"×","jishin":"○","tsunami":"×","kaji":"×","naisui":"○","kazan":"×"}}
,{"type":"Feature","geometry":{"type":"Point","coordinates":[139.13873634151,37.802810173413]},"properties":{"Name":"新津地区 勤労青少年ホーム","Jusho":"新潟県新潟市秋葉区新津東町１丁目５番12号","kouzui":"×","gake":"×","takashio":"×","jishin":"○","tsunami":"×","kaji":"×","naisui":"×","kazan":"×"}}
,{"type":"Feature","geometry":{"type":"Point","coordinates":[139.1709843731,37.780515957327]},"properties":{"Name":"新関小学校","Jusho":"新潟県新潟市秋葉区下新766番地","kouzui":"○","gake":"×","takashio":"×","jishin":"○","tsunami":"×","kaji":"×","naisui":"○","kazan":"×"}}
,{"type":"Feature","geometry":{"type":"Point","coordinates":[139.14694151034,37.768829551543]},"properties":{"Name":"新津クリーンセンター","Jusho":"新潟県新潟市秋葉区小口1289番地１","kouzui":"○","gake":"○","takashio":"×","jishin":"○","tsunami":"×","kaji":"×","naisui":"○","kazan":"×"}}
,{"type":"Feature","geometry":{"type":"Point","coordinates":[139.17215994549,37.786784676105]},"properties":{"Name":"新津金屋運動広場","Jusho":"新潟県新潟市秋葉区金屋260番地１","kouzui":"×","gake":"×","takashio":"×","jishin":"○","tsunami":"×","kaji":"×","naisui":"×","kazan":"×"}}
,{"type":"Feature","geometry":{"type":"Point","coordinates":[139.09301711215,37.793811954273]},"properties":{"Name":"小合東小学校","Jusho":"新潟県新潟市秋葉区小戸上組234番地","kouzui":"○","gake":"×","takashio":"×","jishin":"○","tsunami":"×","kaji":"×","naisui":"○","kazan":"×"}}
,{"type":"Feature","geometry":{"type":"Point","coordinates":[139.07174578047,37.786073848761]},"properties":{"Name":"小合小学校","Jusho":"新潟県新潟市秋葉区出戸180番地","kouzui":"○","gake":"×","takashio":"×","jishin":"○","tsunami":"×","kaji":"×","naisui":"○","kazan":"×"}}
,{"type":"Feature","geometry":{"type":"Point","coordinates":[139.08473846187,37.793251737108]},"properties":{"Name":"小合中学校","Jusho":"新潟県新潟市秋葉区小戸下組77番地","kouzui":"○","gake":"×","takashio":"×","jishin":"○","tsunami":"×","kaji":"×","naisui":"○","kazan":"×"}}
,{"type":"Feature","geometry":{"type":"Point","coordinates":[139.08431940613,37.791821826745]},"properties":{"Name":"小合地区コミュニティセンター","Jusho":"新潟県新潟市秋葉区小戸下組22番地１","kouzui":"×","gake":"×","takashio":"×","jishin":"○","tsunami":"×","kaji":"×","naisui":"×","kazan":"×"}}
,{"type":"Feature","geometry":{"type":"Point","coordinates":[139.11999388509,37.768658171039]},"properties":{"Name":"金津保育園","Jusho":"新潟県新潟市秋葉区朝日483番地２","kouzui":"○","gake":"×","takashio":"×","jishin":"○","tsunami":"×","kaji":"×","naisui":"○","kazan":"×"}}
,{"type":"Feature","geometry":{"type":"Point","coordinates":[139.11808346679,37.768276747625]},"properties":{"Name":"金津小学校","Jusho":"新潟県新潟市秋葉区古津88番地","kouzui":"○","gake":"○","takashio":"×","jishin":"○","tsunami":"×","kaji":"×","naisui":"○","kazan":"×"}}
,{"type":"Feature","geometry":{"type":"Point","coordinates":[139.11951040199,37.76797990912]},"properties":{"Name":"金津中学校","Jusho":"新潟県新潟市秋葉区割町10番地２","kouzui":"○","gake":"○","takashio":"×","jishin":"○","tsunami":"×","kaji":"×","naisui":"○","kazan":"×"}}
,{"type":"Feature","geometry":{"type":"Point","coordinates":[139.11290513454,37.768222027155]},"properties":{"Name":"金津地区コミュニティセンター","Jusho":"新潟県新潟市秋葉区古津597番地","kouzui":"○","gake":"○","takashio":"×","jishin":"○","tsunami":"×","kaji":"×","naisui":"○","kazan":"×"}}
,{"type":"Feature","geometry":{"type":"Point","coordinates":[139.11259372789,37.787404624681]},"properties":{"Name":"秋葉区新津健康 センター","Jusho":"新潟県新潟市秋葉区程島1979番地４","kouzui":"○","gake":"○","takashio":"×","jishin":"○","tsunami":"×","kaji":"×","naisui":"○","kazan":"×"}}
,{"type":"Feature","geometry":{"type":"Point","coordinates":[139.1122718628,37.788672207706]},"properties":{"Name":"秋葉区総合体育館","Jusho":"新潟県新潟市秋葉区程島2009番地","kouzui":"○","gake":"×","takashio":"×","jishin":"○","tsunami":"×","kaji":"×","naisui":"○","kazan":"×"}}
,{"type":"Feature","geometry":{"type":"Point","coordinates":[139.11246024903,37.787891220234]},"properties":{"Name":"新津武道館","Jusho":"新潟県新潟市秋葉区程島2009番地","kouzui":"×","gake":"×","takashio":"×","jishin":"○","tsunami":"×","kaji":"×","naisui":"×","kazan":"×"}}
,{"type":"Feature","geometry":{"type":"Point","coordinates":[139.11217518153,37.749132502987]},"properties":{"Name":"里山ビジターセンター","Jusho":"新潟県新潟市秋葉区金津1193番地","kouzui":"○","gake":"○","takashio":"×","jishin":"○","tsunami":"×","kaji":"×","naisui":"○","kazan":"×"}}
,{"type":"Feature","geometry":{"type":"Point","coordinates":[139.07411660038,37.759104495008]},"properties":{"Name":"小須戸保育園","Jusho":"新潟県新潟市秋葉区小須戸325番地１","kouzui":"×","gake":"×","takashio":"×","jishin":"○","tsunami":"×","kaji":"×","naisui":"×","kazan":"×"}}
,{"type":"Feature","geometry":{"type":"Point","coordinates":[139.07652523097,37.753315182735]},"properties":{"Name":"小須戸幼稚園","Jusho":"新潟県新潟市秋葉区横川浜527番地１","kouzui":"×","gake":"×","takashio":"×","jishin":"○","tsunami":"×","kaji":"×","naisui":"×","kazan":"×"}}
,{"type":"Feature","geometry":{"type":"Point","coordinates":[139.07218489428,37.752082582947]},"properties":{"Name":"小須戸小学校","Jusho":"新潟県新潟市秋葉区横川浜541番地１","kouzui":"○","gake":"×","takashio":"×","jishin":"○","tsunami":"×","kaji":"×","naisui":"○","kazan":"×"}}
,{"type":"Feature","geometry":{"type":"Point","coordinates":[139.0750570742,37.752857855482]},"properties":{"Name":"小須戸中学校","Jusho":"新潟県新潟市秋葉区横川浜526番地１","kouzui":"○","gake":"×","takashio":"×","jishin":"○","tsunami":"×","kaji":"×","naisui":"○","kazan":"×"}}
,{"type":"Feature","geometry":{"type":"Point","coordinates":[139.07113655288,37.755517451065]},"properties":{"Name":"小須戸まちづくり センター","Jusho":"新潟県新潟市秋葉区小須戸120番地１","kouzui":"○","gake":"×","takashio":"×","jishin":"○","tsunami":"×","kaji":"×","naisui":"○","kazan":"×"}}
,{"type":"Feature","geometry":{"type":"Point","coordinates":[139.07616137868,37.752505029453]},"properties":{"Name":"小須戸体育館","Jusho":"新潟県新潟市秋葉区横川浜526番地２","kouzui":"×","gake":"×","takashio":"×","jishin":"○","tsunami":"×","kaji":"×","naisui":"×","kazan":"×"}}
,{"type":"Feature","geometry":{"type":"Point","coordinates":[139.07723433231,37.752645598886]},"properties":{"Name":"小須戸武道館","Jusho":"新潟県新潟市秋葉区横川浜239番地１","kouzui":"×","gake":"×","takashio":"×","jishin":"○","tsunami":"×","kaji":"×","naisui":"×","kazan":"×"}}
,{"type":"Feature","geometry":{"type":"Point","coordinates":[139.06688083469,37.761120030332]},"properties":{"Name":"小須戸老人福祉 センター","Jusho":"新潟県新潟市秋葉区小須戸3870番地２","kouzui":"×","gake":"×","takashio":"×","jishin":"○","tsunami":"×","kaji":"×","naisui":"×","kazan":"×"}}
,{"type":"Feature","geometry":{"type":"Point","coordinates":[139.06834701111,37.741935276147]},"properties":{"Name":"ワークセンター ほほえみ","Jusho":"新潟県新潟市秋葉区小向1744番地","kouzui":"×","gake":"×","takashio":"×","jishin":"○","tsunami":"×","kaji":"×","naisui":"×","kazan":"×"}}
,{"type":"Feature","geometry":{"type":"Point","coordinates":[139.08423444962,37.759307926109]},"properties":{"Name":"新保地域研修センター","Jusho":"新潟県新潟市秋葉区新保1747番地","kouzui":"×","gake":"×","takashio":"×","jishin":"○","tsunami":"×","kaji":"×","naisui":"×","kazan":"×"}}
,{"type":"Feature","geometry":{"type":"Point","coordinates":[139.09499261798,37.750319434054]},"properties":{"Name":"矢代田保育園","Jusho":"新潟県新潟市秋葉区矢代田1237番地１","kouzui":"×","gake":"○","takashio":"×","jishin":"○","tsunami":"×","kaji":"×","naisui":"×","kazan":"×"}}
,{"type":"Feature","geometry":{"type":"Point","coordinates":[139.09261818007,37.739440797692]},"properties":{"Name":"矢代田小学校","Jusho":"新潟県新潟市秋葉区矢代田5596番地","kouzui":"○","gake":"○","takashio":"×","jishin":"○","tsunami":"×","kaji":"×","naisui":"○","kazan":"×"}}
,{"type":"Feature","geometry":{"type":"Point","coordinates":[139.10144980482,37.754648101887]},"properties":{"Name":"新津南高等学校","Jusho":"新潟県新潟市秋葉区矢代田3200番地１","kouzui":"○","gake":"○","takashio":"×","jishin":"○","tsunami":"×","kaji":"×","naisui":"○","kazan":"×"}}
,{"type":"Feature","geometry":{"type":"Point","coordinates":[139.09113680243,37.740428844699]},"properties":{"Name":"小須戸地区 ふれあい会館","Jusho":"新潟県新潟市秋葉区矢代田35番地","kouzui":"○","gake":"○","takashio":"×","jishin":"○","tsunami":"×","kaji":"×","naisui":"○","kazan":"×"}}
,{"type":"Feature","geometry":{"type":"Point","coordinates":[139.08827590297,37.733183603003]},"properties":{"Name":"小須戸温泉健康 センター","Jusho":"新潟県新潟市秋葉区天ヶ沢498番地１","kouzui":"○","gake":"×","takashio":"×","jishin":"○","tsunami":"×","kaji":"×","naisui":"○","kazan":"×"}}
,{"type":"Feature","geometry":{"type":"Point","coordinates":[139.08415035313,37.731732377931]},"properties":{"Name":"鎌倉地域研修センター","Jusho":"新潟県新潟市秋葉区鎌倉273番地１","kouzui":"○","gake":"○","takashio":"×","jishin":"○","tsunami":"×","kaji":"×","naisui":"○","kazan":"×"}}
,{"type":"Feature","geometry":{"type":"Point","coordinates":[138.98195468379,37.687472869208]},"properties":{"Name":"新飯田小学校","Jusho":"新潟県新潟市南区新飯田1791番地","kouzui":"○","gake":"×","takashio":"×","jishin":"○","tsunami":"×","kaji":"×","naisui":"○","kazan":"×"}}
,{"type":"Feature","geometry":{"type":"Point","coordinates":[138.9808155364,37.692011997156]},"properties":{"Name":"新飯田地域生活センター","Jusho":"新潟県新潟市南区新飯田1261番地１","kouzui":"○","gake":"×","takashio":"×","jishin":"○","tsunami":"×","kaji":"×","naisui":"○","kazan":"×"}}
,{"type":"Feature","geometry":{"type":"Point","coordinates":[139.00016885521,37.717561890803]},"properties":{"Name":"茨曽根小学校","Jusho":"新潟県新潟市南区茨曽根1432番地１","kouzui":"○","gake":"×","takashio":"×","jishin":"○","tsunami":"×","kaji":"×","naisui":"○","kazan":"×"}}
,{"type":"Feature","geometry":{"type":"Point","coordinates":[139.01705060558,37.71257452022]},"properties":{"Name":"白南中学校","Jusho":"新潟県新潟市南区茨曽根7619番地","kouzui":"○","gake":"×","takashio":"×","jishin":"○","tsunami":"×","kaji":"×","naisui":"○","kazan":"×"}}
,{"type":"Feature","geometry":{"type":"Point","coordinates":[138.99755685637,37.717930841108]},"properties":{"Name":"茨曽根地域生活センター","Jusho":"新潟県新潟市南区茨曽根3443番地","kouzui":"○","gake":"×","takashio":"×","jishin":"○","tsunami":"×","kaji":"×","naisui":"○","kazan":"×"}}
,{"type":"Feature","geometry":{"type":"Point","coordinates":[139.04230245055,37.72120339611]},"properties":{"Name":"庄瀬小学校","Jusho":"新潟県新潟市南区菱潟新田193番地","kouzui":"○","gake":"×","takashio":"×","jishin":"○","tsunami":"×","kaji":"×","naisui":"○","kazan":"×"}}
,{"type":"Feature","geometry":{"type":"Point","coordinates":[139.04096617111,37.71886596915]},"properties":{"Name":"庄瀬地域生活センター","Jusho":"新潟県新潟市南区庄瀬6489番地","kouzui":"○","gake":"×","takashio":"×","jishin":"○","tsunami":"×","kaji":"×","naisui":"○","kazan":"×"}}
,{"type":"Feature","geometry":{"type":"Point","coordinates":[139.03076475822,37.754692605501]},"properties":{"Name":"小林小学校","Jusho":"新潟県新潟市南区浦梨215番地１","kouzui":"○","gake":"×","takashio":"×","jishin":"○","tsunami":"×","kaji":"×","naisui":"○","kazan":"×"}}
,{"type":"Feature","geometry":{"type":"Point","coordinates":[139.03278513533,37.74770998333]},"properties":{"Name":"小林地域生活センター","Jusho":"新潟県新潟市南区下木山613番地","kouzui":"○","gake":"×","takashio":"×","jishin":"○","tsunami":"×","kaji":"×","naisui":"○","kazan":"×"}}
,{"type":"Feature","geometry":{"type":"Point","coordinates":[139.05759546894,37.776638576902]},"properties":{"Name":"臼井小学校","Jusho":"新潟県新潟市南区臼井4483番地","kouzui":"○","gake":"×","takashio":"×","jishin":"○","tsunami":"×","kaji":"×","naisui":"○","kazan":"×"}}
,{"type":"Feature","geometry":{"type":"Point","coordinates":[139.05516220882,37.786182632889]},"properties":{"Name":"臼井中学校","Jusho":"新潟県新潟市南区臼井1425番地","kouzui":"○","gake":"×","takashio":"×","jishin":"○","tsunami":"×","kaji":"×","naisui":"○","kazan":"×"}}
,{"type":"Feature","geometry":{"type":"Point","coordinates":[139.05706374249,37.783765228169]},"properties":{"Name":"臼井地域生活センター","Jusho":"新潟県新潟市南区臼井1193-1","kouzui":"○","gake":"×","takashio":"×","jishin":"○","tsunami":"×","kaji":"×","naisui":"○","kazan":"×"}}
,{"type":"Feature","geometry":{"type":"Point","coordinates":[139.05010185696,37.785430307754]},"properties":{"Name":"臼井保育園","Jusho":"新潟県新潟市南区赤渋4540番地","kouzui":"×","gake":"×","takashio":"×","jishin":"○","tsunami":"×","kaji":"×","naisui":"×","kazan":"×"}}
,{"type":"Feature","geometry":{"type":"Point","coordinates":[139.06024942966,37.761945757458]},"properties":{"Name":"ワークセンターしらはす","Jusho":"新潟県新潟市南区戸石45番地2","kouzui":"×","gake":"×","takashio":"×","jishin":"○","tsunami":"×","kaji":"×","naisui":"×","kazan":"×"}}
,{"type":"Feature","geometry":{"type":"Point","coordinates":[139.05314471074,37.815891811423]},"properties":{"Name":"大鷲小学校","Jusho":"新潟県新潟市南区東笠巻1202番地","kouzui":"○","gake":"×","takashio":"×","jishin":"○","tsunami":"×","kaji":"×","naisui":"○","kazan":"×"}}
,{"type":"Feature","geometry":{"type":"Point","coordinates":[139.05926357679,37.816823488049]},"properties":{"Name":"大郷地域生活センター","Jusho":"新潟県新潟市南区犬帰新田751番地６","kouzui":"○","gake":"×","takashio":"×","jishin":"○","tsunami":"×","kaji":"×","naisui":"○","kazan":"×"}}
,{"type":"Feature","geometry":{"type":"Point","coordinates":[139.02942510566,37.81676522886]},"properties":{"Name":"白根北中学校","Jusho":"新潟県新潟市南区鷲ノ木新田4814番地","kouzui":"○","gake":"×","takashio":"×","jishin":"○","tsunami":"×","kaji":"×","naisui":"○","kazan":"×"}}
,{"type":"Feature","geometry":{"type":"Point","coordinates":[139.04766884828,37.816849854379]},"properties":{"Name":"鷲巻地域生活センター","Jusho":"新潟県新潟市南区東笠巻新田278番地１","kouzui":"○","gake":"×","takashio":"×","jishin":"○","tsunami":"×","kaji":"×","naisui":"○","kazan":"×"}}
,{"type":"Feature","geometry":{"type":"Point","coordinates":[139.00518056314,37.809179505456]},"properties":{"Name":"根岸小学校","Jusho":"新潟県新潟市南区山崎興野2288番地","kouzui":"○","gake":"×","takashio":"×","jishin":"○","tsunami":"×","kaji":"×","naisui":"○","kazan":"×"}}
,{"type":"Feature","geometry":{"type":"Point","coordinates":[139.00871179055,37.805110902431]},"properties":{"Name":"根岸地域生活センター","Jusho":"新潟県新潟市南区山崎興野290番地","kouzui":"○","gake":"×","takashio":"×","jishin":"○","tsunami":"×","kaji":"×","naisui":"○","kazan":"×"}}
,{"type":"Feature","geometry":{"type":"Point","coordinates":[139.0159070928,37.764586808871]},"properties":{"Name":"白根小学校","Jusho":"新潟県新潟市南区白根1407番地","kouzui":"○","gake":"×","takashio":"×","jishin":"○","tsunami":"×","kaji":"×","naisui":"○","kazan":"×"}}
,{"type":"Feature","geometry":{"type":"Point","coordinates":[139.02812563838,37.759874041121]},"properties":{"Name":"白根第一中学校","Jusho":"新潟県新潟市南区白根407番地","kouzui":"○","gake":"×","takashio":"×","jishin":"○","tsunami":"×","kaji":"×","naisui":"○","kazan":"×"}}
,{"type":"Feature","geometry":{"type":"Point","coordinates":[139.02833213221,37.764917124485]},"properties":{"Name":"白根高等学校","Jusho":"新潟県新潟市南区上下諏訪木1214番地","kouzui":"○","gake":"×","takashio":"×","jishin":"○","tsunami":"×","kaji":"×","naisui":"○","kazan":"×"}}
,{"type":"Feature","geometry":{"type":"Point","coordinates":[139.01993180617,37.765759846137]},"properties":{"Name":"白根地域生活センター","Jusho":"新潟県新潟市南区白根1136番地１","kouzui":"○","gake":"×","takashio":"×","jishin":"○","tsunami":"×","kaji":"×","naisui":"○","kazan":"×"}}
,{"type":"Feature","geometry":{"type":"Point","coordinates":[139.01304328046,37.754507478925]},"properties":{"Name":"諏訪木保育園","Jusho":"新潟県新潟市南区白根水道町10番地35","kouzui":"○","gake":"×","takashio":"×","jishin":"○","tsunami":"×","kaji":"×","naisui":"○","kazan":"×"}}
,{"type":"Feature","geometry":{"type":"Point","coordinates":[139.01511937462,37.763910057668]},"properties":{"Name":"白根保育園","Jusho":"新潟県新潟市南区白根2444番地","kouzui":"○","gake":"×","takashio":"×","jishin":"○","tsunami":"×","kaji":"×","naisui":"○","kazan":"×"}}
,{"type":"Feature","geometry":{"type":"Point","coordinates":[139.0249371618,37.769575825062]},"properties":{"Name":"古川保育園","Jusho":"新潟県新潟市南区七軒383番地","kouzui":"×","gake":"×","takashio":"×","jishin":"○","tsunami":"×","kaji":"×","naisui":"×","kazan":"×"}}
,{"type":"Feature","geometry":{"type":"Point","coordinates":[139.01605278127,37.765590674245]},"properties":{"Name":"白根児童センター","Jusho":"新潟県新潟市南区白根1372番地","kouzui":"○","gake":"×","takashio":"×","jishin":"○","tsunami":"×","kaji":"×","naisui":"○","kazan":"×"}}
,{"type":"Feature","geometry":{"type":"Point","coordinates":[139.02494644001,37.757574062552]},"properties":{"Name":"白根カルチャーセンター","Jusho":"新潟県新潟市南区上下諏訪木1811番地","kouzui":"○","gake":"×","takashio":"×","jishin":"○","tsunami":"×","kaji":"×","naisui":"○","kazan":"×"}}
,{"type":"Feature","geometry":{"type":"Point","coordinates":[139.02143618342,37.757840176587]},"properties":{"Name":"白根学習館","Jusho":"新潟県新潟市南区田中383番地","kouzui":"○","gake":"×","takashio":"×","jishin":"○","tsunami":"×","kaji":"×","naisui":"○","kazan":"×"}}
,{"type":"Feature","geometry":{"type":"Point","coordinates":[139.02110335627,37.833493382712]},"properties":{"Name":"大通小学校","Jusho":"新潟県新潟市南区大通南５丁目5426番地","kouzui":"○","gake":"×","takashio":"×","jishin":"○","tsunami":"×","kaji":"×","naisui":"○","kazan":"×"}}
,{"type":"Feature","geometry":{"type":"Point","coordinates":[139.02227180161,37.831001749867]},"properties":{"Name":"大通地域生活センター","Jusho":"新潟県新潟市南区大通南４丁目105番地","kouzui":"○","gake":"×","takashio":"×","jishin":"○","tsunami":"×","kaji":"×","naisui":"○","kazan":"×"}}
,{"type":"Feature","geometry":{"type":"Point","coordinates":[139.02078947708,37.836597933622]},"properties":{"Name":"大通保育園","Jusho":"新潟県新潟市南区鷲ノ木新田5681番地","kouzui":"×","gake":"×","takashio":"×","jishin":"○","tsunami":"×","kaji":"×","naisui":"×","kazan":"×"}}
,{"type":"Feature","geometry":{"type":"Point","coordinates":[139.01172743181,37.789747813049]},"properties":{"Name":"味方小学校","Jusho":"新潟県新潟市南区吉江370番地","kouzui":"○","gake":"×","takashio":"×","jishin":"○","tsunami":"×","kaji":"×","naisui":"○","kazan":"×"}}
,{"type":"Feature","geometry":{"type":"Point","coordinates":[139.01220041706,37.788106185099]},"properties":{"Name":"味方中学校","Jusho":"新潟県新潟市南区味方1199番地","kouzui":"○","gake":"×","takashio":"×","jishin":"○","tsunami":"×","kaji":"×","naisui":"○","kazan":"×"}}
,{"type":"Feature","geometry":{"type":"Point","coordinates":[139.00641632726,37.773199530188]},"properties":{"Name":"味方体育館・ 味方地区公民館","Jusho":"新潟県新潟市南区西白根2676番地","kouzui":"○","gake":"×","takashio":"×","jishin":"○","tsunami":"×","kaji":"×","naisui":"○","kazan":"×"}}
,{"type":"Feature","geometry":{"type":"Point","coordinates":[139.01058642733,37.765575530873]},"properties":{"Name":"西白根公民館","Jusho":"新潟県新潟市南区西白根1563番地１","kouzui":"×","gake":"×","takashio":"×","jishin":"○","tsunami":"×","kaji":"×","naisui":"×","kazan":"×"}}
,{"type":"Feature","geometry":{"type":"Point","coordinates":[139.01040846546,37.778115038312]},"properties":{"Name":"味方公民館","Jusho":"新潟県新潟市南区味方685番地１","kouzui":"×","gake":"×","takashio":"×","jishin":"○","tsunami":"×","kaji":"×","naisui":"×","kazan":"×"}}
,{"type":"Feature","geometry":{"type":"Point","coordinates":[139.00842393358,37.800567421942]},"properties":{"Name":"七穂公民館","Jusho":"新潟県新潟市南区吉江238番地１","kouzui":"×","gake":"×","takashio":"×","jishin":"○","tsunami":"×","kaji":"×","naisui":"×","kazan":"×"}}
,{"type":"Feature","geometry":{"type":"Point","coordinates":[139.00326173613,37.778163708317]},"properties":{"Name":"味方出張所","Jusho":"新潟県新潟市南区味方1544番地","kouzui":"○","gake":"×","takashio":"×","jishin":"○","tsunami":"×","kaji":"×","naisui":"○","kazan":"×"}}
,{"type":"Feature","geometry":{"type":"Point","coordinates":[139.00582219797,37.755988372015]},"properties":{"Name":"味方地区千日運動施設","Jusho":"新潟県新潟市南区西白根262番地","kouzui":"×","gake":"×","takashio":"×","jishin":"○","tsunami":"×","kaji":"×","naisui":"×","kazan":"×"}}
,{"type":"Feature","geometry":{"type":"Point","coordinates":[139.00826534934,37.77841992094]},"properties":{"Name":"老人福祉センターいこいの家楽友荘・南区味方健康センター","Jusho":"新潟県新潟市南区味方583番地１","kouzui":"×","gake":"×","takashio":"×","jishin":"○","tsunami":"×","kaji":"×","naisui":"×","kazan":"×"}}
,{"type":"Feature","geometry":{"type":"Point","coordinates":[138.99820701205,37.731645031736]},"properties":{"Name":"月潟小学校","Jusho":"新潟県新潟市南区月潟1410番地","kouzui":"○","gake":"×","takashio":"×","jishin":"○","tsunami":"×","kaji":"×","naisui":"○","kazan":"×"}}
,{"type":"Feature","geometry":{"type":"Point","coordinates":[138.99477640253,37.733541004705]},"properties":{"Name":"月潟中学校","Jusho":"新潟県新潟市南区月潟740番地","kouzui":"○","gake":"×","takashio":"×","jishin":"○","tsunami":"×","kaji":"×","naisui":"○","kazan":"×"}}
,{"type":"Feature","geometry":{"type":"Point","coordinates":[138.99134380698,37.728001885815]},"properties":{"Name":"月潟地区公民館","Jusho":"新潟県新潟市南区月潟535番地","kouzui":"○","gake":"×","takashio":"×","jishin":"○","tsunami":"×","kaji":"×","naisui":"○","kazan":"×"}}
,{"type":"Feature","geometry":{"type":"Point","coordinates":[138.99536318242,37.733728184577]},"properties":{"Name":"月潟農村環境改善 センター","Jusho":"新潟県新潟市南区西萱場1069番地","kouzui":"×","gake":"×","takashio":"×","jishin":"○","tsunami":"×","kaji":"×","naisui":"×","kazan":"×"}}
,{"type":"Feature","geometry":{"type":"Point","coordinates":[138.99482621477,37.732264506576]},"properties":{"Name":"老人福祉センターいこいの家月寿荘","Jusho":"新潟県新潟市南区月潟770番地","kouzui":"×","gake":"×","takashio":"×","jishin":"○","tsunami":"×","kaji":"×","naisui":"×","kazan":"×"}}
,{"type":"Feature","geometry":{"type":"Point","coordinates":[138.99843068722,37.730985507456]},"properties":{"Name":"南区月潟健康センター","Jusho":"新潟県新潟市南区月潟1417番地","kouzui":"×","gake":"×","takashio":"×","jishin":"○","tsunami":"×","kaji":"×","naisui":"×","kazan":"×"}}
,{"type":"Feature","geometry":{"type":"Point","coordinates":[138.99743236194,37.90062461353]},"properties":{"Name":"青山コミュニティ ハウス","Jusho":"新潟県新潟市西区青山６丁目16番地20","kouzui":"○","gake":"×","takashio":"×","jishin":"○","tsunami":"×","kaji":"×","naisui":"○","kazan":"×"}}
,{"type":"Feature","geometry":{"type":"Point","coordinates":[138.98952040808,37.897432830689]},"properties":{"Name":"青山小学校","Jusho":"新潟県新潟市西区西有明町４番１号","kouzui":"○","gake":"×","takashio":"×","jishin":"○","tsunami":"×","kaji":"×","naisui":"○","kazan":"×"}}
,{"type":"Feature","geometry":{"type":"Point","coordinates":[138.98082422013,37.89180537272]},"properties":{"Name":"真砂小学校","Jusho":"新潟県新潟市西区真砂３丁目24番１号","kouzui":"○","gake":"○","takashio":"×","jishin":"○","tsunami":"×","kaji":"×","naisui":"○","kazan":"×"}}
,{"type":"Feature","geometry":{"type":"Point","coordinates":[138.96515699136,37.885295234818]},"properties":{"Name":"五十嵐中学校","Jusho":"新潟県新潟市西区上新栄町５丁目３番１号","kouzui":"○","gake":"○","takashio":"×","jishin":"○","tsunami":"×","kaji":"×","naisui":"○","kazan":"×"}}
,{"type":"Feature","geometry":{"type":"Point","coordinates":[138.9675147661,37.881033259586]},"properties":{"Name":"五十嵐コミュニティハウス","Jusho":"新潟県新潟市西区上新栄町４丁目５番68号","kouzui":"○","gake":"×","takashio":"×","jishin":"○","tsunami":"×","kaji":"×","naisui":"○","kazan":"×"}}
,{"type":"Feature","geometry":{"type":"Point","coordinates":[138.96102228788,37.879000470484]},"properties":{"Name":"五十嵐小学校","Jusho":"新潟県新潟市西区寺尾西４丁目23番１号","kouzui":"○","gake":"×","takashio":"×","jishin":"○","tsunami":"×","kaji":"×","naisui":"○","kazan":"×"}}
,{"type":"Feature","geometry":{"type":"Point","coordinates":[138.94035333374,37.868212502598]},"properties":{"Name":"新潟大学（体育館）","Jusho":"新潟県新潟市西区五十嵐２の町8050番地","kouzui":"○","gake":"○","takashio":"×","jishin":"○","tsunami":"×","kaji":"×","naisui":"○","kazan":"×"}}
,{"type":"Feature","geometry":{"type":"Point","coordinates":[138.93528717193,37.859013046151]},"properties":{"Name":"内野小学校","Jusho":"新潟県新潟市西区内野山手２丁目18番36号","kouzui":"○","gake":"×","takashio":"×","jishin":"○","tsunami":"×","kaji":"×","naisui":"○","kazan":"×"}}
,{"type":"Feature","geometry":{"type":"Point","coordinates":[138.9311713662,37.855678870073]},"properties":{"Name":"内野中学校","Jusho":"新潟県新潟市西区内野西１丁目10番１号","kouzui":"○","gake":"○","takashio":"×","jishin":"○","tsunami":"×","kaji":"×","naisui":"○","kazan":"×"}}
,{"type":"Feature","geometry":{"type":"Point","coordinates":[138.91187941996,37.850191743978]},"properties":{"Name":"西内野小学校","Jusho":"新潟県新潟市西区内野上新町308番地１","kouzui":"○","gake":"○","takashio":"×","jishin":"○","tsunami":"×","kaji":"×","naisui":"○","kazan":"×"}}
,{"type":"Feature","geometry":{"type":"Point","coordinates":[138.91271997447,37.849963467354]},"properties":{"Name":"西コミュニティ センター","Jusho":"新潟県新潟市西区内野上新町11810番地","kouzui":"○","gake":"×","takashio":"×","jishin":"○","tsunami":"×","kaji":"×","naisui":"○","kazan":"×"}}
,{"type":"Feature","geometry":{"type":"Point","coordinates":[138.920373,37.847336]},"properties":{"Name":"新潟西高等学校","Jusho":"新潟県新潟市西区内野西が丘3丁目24番1号","kouzui":"○","gake":"×","takashio":"×","jishin":"○","tsunami":"×","kaji":"×","naisui":"○","kazan":"×"}}
,{"type":"Feature","geometry":{"type":"Point","coordinates":[138.89201974357,37.833575068639]},"properties":{"Name":"木山小学校","Jusho":"新潟県新潟市西区谷内1886番地","kouzui":"○","gake":"×","takashio":"×","jishin":"○","tsunami":"×","kaji":"×","naisui":"○","kazan":"×"}}
,{"type":"Feature","geometry":{"type":"Point","coordinates":[138.87794589208,37.820509498367]},"properties":{"Name":"赤塚中学校","Jusho":"新潟県新潟市西区赤塚5590番地","kouzui":"○","gake":"×","takashio":"×","jishin":"○","tsunami":"×","kaji":"×","naisui":"○","kazan":"×"}}
,{"type":"Feature","geometry":{"type":"Point","coordinates":[138.88320286723,37.814925661125]},"properties":{"Name":"赤塚小学校","Jusho":"新潟県新潟市西区赤塚4478番地","kouzui":"○","gake":"×","takashio":"×","jishin":"○","tsunami":"×","kaji":"×","naisui":"○","kazan":"×"}}
,{"type":"Feature","geometry":{"type":"Point","coordinates":[138.90225781516,37.81758629228]},"properties":{"Name":"新潟国際情報大学（体育館）","Jusho":"新潟県新潟市西区みずき野３丁目１番１号","kouzui":"○","gake":"×","takashio":"×","jishin":"○","tsunami":"×","kaji":"×","naisui":"○","kazan":"×"}}
,{"type":"Feature","geometry":{"type":"Point","coordinates":[138.92929018052,37.823093661623]},"properties":{"Name":"小瀬小学校","Jusho":"新潟県新潟市西区小瀬637番地","kouzui":"○","gake":"×","takashio":"×","jishin":"○","tsunami":"×","kaji":"×","naisui":"○","kazan":"×"}}
,{"type":"Feature","geometry":{"type":"Point","coordinates":[138.93387394487,37.82551919111]},"properties":{"Name":"中野小屋中学校","Jusho":"新潟県新潟市西区中野小屋932番地","kouzui":"○","gake":"×","takashio":"×","jishin":"○","tsunami":"○","kaji":"×","naisui":"○","kazan":"×"}}
,{"type":"Feature","geometry":{"type":"Point","coordinates":[138.94672182989,37.842038640345]},"properties":{"Name":"笠木小学校","Jusho":"新潟県新潟市西区笠木1695番地","kouzui":"○","gake":"×","takashio":"×","jishin":"○","tsunami":"○","kaji":"×","naisui":"○","kazan":"×"}}
,{"type":"Feature","geometry":{"type":"Point","coordinates":[138.94958493416,37.858734737497]},"properties":{"Name":"日本文理高等学校","Jusho":"新潟県新潟市西区新通1072番地","kouzui":"○","gake":"○","takashio":"×","jishin":"○","tsunami":"×","kaji":"×","naisui":"○","kazan":"×"}}
,{"type":"Feature","geometry":{"type":"Point","coordinates":[138.9644188093,37.870462441135]},"properties":{"Name":"新通小学校","Jusho":"新潟県新潟市西区坂井東６丁目18番１号","kouzui":"○","gake":"○","takashio":"×","jishin":"○","tsunami":"○","kaji":"×","naisui":"○","kazan":"×"}}
,{"type":"Feature","geometry":{"type":"Point","coordinates":[138.95320165288,37.863392603462]},"properties":{"Name":"新通つばさ小学校","Jusho":"新潟県新潟市西区大野137番地","kouzui":"○","gake":"○","takashio":"×","jishin":"○","tsunami":"○","kaji":"×","naisui":"○","kazan":"×"}}
,{"type":"Feature","geometry":{"type":"Point","coordinates":[138.97139353892,37.867644210524]},"properties":{"Name":"坂井東小学校","Jusho":"新潟県新潟市西区坂井東５丁目17番１号","kouzui":"○","gake":"×","takashio":"×","jishin":"○","tsunami":"○","kaji":"×","naisui":"○","kazan":"×"}}
,{"type":"Feature","geometry":{"type":"Point","coordinates":[138.97007241171,37.874659162849]},"properties":{"Name":"坂井輪中学校","Jusho":"新潟県新潟市西区寺尾上３丁目１番36号","kouzui":"○","gake":"○","takashio":"×","jishin":"○","tsunami":"○","kaji":"×","naisui":"○","kazan":"×"}}
,{"type":"Feature","geometry":{"type":"Point","coordinates":[138.98544074115,37.886691399021]},"properties":{"Name":"坂井輪コミュニティセンター","Jusho":"新潟県新潟市西区小針西１丁目12番地12","kouzui":"○","gake":"○","takashio":"×","jishin":"○","tsunami":"×","kaji":"×","naisui":"○","kazan":"×"}}
,{"type":"Feature","geometry":{"type":"Point","coordinates":[138.98683393792,37.880405986517]},"properties":{"Name":"坂井輪小学校","Jusho":"新潟県新潟市西区坂井東１丁目２番１号","kouzui":"○","gake":"○","takashio":"×","jishin":"○","tsunami":"○","kaji":"×","naisui":"○","kazan":"×"}}
,{"type":"Feature","geometry":{"type":"Point","coordinates":[138.99338936778,37.872626433216]},"properties":{"Name":"小新中学校","Jusho":"新潟県新潟市西区小新西３丁目18番１号","kouzui":"○","gake":"×","takashio":"×","jishin":"○","tsunami":"○","kaji":"×","naisui":"○","kazan":"×"}}
,{"type":"Feature","geometry":{"type":"Point","coordinates":[138.99524503867,37.876371328466]},"properties":{"Name":"新潟工業高等学校","Jusho":"新潟県新潟市西区小新西１丁目５番１号","kouzui":"○","gake":"×","takashio":"×","jishin":"○","tsunami":"○","kaji":"×","naisui":"○","kazan":"×"}}
,{"type":"Feature","geometry":{"type":"Point","coordinates":[138.99599843885,37.888865075496]},"properties":{"Name":"小針小学校","Jusho":"新潟県新潟市西区小針２丁目36番１号","kouzui":"○","gake":"○","takashio":"×","jishin":"○","tsunami":"○","kaji":"×","naisui":"○","kazan":"×"}}
,{"type":"Feature","geometry":{"type":"Point","coordinates":[139.00230433064,37.887813310158]},"properties":{"Name":"小針中学校","Jusho":"新潟県新潟市西区小針１丁目37番１号","kouzui":"○","gake":"×","takashio":"×","jishin":"○","tsunami":"○","kaji":"×","naisui":"○","kazan":"×"}}
,{"type":"Feature","geometry":{"type":"Point","coordinates":[139.00812434675,37.895561363982]},"properties":{"Name":"東青山小学校","Jusho":"新潟県新潟市西区青山261番地１","kouzui":"○","gake":"○","takashio":"×","jishin":"○","tsunami":"○","kaji":"×","naisui":"○","kazan":"×"}}
,{"type":"Feature","geometry":{"type":"Point","coordinates":[139.00287578894,37.872872066473]},"properties":{"Name":"立仏小学校","Jusho":"新潟県新潟市西区立仏950番地","kouzui":"○","gake":"×","takashio":"×","jishin":"○","tsunami":"○","kaji":"×","naisui":"○","kazan":"×"}}
,{"type":"Feature","geometry":{"type":"Point","coordinates":[139.01246583288,37.869036905066]},"properties":{"Name":"山田小学校","Jusho":"新潟県新潟市西区山田2781番地２","kouzui":"○","gake":"×","takashio":"×","jishin":"○","tsunami":"×","kaji":"×","naisui":"○","kazan":"×"}}
,{"type":"Feature","geometry":{"type":"Point","coordinates":[139.01081583511,37.856415034715]},"properties":{"Name":"黒埼市民会館","Jusho":"新潟県新潟市西区鳥原909番地１","kouzui":"○","gake":"×","takashio":"×","jishin":"○","tsunami":"○","kaji":"×","naisui":"○","kazan":"×"}}
,{"type":"Feature","geometry":{"type":"Point","coordinates":[139.01304927552,37.846788172293]},"properties":{"Name":"黒埼中学校","Jusho":"新潟県新潟市西区大野町2540番地１","kouzui":"○","gake":"×","takashio":"×","jishin":"○","tsunami":"×","kaji":"×","naisui":"○","kazan":"×"}}
,{"type":"Feature","geometry":{"type":"Point","coordinates":[139.01871660892,37.845051136925]},"properties":{"Name":"大野小学校","Jusho":"新潟県新潟市西区大野町3140番地乙","kouzui":"○","gake":"×","takashio":"×","jishin":"○","tsunami":"×","kaji":"×","naisui":"○","kazan":"×"}}
,{"type":"Feature","geometry":{"type":"Point","coordinates":[138.99790892105,37.838970928769]},"properties":{"Name":"新潟翠江高等学校","Jusho":"新潟県新潟市西区金巻1657番地","kouzui":"○","gake":"×","takashio":"×","jishin":"○","tsunami":"×","kaji":"×","naisui":"○","kazan":"×"}}
,{"type":"Feature","geometry":{"type":"Point","coordinates":[138.98940395864,37.829888880251]},"properties":{"Name":"黒埼南小学校","Jusho":"新潟県新潟市西区木場911番地１","kouzui":"○","gake":"×","takashio":"×","jishin":"○","tsunami":"×","kaji":"×","naisui":"○","kazan":"×"}}
,{"type":"Feature","geometry":{"type":"Point","coordinates":[138.87628289094,37.755896691955]},"properties":{"Name":"巻南小学校","Jusho":"新潟県新潟市西蒲区堀山新田1301","kouzui":"○","gake":"×","takashio":"×","jishin":"○","tsunami":"×","kaji":"×","naisui":"○","kazan":"×"}}
,{"type":"Feature","geometry":{"type":"Point","coordinates":[138.877486401,37.764685329576]},"properties":{"Name":"巻北小学校","Jusho":"新潟県新潟市西蒲区竹野町163","kouzui":"○","gake":"○","takashio":"×","jishin":"○","tsunami":"×","kaji":"×","naisui":"○","kazan":"×"}}
,{"type":"Feature","geometry":{"type":"Point","coordinates":[138.88069358515,37.762379084725]},"properties":{"Name":"巻高等学校","Jusho":"新潟県新潟市西蒲区巻乙30-１","kouzui":"○","gake":"×","takashio":"×","jishin":"○","tsunami":"×","kaji":"×","naisui":"○","kazan":"×"}}
,{"type":"Feature","geometry":{"type":"Point","coordinates":[138.8909983515,37.755273345827]},"properties":{"Name":"巻総合高等学校","Jusho":"新潟県新潟市西蒲区巻甲4295-１","kouzui":"○","gake":"×","takashio":"×","jishin":"○","tsunami":"×","kaji":"×","naisui":"○","kazan":"×"}}
,{"type":"Feature","geometry":{"type":"Point","coordinates":[138.88192496695,37.758475788406]},"properties":{"Name":"西蒲高等特別支援学校","Jusho":"新潟県新潟市西蒲区堀山新田51-１","kouzui":"○","gake":"×","takashio":"×","jishin":"○","tsunami":"×","kaji":"×","naisui":"○","kazan":"×"}}
,{"type":"Feature","geometry":{"type":"Point","coordinates":[138.88398517486,37.758818586491]},"properties":{"Name":"巻文化会館・ 巻地区公民館","Jusho":"新潟県新潟市西蒲区巻甲635","kouzui":"○","gake":"×","takashio":"×","jishin":"○","tsunami":"×","kaji":"×","naisui":"○","kazan":"×"}}
,{"type":"Feature","geometry":{"type":"Point","coordinates":[138.88357747909,37.759009435018]},"properties":{"Name":"巻体育館","Jusho":"新潟県新潟市西蒲区巻甲647","kouzui":"○","gake":"×","takashio":"×","jishin":"○","tsunami":"×","kaji":"×","naisui":"○","kazan":"×"}}
,{"type":"Feature","geometry":{"type":"Point","coordinates":[138.89219792341,37.75504559349]},"properties":{"Name":"巻地域保健福祉センター","Jusho":"新潟県新潟市西蒲区巻甲4363","kouzui":"○","gake":"×","takashio":"×","jishin":"○","tsunami":"×","kaji":"×","naisui":"○","kazan":"×"}}
,{"type":"Feature","geometry":{"type":"Point","coordinates":[138.92015605102,37.7427780461]},"properties":{"Name":"漆山小学校","Jusho":"新潟県新潟市西蒲区馬堀4515","kouzui":"○","gake":"×","takashio":"×","jishin":"○","tsunami":"×","kaji":"×","naisui":"○","kazan":"×"}}
,{"type":"Feature","geometry":{"type":"Point","coordinates":[138.90131756002,37.744897217676]},"properties":{"Name":"巻東中学校","Jusho":"新潟県新潟市西蒲区潟頭1493","kouzui":"○","gake":"×","takashio":"×","jishin":"○","tsunami":"×","kaji":"×","naisui":"○","kazan":"×"}}
,{"type":"Feature","geometry":{"type":"Point","coordinates":[138.91477188685,37.734930850401]},"properties":{"Name":"漆山西保育園","Jusho":"新潟県新潟市西蒲区並岡10-２","kouzui":"×","gake":"×","takashio":"×","jishin":"○","tsunami":"×","kaji":"×","naisui":"×","kazan":"×"}}
,{"type":"Feature","geometry":{"type":"Point","coordinates":[138.91899095102,37.748073589615]},"properties":{"Name":"漆山公民館","Jusho":"新潟県新潟市西蒲区馬堀6001-56","kouzui":"×","gake":"×","takashio":"×","jishin":"○","tsunami":"×","kaji":"×","naisui":"×","kazan":"×"}}
,{"type":"Feature","geometry":{"type":"Point","coordinates":[138.92671500898,37.748710917551]},"properties":{"Name":"漆山体育館","Jusho":"新潟県新潟市西蒲区漆山3299-３","kouzui":"×","gake":"×","takashio":"×","jishin":"○","tsunami":"×","kaji":"×","naisui":"×","kazan":"×"}}
,{"type":"Feature","geometry":{"type":"Point","coordinates":[138.92710778164,37.748867769769]},"properties":{"Name":"漆山東保育園","Jusho":"新潟県新潟市西蒲区漆山3320","kouzui":"×","gake":"×","takashio":"×","jishin":"○","tsunami":"×","kaji":"×","naisui":"×","kazan":"×"}}
,{"type":"Feature","geometry":{"type":"Point","coordinates":[138.87888039624,37.775132258438]},"properties":{"Name":"巻西中学校","Jusho":"新潟県新潟市西蒲区仁箇42-１","kouzui":"○","gake":"○","takashio":"×","jishin":"○","tsunami":"×","kaji":"×","naisui":"○","kazan":"×"}}
,{"type":"Feature","geometry":{"type":"Point","coordinates":[138.86474252394,37.757079721151]},"properties":{"Name":"峰岡公民館","Jusho":"新潟県新潟市西蒲区鷲ノ木1633-９","kouzui":"○","gake":"×","takashio":"×","jishin":"○","tsunami":"×","kaji":"×","naisui":"○","kazan":"×"}}
,{"type":"Feature","geometry":{"type":"Point","coordinates":[138.84514096059,37.756622010004]},"properties":{"Name":"入徳館野外研修場","Jusho":"新潟県新潟市西蒲区峰岡444番地２","kouzui":"○","gake":"○","takashio":"×","jishin":"○","tsunami":"×","kaji":"×","naisui":"○","kazan":"×"}}
,{"type":"Feature","geometry":{"type":"Point","coordinates":[138.85448909195,37.764295568073]},"properties":{"Name":"城山運動公園（管理棟・屋内コート）","Jusho":"新潟県新潟市西蒲区峰岡580番地","kouzui":"○","gake":"○","takashio":"×","jishin":"○","tsunami":"×","kaji":"×","naisui":"○","kazan":"×"}}
,{"type":"Feature","geometry":{"type":"Point","coordinates":[138.87820416123,37.796110047071]},"properties":{"Name":"松野尾小学校","Jusho":"新潟県新潟市西蒲区松野尾690","kouzui":"○","gake":"×","takashio":"×","jishin":"○","tsunami":"×","kaji":"×","naisui":"○","kazan":"×"}}
,{"type":"Feature","geometry":{"type":"Point","coordinates":[138.84308755942,37.805352072233]},"properties":{"Name":"越前小学校","Jusho":"新潟県新潟市西蒲区越前浜4670","kouzui":"○","gake":"×","takashio":"×","jishin":"○","tsunami":"×","kaji":"×","naisui":"○","kazan":"×"}}
,{"type":"Feature","geometry":{"type":"Point","coordinates":[138.81450779254,37.771209474154]},"properties":{"Name":"巻ふるさと会館","Jusho":"新潟県新潟市西蒲区五ヶ浜2237","kouzui":"○","gake":"×","takashio":"×","jishin":"○","tsunami":"×","kaji":"×","naisui":"○","kazan":"×"}}
,{"type":"Feature","geometry":{"type":"Point","coordinates":[138.84061973459,37.802864773952]},"properties":{"Name":"角田地区コミュニティセンター","Jusho":"新潟県新潟市西蒲区角田浜1815番地１","kouzui":"○","gake":"○","takashio":"×","jishin":"○","tsunami":"×","kaji":"×","naisui":"○","kazan":"×"}}
,{"type":"Feature","geometry":{"type":"Point","coordinates":[138.85100261591,37.729545980553]},"properties":{"Name":"岩室小学校","Jusho":"新潟県新潟市西蒲区西長島510番地","kouzui":"○","gake":"×","takashio":"×","jishin":"○","tsunami":"×","kaji":"×","naisui":"○","kazan":"×"}}
,{"type":"Feature","geometry":{"type":"Point","coordinates":[138.88540207932,37.72267127456]},"properties":{"Name":"和納小学校","Jusho":"新潟県新潟市西蒲区和納1212番地","kouzui":"○","gake":"×","takashio":"×","jishin":"○","tsunami":"×","kaji":"×","naisui":"○","kazan":"×"}}
,{"type":"Feature","geometry":{"type":"Point","coordinates":[138.86031610387,37.728835887798]},"properties":{"Name":"岩室中学校","Jusho":"新潟県新潟市西蒲区西中1421番地","kouzui":"○","gake":"×","takashio":"×","jishin":"○","tsunami":"×","kaji":"×","naisui":"○","kazan":"×"}}
,{"type":"Feature","geometry":{"type":"Point","coordinates":[138.86734261487,37.726765437162]},"properties":{"Name":"岩室体育館","Jusho":"新潟県新潟市西蒲区西中860番地","kouzui":"○","gake":"×","takashio":"×","jishin":"○","tsunami":"×","kaji":"×","naisui":"○","kazan":"×"}}
,{"type":"Feature","geometry":{"type":"Point","coordinates":[138.79699991431,37.738395865716]},"properties":{"Name":"間瀬公民館","Jusho":"新潟県新潟市西蒲区間瀬4287番地１","kouzui":"○","gake":"○","takashio":"×","jishin":"○","tsunami":"○","kaji":"×","naisui":"○","kazan":"×"}}
,{"type":"Feature","geometry":{"type":"Point","coordinates":[138.87661641186,37.727660372601]},"properties":{"Name":"岩室農村環境改善センター","Jusho":"新潟県新潟市西蒲区和納3930番地","kouzui":"○","gake":"×","takashio":"×","jishin":"○","tsunami":"×","kaji":"×","naisui":"○","kazan":"×"}}
,{"type":"Feature","geometry":{"type":"Point","coordinates":[138.79592087164,37.738082985855]},"properties":{"Name":"岩室すこやか センター","Jusho":"新潟県新潟市西蒲区間瀬4290番地１","kouzui":"○","gake":"○","takashio":"×","jishin":"○","tsunami":"×","kaji":"×","naisui":"○","kazan":"×"}}
,{"type":"Feature","geometry":{"type":"Point","coordinates":[138.91891714881,37.79580084305]},"properties":{"Name":"曽根小学校","Jusho":"新潟県新潟市西蒲区曽根750","kouzui":"○","gake":"×","takashio":"×","jishin":"○","tsunami":"×","kaji":"×","naisui":"○","kazan":"×"}}
,{"type":"Feature","geometry":{"type":"Point","coordinates":[138.9016102115,37.786666465943]},"properties":{"Name":"鎧郷小学校","Jusho":"新潟県新潟市西蒲区天竺堂412-４","kouzui":"○","gake":"×","takashio":"×","jishin":"○","tsunami":"×","kaji":"×","naisui":"○","kazan":"×"}}
,{"type":"Feature","geometry":{"type":"Point","coordinates":[138.94129279914,37.810238493643]},"properties":{"Name":"升潟小学校","Jusho":"新潟県新潟市西蒲区升潟2179","kouzui":"○","gake":"×","takashio":"×","jishin":"○","tsunami":"×","kaji":"×","naisui":"○","kazan":"×"}}
,{"type":"Feature","geometry":{"type":"Point","coordinates":[138.92664381271,37.79451291399]},"properties":{"Name":"西川中学校","Jusho":"新潟県新潟市西蒲区曽根1828-３","kouzui":"○","gake":"×","takashio":"×","jishin":"○","tsunami":"×","kaji":"×","naisui":"○","kazan":"×"}}
,{"type":"Feature","geometry":{"type":"Point","coordinates":[138.92197509896,37.803648841147]},"properties":{"Name":"西川総合体育館","Jusho":"新潟県新潟市西蒲区善光寺369番地１","kouzui":"○","gake":"×","takashio":"×","jishin":"○","tsunami":"×","kaji":"×","naisui":"○","kazan":"×"}}
,{"type":"Feature","geometry":{"type":"Point","coordinates":[138.91344503134,37.788646977407]},"properties":{"Name":"西川体育センター","Jusho":"新潟県新潟市西蒲区川崎１-１","kouzui":"○","gake":"×","takashio":"×","jishin":"○","tsunami":"×","kaji":"×","naisui":"○","kazan":"×"}}
,{"type":"Feature","geometry":{"type":"Point","coordinates":[138.92172549025,37.791451882307]},"properties":{"Name":"西蒲区西川健康センター","Jusho":"新潟県新潟市西蒲区旗屋701-２","kouzui":"×","gake":"×","takashio":"×","jishin":"○","tsunami":"×","kaji":"×","naisui":"×","kazan":"×"}}
,{"type":"Feature","geometry":{"type":"Point","coordinates":[138.92260165846,37.794584128064]},"properties":{"Name":"西川学習館","Jusho":"新潟県新潟市西蒲区曽根1951","kouzui":"○","gake":"×","takashio":"×","jishin":"○","tsunami":"×","kaji":"×","naisui":"○","kazan":"×"}}
,{"type":"Feature","geometry":{"type":"Point","coordinates":[138.91127023622,37.788657248107]},"properties":{"Name":"いこいの家西川荘","Jusho":"新潟県新潟市西蒲区川崎308-４","kouzui":"○","gake":"×","takashio":"×","jishin":"○","tsunami":"×","kaji":"×","naisui":"○","kazan":"×"}}
,{"type":"Feature","geometry":{"type":"Point","coordinates":[138.96599278211,37.818107289808]},"properties":{"Name":"貝柄地区集会所","Jusho":"新潟県新潟市西蒲区貝柄805-６","kouzui":"×","gake":"×","takashio":"×","jishin":"○","tsunami":"×","kaji":"×","naisui":"×","kazan":"×"}}
,{"type":"Feature","geometry":{"type":"Point","coordinates":[138.96174095768,37.772247790131]},"properties":{"Name":"潟東小学校","Jusho":"新潟県新潟市西蒲区三方250番地","kouzui":"○","gake":"×","takashio":"×","jishin":"○","tsunami":"×","kaji":"×","naisui":"○","kazan":"×"}}
,{"type":"Feature","geometry":{"type":"Point","coordinates":[138.96149020379,37.772384850767]},"properties":{"Name":"潟東中学校","Jusho":"新潟県新潟市西蒲区三方250番地","kouzui":"○","gake":"×","takashio":"×","jishin":"○","tsunami":"×","kaji":"×","naisui":"○","kazan":"×"}}
,{"type":"Feature","geometry":{"type":"Point","coordinates":[138.96504256021,37.767087450969]},"properties":{"Name":"潟東体地域コミュニティセンター","Jusho":"新潟県新潟市西蒲区三方２番地","kouzui":"○","gake":"×","takashio":"×","jishin":"○","tsunami":"×","kaji":"×","naisui":"○","kazan":"×"}}
,{"type":"Feature","geometry":{"type":"Point","coordinates":[138.97851662984,37.707798075033]},"properties":{"Name":"中之口東小学校","Jusho":"新潟県新潟市西蒲区小吉1100","kouzui":"○","gake":"×","takashio":"×","jishin":"○","tsunami":"×","kaji":"×","naisui":"○","kazan":"×"}}
,{"type":"Feature","geometry":{"type":"Point","coordinates":[138.95281033115,37.730824176039]},"properties":{"Name":"中之口西小学校","Jusho":"新潟県新潟市西蒲区打越甲244","kouzui":"○","gake":"×","takashio":"×","jishin":"○","tsunami":"×","kaji":"×","naisui":"○","kazan":"×"}}
,{"type":"Feature","geometry":{"type":"Point","coordinates":[138.96781370503,37.718363768122]},"properties":{"Name":"中之口中学校","Jusho":"新潟県新潟市西蒲区中之口660","kouzui":"○","gake":"×","takashio":"×","jishin":"○","tsunami":"×","kaji":"×","naisui":"○","kazan":"×"}}
,{"type":"Feature","geometry":{"type":"Point","coordinates":[138.96856607127,37.71225806482]},"properties":{"Name":"中之口地区公民館","Jusho":"新潟県新潟市西蒲区中之口310","kouzui":"○","gake":"×","takashio":"×","jishin":"○","tsunami":"×","kaji":"×","naisui":"○","kazan":"×"}}
,{"type":"Feature","geometry":{"type":"Point","coordinates":[139.19534927331,37.969304400751]},"properties":{"Name":"島見公園","Jusho":"新潟県新潟市北区島見町1876番地１","kouzui":"×","gake":"×","takashio":"×","jishin":"○","tsunami":"×","kaji":"×","naisui":"×","kazan":"×"}}
,{"type":"Feature","geometry":{"type":"Point","coordinates":[139.15720419023,37.957826885759]},"properties":{"Name":"陽光南公園","Jusho":"新潟県新潟市北区太夫浜新町１丁目５番１号","kouzui":"×","gake":"×","takashio":"×","jishin":"○","tsunami":"×","kaji":"×","naisui":"×","kazan":"×"}}
,{"type":"Feature","geometry":{"type":"Point","coordinates":[139.15344832169,37.927274422442]},"properties":{"Name":"つくし野西公園","Jusho":"新潟県新潟市北区つくし野１丁目13番１号","kouzui":"×","gake":"×","takashio":"×","jishin":"○","tsunami":"×","kaji":"×","naisui":"×","kazan":"×"}}
,{"type":"Feature","geometry":{"type":"Point","coordinates":[139.15723024375,37.929288516131]},"properties":{"Name":"つくし野東公園","Jusho":"新潟県新潟市北区つくし野２丁目18番","kouzui":"×","gake":"×","takashio":"×","jishin":"○","tsunami":"×","kaji":"×","naisui":"×","kazan":"×"}}
,{"type":"Feature","geometry":{"type":"Point","coordinates":[139.14536331727,37.951422168095]},"properties":{"Name":"山の上公園","Jusho":"新潟県新潟市北区松浜１丁目17番地","kouzui":"×","gake":"×","takashio":"×","jishin":"○","tsunami":"×","kaji":"×","naisui":"×","kazan":"×"}}
,{"type":"Feature","geometry":{"type":"Point","coordinates":[139.14121604666,37.953080137733]},"properties":{"Name":"あかしあ公園","Jusho":"新潟県新潟市北区松浜３丁目19番地８","kouzui":"×","gake":"×","takashio":"×","jishin":"○","tsunami":"×","kaji":"×","naisui":"×","kazan":"×"}}
,{"type":"Feature","geometry":{"type":"Point","coordinates":[139.14294670399,37.957369931403]},"properties":{"Name":"ちとせ公園","Jusho":"新潟県新潟市北区松浜５丁目12番地１","kouzui":"×","gake":"×","takashio":"×","jishin":"○","tsunami":"×","kaji":"×","naisui":"×","kazan":"×"}}
,{"type":"Feature","geometry":{"type":"Point","coordinates":[139.13713919827,37.957210332539]},"properties":{"Name":"みなと公園","Jusho":"新潟県新潟市北区松浜７丁目９番地１","kouzui":"×","gake":"×","takashio":"×","jishin":"○","tsunami":"×","kaji":"×","naisui":"×","kazan":"×"}}
,{"type":"Feature","geometry":{"type":"Point","coordinates":[139.15886454115,37.9200488594]},"properties":{"Name":"すみれ野公園","Jusho":"新潟県新潟市北区すみれ野１丁目12番２号","kouzui":"×","gake":"×","takashio":"×","jishin":"○","tsunami":"×","kaji":"×","naisui":"×","kazan":"×"}}
,{"type":"Feature","geometry":{"type":"Point","coordinates":[139.21157276252,37.920409579226]},"properties":{"Name":"豊栄ひまわり公園","Jusho":"新潟県新潟市北区柳原２丁目７番１号","kouzui":"×","gake":"×","takashio":"×","jishin":"○","tsunami":"×","kaji":"×","naisui":"×","kazan":"×"}}
,{"type":"Feature","geometry":{"type":"Point","coordinates":[139.22198142819,37.924366982012]},"properties":{"Name":"月見公園","Jusho":"新潟県新潟市北区太田字法花鳥屋甲5271番地","kouzui":"×","gake":"×","takashio":"×","jishin":"○","tsunami":"×","kaji":"×","naisui":"×","kazan":"×"}}
,{"type":"Feature","geometry":{"type":"Point","coordinates":[139.19053916294,37.9422793634]},"properties":{"Name":"見国山公園","Jusho":"新潟県新潟市北区木崎字見国山2878番地５","kouzui":"×","gake":"×","takashio":"×","jishin":"○","tsunami":"×","kaji":"×","naisui":"×","kazan":"×"}}
,{"type":"Feature","geometry":{"type":"Point","coordinates":[139.21449402146,37.907191429386]},"properties":{"Name":"美里第一公園","Jusho":"新潟県新潟市北区美里１丁目５番５号","kouzui":"×","gake":"×","takashio":"×","jishin":"○","tsunami":"×","kaji":"×","naisui":"×","kazan":"×"}}
,{"type":"Feature","geometry":{"type":"Point","coordinates":[139.22567764435,37.914549475577]},"properties":{"Name":"前新田公園","Jusho":"新潟県新潟市北区東栄町２丁目７番１号","kouzui":"×","gake":"×","takashio":"×","jishin":"○","tsunami":"×","kaji":"×","naisui":"×","kazan":"×"}}
,{"type":"Feature","geometry":{"type":"Point","coordinates":[139.18943028944,37.938156700333]},"properties":{"Name":"やまどおり公園","Jusho":"新潟県新潟市北区木崎字樋ノ入山2741番地１","kouzui":"×","gake":"×","takashio":"×","jishin":"○","tsunami":"×","kaji":"×","naisui":"×","kazan":"×"}}
,{"type":"Feature","geometry":{"type":"Point","coordinates":[139.21954005292,37.911432282438]},"properties":{"Name":"川岸公園","Jusho":"新潟県新潟市北区嘉山２丁目1646番地","kouzui":"×","gake":"×","takashio":"×","jishin":"○","tsunami":"×","kaji":"×","naisui":"×","kazan":"×"}}
,{"type":"Feature","geometry":{"type":"Point","coordinates":[139.21747741421,37.920622759029]},"properties":{"Name":"石動公園","Jusho":"新潟県新潟市北区白新町１丁目3994番地","kouzui":"×","gake":"×","takashio":"×","jishin":"○","tsunami":"×","kaji":"×","naisui":"×","kazan":"×"}}
,{"type":"Feature","geometry":{"type":"Point","coordinates":[139.21779767584,37.924387347288]},"properties":{"Name":"下大口公園","Jusho":"新潟県新潟市北区葛塚字下大口4539番地","kouzui":"×","gake":"×","takashio":"×","jishin":"○","tsunami":"×","kaji":"×","naisui":"×","kazan":"×"}}
,{"type":"Feature","geometry":{"type":"Point","coordinates":[139.18702932561,37.921165705545]},"properties":{"Name":"彩野公園","Jusho":"新潟県新潟市北区彩野１丁目６番１号","kouzui":"×","gake":"×","takashio":"×","jishin":"○","tsunami":"×","kaji":"×","naisui":"×","kazan":"×"}}
,{"type":"Feature","geometry":{"type":"Point","coordinates":[139.17863201499,37.91801762529]},"properties":{"Name":"仏伝公園","Jusho":"新潟県新潟市北区早通南３丁目977番地","kouzui":"×","gake":"×","takashio":"×","jishin":"○","tsunami":"×","kaji":"×","naisui":"×","kazan":"×"}}
,{"type":"Feature","geometry":{"type":"Point","coordinates":[139.18471526503,37.920704858368]},"properties":{"Name":"まえわり公園","Jusho":"新潟県新潟市北区早通北３丁目311番地75","kouzui":"×","gake":"×","takashio":"×","jishin":"○","tsunami":"×","kaji":"×","naisui":"×","kazan":"×"}}
,{"type":"Feature","geometry":{"type":"Point","coordinates":[139.21520873961,37.921906549245]},"properties":{"Name":"すみれ公園","Jusho":"新潟県新潟市北区石動１丁目10番３号","kouzui":"×","gake":"×","takashio":"×","jishin":"○","tsunami":"×","kaji":"×","naisui":"×","kazan":"×"}}
,{"type":"Feature","geometry":{"type":"Point","coordinates":[139.21187268338,37.914836308785]},"properties":{"Name":"さくら公園","Jusho":"新潟県新潟市北区白新町４丁目54番１号","kouzui":"×","gake":"×","takashio":"×","jishin":"○","tsunami":"×","kaji":"×","naisui":"×","kazan":"×"}}
,{"type":"Feature","geometry":{"type":"Point","coordinates":[139.23607969535,37.93223996573]},"properties":{"Name":"太田農村公園","Jusho":"新潟県新潟市北区太田字下黒山2005番地","kouzui":"×","gake":"×","takashio":"×","jishin":"○","tsunami":"×","kaji":"×","naisui":"×","kazan":"×"}}
,{"type":"Feature","geometry":{"type":"Point","coordinates":[139.18248870092,37.934053867451]},"properties":{"Name":"おやま公園","Jusho":"新潟県新潟市北区木崎837番地30","kouzui":"×","gake":"×","takashio":"×","jishin":"○","tsunami":"×","kaji":"×","naisui":"×","kazan":"×"}}
,{"type":"Feature","geometry":{"type":"Point","coordinates":[139.21436907647,37.908807924622]},"properties":{"Name":"住良公園","Jusho":"新潟県新潟市北区川西３丁目1834番地","kouzui":"×","gake":"×","takashio":"×","jishin":"○","tsunami":"×","kaji":"×","naisui":"×","kazan":"×"}}
,{"type":"Feature","geometry":{"type":"Point","coordinates":[139.20864853441,37.916120951346]},"properties":{"Name":"夕やけ公園","Jusho":"新潟県新潟市北区柳原３丁目10番２号","kouzui":"×","gake":"×","takashio":"×","jishin":"○","tsunami":"×","kaji":"×","naisui":"×","kazan":"×"}}
,{"type":"Feature","geometry":{"type":"Point","coordinates":[139.22255412632,37.907509234073]},"properties":{"Name":"中嘉山公園","Jusho":"新潟県新潟市北区嘉山４丁目６番１号","kouzui":"×","gake":"×","takashio":"×","jishin":"○","tsunami":"×","kaji":"×","naisui":"×","kazan":"×"}}
,{"type":"Feature","geometry":{"type":"Point","coordinates":[139.18521777683,37.924344371487]},"properties":{"Name":"豊栄大空公園","Jusho":"新潟県新潟市北区早通北５丁目1682番地１","kouzui":"×","gake":"×","takashio":"×","jishin":"○","tsunami":"×","kaji":"×","naisui":"×","kazan":"×"}}
,{"type":"Feature","geometry":{"type":"Point","coordinates":[139.22611620173,37.919589072242]},"properties":{"Name":"しらかば公園","Jusho":"新潟県新潟市北区朝日町２丁目14番１号","kouzui":"×","gake":"×","takashio":"×","jishin":"○","tsunami":"×","kaji":"×","naisui":"×","kazan":"×"}}
,{"type":"Feature","geometry":{"type":"Point","coordinates":[139.21063986102,37.888330820138]},"properties":{"Name":"長浦農村公園","Jusho":"新潟県新潟市北区浦木字長場村下1963番地１","kouzui":"×","gake":"×","takashio":"×","jishin":"○","tsunami":"×","kaji":"×","naisui":"×","kazan":"×"}}
,{"type":"Feature","geometry":{"type":"Point","coordinates":[139.2248877553,37.906651768395]},"properties":{"Name":"豊栄南運動公園","Jusho":"新潟県新潟市北区嘉山字嘉山493番地","kouzui":"×","gake":"×","takashio":"×","jishin":"○","tsunami":"×","kaji":"×","naisui":"×","kazan":"×"}}
,{"type":"Feature","geometry":{"type":"Point","coordinates":[139.15965449987,37.937334587433]},"properties":{"Name":"濁川公園","Jusho":"新潟県新潟市北区濁川686番地１","kouzui":"×","gake":"×","takashio":"×","jishin":"○","tsunami":"×","kaji":"○","naisui":"×","kazan":"×"}}
,{"type":"Feature","geometry":{"type":"Point","coordinates":[139.24105417904,37.912618162663]},"properties":{"Name":"水の公園福島潟","Jusho":"新潟県新潟市北区前新田乙493番地","kouzui":"×","gake":"×","takashio":"×","jishin":"○","tsunami":"×","kaji":"○","naisui":"×","kazan":"×"}}
,{"type":"Feature","geometry":{"type":"Point","coordinates":[139.07244638143,37.941715335334]},"properties":{"Name":"青葉公園","Jusho":"新潟県新潟市東区臨港１丁目８番10号","kouzui":"×","gake":"×","takashio":"×","jishin":"○","tsunami":"×","kaji":"×","naisui":"×","kazan":"×"}}
,{"type":"Feature","geometry":{"type":"Point","coordinates":[139.07823850758,37.935819869091]},"properties":{"Name":"大山台公園","Jusho":"新潟県新潟市東区大山２丁目13番２号","kouzui":"×","gake":"×","takashio":"×","jishin":"○","tsunami":"×","kaji":"×","naisui":"×","kazan":"×"}}
,{"type":"Feature","geometry":{"type":"Point","coordinates":[139.07312096415,37.936845473297]},"properties":{"Name":"山の下まちづくりセンター","Jusho":"新潟県新潟市東区古川町４番12号","kouzui":"○","gake":"○","takashio":"×","jishin":"×","tsunami":"○","kaji":"×","naisui":"○","kazan":"×"}}
,{"type":"Feature","geometry":{"type":"Point","coordinates":[139.08319602808,37.940865515129]},"properties":{"Name":"秋葉自然公園","Jusho":"新潟県新潟市東区秋葉１丁目５番５号","kouzui":"×","gake":"×","takashio":"×","jishin":"○","tsunami":"×","kaji":"×","naisui":"×","kazan":"×"}}
,{"type":"Feature","geometry":{"type":"Point","coordinates":[139.09443877307,37.948880980278]},"properties":{"Name":"牛海道中央公園","Jusho":"新潟県新潟市東区空港西１丁目14番１号","kouzui":"×","gake":"×","takashio":"×","jishin":"○","tsunami":"×","kaji":"×","naisui":"×","kazan":"×"}}
,{"type":"Feature","geometry":{"type":"Point","coordinates":[139.09429637546,37.95405174275]},"properties":{"Name":"山の下海浜公園","Jusho":"新潟県新潟市東区船江町１丁目52番１号","kouzui":"×","gake":"×","takashio":"×","jishin":"○","tsunami":"×","kaji":"×","naisui":"×","kazan":"×"}}
,{"type":"Feature","geometry":{"type":"Point","coordinates":[139.10539536508,37.935398087882]},"properties":{"Name":"河渡公園","Jusho":"新潟県新潟市東区河渡本町20番１号","kouzui":"×","gake":"×","takashio":"×","jishin":"○","tsunami":"×","kaji":"×","naisui":"×","kazan":"×"}}
,{"type":"Feature","geometry":{"type":"Point","coordinates":[139.0963527207,37.939417383369]},"properties":{"Name":"小金公園","Jusho":"新潟県新潟市東区松和町１番１号","kouzui":"×","gake":"×","takashio":"×","jishin":"○","tsunami":"×","kaji":"×","naisui":"×","kazan":"×"}}
,{"type":"Feature","geometry":{"type":"Point","coordinates":[139.09404082936,37.932926532947]},"properties":{"Name":"藤見中央公園","Jusho":"新潟県新潟市東区藤見町２丁目29番１号","kouzui":"×","gake":"×","takashio":"×","jishin":"○","tsunami":"×","kaji":"×","naisui":"×","kazan":"×"}}
,{"type":"Feature","geometry":{"type":"Point","coordinates":[139.10194385256,37.943707395662]},"properties":{"Name":"赤トンボ公園","Jusho":"新潟県新潟市東区幸栄１丁目９番30号","kouzui":"×","gake":"×","takashio":"×","jishin":"○","tsunami":"×","kaji":"×","naisui":"×","kazan":"×"}}
,{"type":"Feature","geometry":{"type":"Point","coordinates":[139.11525260828,37.94561657313]},"properties":{"Name":"大空公園","Jusho":"新潟県新潟市東区太平２丁目11番地","kouzui":"×","gake":"×","takashio":"×","jishin":"○","tsunami":"×","kaji":"×","naisui":"×","kazan":"×"}}
,{"type":"Feature","geometry":{"type":"Point","coordinates":[139.1114787213,37.939467893542]},