var okinawa={"type":"FeatureCollection","name":"okinawa","features":[
{"type":"Feature","geometry":{"type":"Point","coordinates":[127.68622625,26.21232498]},"properties":{"Name":"松尾公園","Jusho":"沖縄県那覇市松尾2-6","kouzui":"○","gake":"○","takashio":"○","jishin":"×","tsunami":"○","kaji":"×","naisui":"×","kazan":"×"}}
,{"type":"Feature","geometry":{"type":"Point","coordinates":[127.68699786,26.20680625]},"properties":{"Name":"中央公園","Jusho":"沖縄県那覇市樋川1-15","kouzui":"○","gake":"○","takashio":"○","jishin":"×","tsunami":"○","kaji":"×","naisui":"×","kazan":"×"}}
,{"type":"Feature","geometry":{"type":"Point","coordinates":[127.677230595568,26.2183698017216]},"properties":{"Name":"松山公演","Jusho":"沖縄県那覇市松山1-17","kouzui":"○","gake":"○","takashio":"○","jishin":"×","tsunami":"○","kaji":"×","naisui":"×","kazan":"×"}}
,{"type":"Feature","geometry":{"type":"Point","coordinates":[127.68503093,26.2171919]},"properties":{"Name":"緑ヶ丘公園","Jusho":"沖縄県那覇市牧志1-4","kouzui":"○","gake":"○","takashio":"○","jishin":"×","tsunami":"○","kaji":"×","naisui":"×","kazan":"×"}}
,{"type":"Feature","geometry":{"type":"Point","coordinates":[127.68853657,26.23179808]},"properties":{"Name":"天久ちゅらまち公園","Jusho":"沖縄県那覇市天久1-3","kouzui":"○","gake":"○","takashio":"○","jishin":"×","tsunami":"○","kaji":"×","naisui":"×","kazan":"×"}}
,{"type":"Feature","geometry":{"type":"Point","coordinates":[127.69579706,26.22895485]},"properties":{"Name":"新都心公園","Jusho":"沖縄県那覇市おもろまち3-2-1","kouzui":"○","gake":"○","takashio":"○","jishin":"×","tsunami":"○","kaji":"×","naisui":"×","kazan":"×"}}
,{"type":"Feature","geometry":{"type":"Point","coordinates":[127.69262235,26.20855994]},"properties":{"Name":"与儀公園","Jusho":"沖縄県那覇市寄宮1-1","kouzui":"○","gake":"○","takashio":"○","jishin":"×","tsunami":"○","kaji":"×","naisui":"×","kazan":"×"}}
,{"type":"Feature","geometry":{"type":"Point","coordinates":[127.70121432626,26.2261735460403]},"properties":{"Name":"真嘉比西公園","Jusho":"沖縄県那覇市真嘉比2-7","kouzui":"○","gake":"○","takashio":"○","jishin":"×","tsunami":"○","kaji":"×","naisui":"×","kazan":"×"}}
,{"type":"Feature","geometry":{"type":"Point","coordinates":[127.701933763803,26.2229372378481]},"properties":{"Name":"真嘉比南公園","Jusho":"沖縄県那覇市真嘉比1-19","kouzui":"○","gake":"○","takashio":"○","jishin":"×","tsunami":"○","kaji":"×","naisui":"×","kazan":"×"}}
,{"type":"Feature","geometry":{"type":"Point","coordinates":[127.704253271,26.2237187775129]},"properties":{"Name":"真嘉比中央公園","Jusho":"沖縄県那覇市真嘉比1-3-1","kouzui":"○","gake":"○","takashio":"○","jishin":"×","tsunami":"○","kaji":"×","naisui":"×","kazan":"×"}}
,{"type":"Feature","geometry":{"type":"Point","coordinates":[127.72250502,26.22306613]},"properties":{"Name":"虎瀬公園","Jusho":"沖縄県那覇市首里赤平町2-68","kouzui":"○","gake":"○","takashio":"○","jishin":"×","tsunami":"○","kaji":"×","naisui":"×","kazan":"×"}}
,{"type":"Feature","geometry":{"type":"Point","coordinates":[127.71565074,26.22848118]},"properties":{"Name":"末吉公園","Jusho":"沖縄県那覇市首里末吉町1-3-1","kouzui":"○","gake":"○","takashio":"○","jishin":"×","tsunami":"○","kaji":"×","naisui":"×","kazan":"×"}}
,{"type":"Feature","geometry":{"type":"Point","coordinates":[127.66422156,26.18551853]},"properties":{"Name":"高前原公園","Jusho":"沖縄県那覇市高良2-5","kouzui":"○","gake":"○","takashio":"○","jishin":"×","tsunami":"○","kaji":"×","naisui":"×","kazan":"×"}}
,{"type":"Feature","geometry":{"type":"Point","coordinates":[127.66573926,26.19921678]},"properties":{"Name":"小禄金城公園","Jusho":"沖縄県那覇市金城3-2-1","kouzui":"○","gake":"○","takashio":"○","jishin":"×","tsunami":"○","kaji":"×","naisui":"×","kazan":"×"}}
,{"type":"Feature","geometry":{"type":"Point","coordinates":[127.669219677168,26.1961717500135]},"properties":{"Name":"田原公園","Jusho":"沖縄県那覇市田原3-4-1","kouzui":"○","gake":"○","takashio":"○","jishin":"×","tsunami":"○","kaji":"×","naisui":"×","kazan":"×"}}
,{"type":"Feature","geometry":{"type":"Point","coordinates":[127.77931726802,26.280099128812]},"properties":{"Name":"あすなろ児童公園","Jusho":"沖縄県宜野湾市野嵩1-12-1","kouzui":"×","gake":"○","takashio":"○","jishin":"○","tsunami":"○","kaji":"×","naisui":"×","kazan":"×"}}
,{"type":"Feature","geometry":{"type":"Point","coordinates":[127.78135302026,26.279054173391]},"properties":{"Name":"まつのおか児童公園","Jusho":"沖縄県宜野湾市野嵩1-6-1","kouzui":"×","gake":"○","takashio":"○","jishin":"○","tsunami":"○","kaji":"×","naisui":"×","kazan":"×"}}
,{"type":"Feature","geometry":{"type":"Point","coordinates":[127.78176803716,26.284397779015]},"properties":{"Name":"きさらぎ児童公園","Jusho":"沖縄県宜野湾市野嵩1-43","kouzui":"×","gake":"○","takashio":"○","jishin":"○","tsunami":"○","kaji":"×","naisui":"×","kazan":"×"}}
,{"type":"Feature","geometry":{"type":"Point","coordinates":[127.78336740363,26.287926261909]},"properties":{"Name":"のだけ公園","Jusho":"沖縄県宜野湾市野嵩3-15-45","kouzui":"×","gake":"○","takashio":"○","jishin":"○","tsunami":"○","kaji":"×","naisui":"×","kazan":"×"}}
,{"type":"Feature","geometry":{"type":"Point","coordinates":[127.78406668675,26.291437291408]},"properties":{"Name":"ひがし児童公園","Jusho":"沖縄県宜野湾市野嵩4-23-17","kouzui":"×","gake":"○","takashio":"○","jishin":"○","tsunami":"○","kaji":"×","naisui":"×","kazan":"×"}}
,{"type":"Feature","geometry":{"type":"Point","coordinates":[127.77999741521,26.292737023766]},"properties":{"Name":"ふてんま公園","Jusho":"沖縄県宜野湾市普天間1-22-22","kouzui":"×","gake":"○","takashio":"○","jishin":"○","tsunami":"○","kaji":"×","naisui":"×","kazan":"×"}}
,{"type":"Feature","geometry":{"type":"Point","coordinates":[127.77480855806,26.286855649045]},"properties":{"Name":"ながつき児童公園","Jusho":"沖縄県宜野湾市新城1-1-16","kouzui":"×","gake":"○","takashio":"○","jishin":"○","tsunami":"○","kaji":"×","naisui":"×","kazan":"×"}}
,{"type":"Feature","geometry":{"type":"Point","coordinates":[127.77191634022,26.285425673616]},"properties":{"Name":"あらしろ児童公園","Jusho":"沖縄県宜野湾市新城2-5-1","kouzui":"×","gake":"○","takashio":"○","jishin":"○","tsunami":"○","kaji":"×","naisui":"×","kazan":"×"}}
,{"type":"Feature","geometry":{"type":"Point","coordinates":[127.7637047898,26.286795379176]},"properties":{"Name":"ちゅんなー公園","Jusho":"沖縄県宜野湾市喜友名1-29-1","kouzui":"×","gake":"○","takashio":"○","jishin":"○","tsunami":"○","kaji":"×","naisui":"×","kazan":"×"}}
,{"type":"Feature","geometry":{"type":"Point","coordinates":[127.75575845423,26.293660072411]},"properties":{"Name":"伊佐児童公園","Jusho":"沖縄県宜野湾市伊佐3-12-2","kouzui":"×","gake":"○","takashio":"×","jishin":"○","tsunami":"×","kaji":"×","naisui":"×","kazan":"×"}}
,{"type":"Feature","geometry":{"type":"Point","coordinates":[127.75338559875,26.287011687317]},"properties":{"Name":"伊佐第二児童公園","Jusho":"沖縄県宜野湾市伊佐2-21-2","kouzui":"×","gake":"○","takashio":"×","jishin":"○","tsunami":"×","kaji":"×","naisui":"×","kazan":"×"}}
,{"type":"Feature","geometry":{"type":"Point","coordinates":[127.73853462153,26.277423969259]},"properties":{"Name":"あだん児童公園","Jusho":"沖縄県宜野湾市大山6-26-1","kouzui":"×","gake":"○","takashio":"×","jishin":"○","tsunami":"×","kaji":"×","naisui":"×","kazan":"×"}}
,{"type":"Feature","geometry":{"type":"Point","coordinates":[127.73847848109,26.278875858504]},"properties":{"Name":"シーサー児童公園","Jusho":"沖縄県宜野湾市大山6-44-8","kouzui":"×","gake":"○","takashio":"×","jishin":"○","tsunami":"×","kaji":"×","naisui":"×","kazan":"×"}}
,{"type":"Feature","geometry":{"type":"Point","coordinates":[127.73631042428,26.281340824377]},"properties":{"Name":"宜野湾海浜公園","Jusho":"沖縄県宜野湾市真志喜4-2-1","kouzui":"×","gake":"○","takashio":"×","jishin":"○","tsunami":"×","kaji":"×","naisui":"×","kazan":"×"}}
,{"type":"Feature","geometry":{"type":"Point","coordinates":[127.73395791005,26.277197425775]},"properties":{"Name":"市立グラウンド","Jusho":"沖縄県宜野湾市真志喜3-25-1","kouzui":"×","gake":"○","takashio":"×","jishin":"○","tsunami":"×","kaji":"×","naisui":"×","kazan":"×"}}
,{"type":"Feature","geometry":{"type":"Point","coordinates":[127.73809324679,26.274820169786]},"properties":{"Name":"わかたけ児童公園","Jusho":"沖縄県宜野湾市真志喜2-10-1","kouzui":"×","gake":"○","takashio":"○","jishin":"○","tsunami":"○","kaji":"×","naisui":"×","kazan":"×"}}
,{"type":"Feature","geometry":{"type":"Point","coordinates":[127.73861090985,26.272657028061]},"properties":{"Name":"いすのき児童公園","Jusho":"沖縄県宜野湾市真志喜2-4-1","kouzui":"×","gake":"○","takashio":"○","jishin":"○","tsunami":"○","kaji":"×","naisui":"×","kazan":"×"}}
,{"type":"Feature","geometry":{"type":"Point","coordinates":[127.73604063247,26.273828249168]},"properties":{"Name":"ましき児童公園","Jusho":"沖縄県宜野湾市真志喜3-12-1","kouzui":"×","gake":"○","takashio":"○","jishin":"○","tsunami":"○","kaji":"×","naisui":"×","kazan":"×"}}
,{"type":"Feature","geometry":{"type":"Point","coordinates":[127.73335149159,26.276103876136]},"properties":{"Name":"ゆうな児童公園","Jusho":"沖縄県宜野湾市真志喜3-23-1","kouzui":"×","gake":"○","takashio":"×","jishin":"○","tsunami":"×","kaji":"×","naisui":"×","kazan":"×"}}
,{"type":"Feature","geometry":{"type":"Point","coordinates":[127.74196267135,26.269734101958]},"properties":{"Name":"森川公園","Jusho":"沖縄県宜野湾市真志喜1-24-1","kouzui":"×","gake":"○","takashio":"○","jishin":"○","tsunami":"○","kaji":"×","naisui":"×","kazan":"×"}}
,{"type":"Feature","geometry":{"type":"Point","coordinates":[127.73090304701,26.274168019172]},"properties":{"Name":"かたばる公園","Jusho":"沖縄県宜野湾市宇地泊751-11","kouzui":"×","gake":"○","takashio":"×","jishin":"○","tsunami":"×","kaji":"×","naisui":"×","kazan":"×"}}
,{"type":"Feature","geometry":{"type":"Point","coordinates":[127.72857949347,26.269256034057]},"properties":{"Name":"ガジュマル児童公園","Jusho":"沖縄県宜野湾市宇地泊471","kouzui":"×","gake":"○","takashio":"○","jishin":"○","tsunami":"○","kaji":"×","naisui":"×","kazan":"×"}}
,{"type":"Feature","geometry":{"type":"Point","coordinates":[127.72638544648,26.2708338354]},"properties":{"Name":"ゆうひ児童公園","Jusho":"沖縄県宜野湾市宇地泊598","kouzui":"×","gake":"○","takashio":"×","jishin":"○","tsunami":"×","kaji":"×","naisui":"×","kazan":"×"}}
,{"type":"Feature","geometry":{"type":"Point","coordinates":[127.73006866026,26.261946330949]},"properties":{"Name":"青空公園","Jusho":"沖縄県宜野湾市嘉数4-617-2","kouzui":"×","gake":"○","takashio":"○","jishin":"○","tsunami":"○","kaji":"×","naisui":"×","kazan":"×"}}
,{"type":"Feature","geometry":{"type":"Point","coordinates":[127.74026641893,26.258665383448]},"properties":{"Name":"比屋良川公園","Jusho":"沖縄県宜野湾市嘉数4-824-1","kouzui":"×","gake":"○","takashio":"○","jishin":"○","tsunami":"○","kaji":"×","naisui":"×","kazan":"×"}}
,{"type":"Feature","geometry":{"type":"Point","coordinates":[127.73591945263,26.25859803165]},"properties":{"Name":"嘉数高台公園","Jusho":"沖縄県宜野湾市嘉数1-5","kouzui":"×","gake":"○","takashio":"○","jishin":"○","tsunami":"○","kaji":"×","naisui":"×","kazan":"×"}}
,{"type":"Feature","geometry":{"type":"Point","coordinates":[127.74639549057,26.257245775769]},"properties":{"Name":"まえはら児童公園","Jusho":"沖縄県宜野湾市真栄原1-15-18","kouzui":"×","gake":"○","takashio":"○","jishin":"○","tsunami":"○","kaji":"×","naisui":"×","kazan":"×"}}
,{"type":"Feature","geometry":{"type":"Point","coordinates":[127.74310597153,26.263410367481]},"properties":{"Name":"ぐんばる公園","Jusho":"沖縄県宜野湾市真栄原3-11-1","kouzui":"×","gake":"○","takashio":"○","jishin":"○","tsunami":"○","kaji":"×","naisui":"×","kazan":"×"}}
,{"type":"Feature","geometry":{"type":"Point","coordinates":[127.74536439152,26.263645287115]},"properties":{"Name":"おおぶき公園","Jusho":"沖縄県宜野湾市真栄原3-24-8","kouzui":"×","gake":"○","takashio":"○","jishin":"○","tsunami":"○","kaji":"×","naisui":"×","kazan":"×"}}
,{"type":"Feature","geometry":{"type":"Point","coordinates":[127.74790125073,26.263968212469]},"properties":{"Name":"佐真下公園","Jusho":"沖縄県宜野湾市真栄原3-38","kouzui":"×","gake":"○","takashio":"○","jishin":"○","tsunami":"○","kaji":"×","naisui":"×","kazan":"×"}}
,{"type":"Feature","geometry":{"type":"Point","coordinates":[127.75086773344,26.254312934747]},"properties":{"Name":"がねこ児童公園","Jusho":"沖縄県宜野湾市我如古4-15-40","kouzui":"×","gake":"○","takashio":"○","jishin":"○","tsunami":"○","kaji":"×","naisui":"×","kazan":"×"}}
,{"type":"Feature","geometry":{"type":"Point","coordinates":[127.7610656021,26.256239035138]},"properties":{"Name":"しまし公園","Jusho":"沖縄県宜野湾市志真志3-16-3","kouzui":"×","gake":"○","takashio":"○","jishin":"○","tsunami":"○","kaji":"×","naisui":"×","kazan":"×"}}
,{"type":"Feature","geometry":{"type":"Point","coordinates":[127.76619423875,26.260984873279]},"properties":{"Name":"ながた児童公園","Jusho":"沖縄県宜野湾市長田3-27","kouzui":"×","gake":"○","takashio":"○","jishin":"○","tsunami":"○","kaji":"×","naisui":"×","kazan":"×"}}
,{"type":"Feature","geometry":{"type":"Point","coordinates":[127.76312655588,26.267215263603]},"properties":{"Name":"いこいの市民パーク","Jusho":"沖縄県宜野湾市宜野湾1-14-24","kouzui":"×","gake":"○","takashio":"○","jishin":"○","tsunami":"○","kaji":"×","naisui":"×","kazan":"×"}}
,{"type":"Feature","geometry":{"type":"Point","coordinates":[127.76982208162,26.268625508518]},"properties":{"Name":"まつぼっくり公園","Jusho":"沖縄県宜野湾市愛知2-5","kouzui":"×","gake":"○","takashio":"○","jishin":"○","tsunami":"○","kaji":"×","naisui":"×","kazan":"×"}}
,{"type":"Feature","geometry":{"type":"Point","coordinates":[127.77040846041,26.271875846761]},"properties":{"Name":"あかみち公園","Jusho":"沖縄県宜野湾市赤道1-5-14","kouzui":"×","gake":"○","takashio":"○","jishin":"○","tsunami":"○","kaji":"×","naisui":"×","kazan":"×"}}
,{"type":"Feature","geometry":{"type":"Point","coordinates":[127.77489526141,26.277492673845]},"properties":{"Name":"うえはら児童公園","Jusho":"沖縄県宜野湾市上原1-22","kouzui":"×","gake":"○","takashio":"○","jishin":"○","tsunami":"○","kaji":"×","naisui":"×","kazan":"×"}}
,{"type":"Feature","geometry":{"type":"Point","coordinates":[124.158697790631,24.3453322891656]},"properties":{"Name":"石垣小学校","Jusho":"沖縄県石垣市石垣204","kouzui":"×","gake":"×","takashio":"×","jishin":"×","tsunami":"○","kaji":"×","naisui":"×","kazan":"×"}}
,{"type":"Feature","geometry":{"type":"Point","coordinates":[124.163674846904,24.3423347932713]},"properties":{"Name":"登野城小学校","Jusho":"沖縄県石垣市登野城290","kouzui":"×","gake":"×","takashio":"×","jishin":"×","tsunami":"○","kaji":"×","naisui":"×","kazan":"×"}}
,{"type":"Feature","geometry":{"type":"Point","coordinates":[124.223276671811,24.3557558846106]},"properties":{"Name":"宮良小学校","Jusho":"沖縄県石垣市宮良327","kouzui":"×","gake":"×","takashio":"×","jishin":"×","tsunami":"○","kaji":"×","naisui":"×","kazan":"×"}}
,{"type":"Feature","geometry":{"type":"Point","coordinates":[124.158046423045,24.4477051074999]},"properties":{"Name":"吉原小学校","Jusho":"沖縄県石垣市川平1218-137","kouzui":"×","gake":"×","takashio":"×","jishin":"×","tsunami":"○","kaji":"×","naisui":"×","kazan":"×"}}
,{"type":"Feature","geometry":{"type":"Point","coordinates":[124.15419176277,24.3477663572097]},"properties":{"Name":"石垣中学校","Jusho":"沖縄県石垣市新川307","kouzui":"×","gake":"×","takashio":"×","jishin":"×","tsunami":"○","kaji":"×","naisui":"×","kazan":"×"}}
,{"type":"Feature","geometry":{"type":"Point","coordinates":[124.167574798394,24.3446888156359]},"properties":{"Name":"石垣第二中学校","Jusho":"沖縄県石垣市登野城1078","kouzui":"×","gake":"×","takashio":"×","jishin":"×","tsunami":"○","kaji":"×","naisui":"×","kazan":"×"}}
,{"type":"Feature","geometry":{"type":"Point","coordinates":[124.195170170975,24.346461843917]},"properties":{"Name":"大浜中学校（校舎2階以上）","Jusho":"沖縄県石垣市大浜103","kouzui":"×","gake":"×","takashio":"×","jishin":"×","tsunami":"○","kaji":"×","naisui":"×","kazan":"×"}}
,{"type":"Feature","geometry":{"type":"Point","coordinates":[124.104655894821,24.4408085147819]},"properties":{"Name":"崎枝小中学校","Jusho":"沖縄県石垣市崎枝530-18","kouzui":"×","gake":"×","takashio":"×","jishin":"×","tsunami":"○","kaji":"×","naisui":"×","kazan":"×"}}
,{"type":"Feature","geometry":{"type":"Point","coordinates":[124.143646100975,24.3687671504284]},"properties":{"Name":"石垣青少年の家","Jusho":"沖縄県石垣市新川868","kouzui":"×","gake":"×","takashio":"×","jishin":"×","tsunami":"○","kaji":"×","naisui":"×","kazan":"×"}}
,{"type":"Feature","geometry":{"type":"Point","coordinates":[124.164444709615,24.3451082411551]},"properties":{"Name":"八重山農林高校","Jusho":"沖縄県石垣市大川497","kouzui":"×","gake":"×","takashio":"×","jishin":"×","tsunami":"○","kaji":"×","naisui":"×","kazan":"×"}}
,{"type":"Feature","geometry":{"type":"Point","coordinates":[124.164846042919,24.3417996722446]},"properties":{"Name":"八重山高校","Jusho":"沖縄県石垣市登野城275","kouzui":"×","gake":"×","takashio":"×","jishin":"×","tsunami":"○","kaji":"×","naisui":"×","kazan":"×"}}
,{"type":"Feature","geometry":{"type":"Point","coordinates":[124.173025099008,24.3449232090399]},"properties":{"Name":"石垣市中央運動公園","Jusho":"沖縄県石垣市登野城1408-1","kouzui":"×","gake":"×","takashio":"×","jishin":"○","tsunami":"○","kaji":"○","naisui":"×","kazan":"×"}}
,{"type":"Feature","geometry":{"type":"Point","coordinates":[124.32605314209,24.6009003735569]},"properties":{"Name":"平野公民館","Jusho":"沖縄県石垣市平久保424","kouzui":"×","gake":"×","takashio":"×","jishin":"×","tsunami":"○","kaji":"×","naisui":"×","kazan":"×"}}
,{"type":"Feature","geometry":{"type":"Point","coordinates":[124.314021411272,24.5822099182427]},"properties":{"Name":"石ムルク","Jusho":"沖縄県石垣市平久保226-73付近","kouzui":"×","gake":"×","takashio":"×","jishin":"×","tsunami":"○","kaji":"×","naisui":"×","kazan":"×"}}
,{"type":"Feature","geometry":{"type":"Point","coordinates":[124.289715319502,24.5619409929044]},"properties":{"Name":"久宇良公民館","Jusho":"沖縄県石垣市平久保234-231","kouzui":"×","gake":"×","takashio":"×","jishin":"×","tsunami":"○","kaji":"×","naisui":"×","kazan":"×"}}
,{"type":"Feature","geometry":{"type":"Point","coordinates":[124.300499720639,24.5333635168809]},"properties":{"Name":"トムル岳","Jusho":"沖縄県石垣市伊原間155-2付近","kouzui":"×","gake":"×","takashio":"×","jishin":"×","tsunami":"○","kaji":"×","naisui":"×","kazan":"×"}}
,{"type":"Feature","geometry":{"type":"Point","coordinates":[124.282414260252,24.5157510091794]},"properties":{"Name":"伊原間はんな岳","Jusho":"沖縄県石垣市伊原間155-12付近","kouzui":"×","gake":"×","takashio":"×","jishin":"×","tsunami":"○","kaji":"×","naisui":"×","kazan":"×"}}
,{"type":"Feature","geometry":{"type":"Point","coordinates":[124.23420624262,24.4936086779541]},"properties":{"Name":"多良間公民館","Jusho":"沖縄県石垣市野底1204","kouzui":"×","gake":"×","takashio":"×","jishin":"×","tsunami":"○","kaji":"×","naisui":"×","kazan":"×"}}
,{"type":"Feature","geometry":{"type":"Point","coordinates":[124.244496106774,24.4997300727509]},"properties":{"Name":"兼城公民館","Jusho":"沖縄県石垣市野底932","kouzui":"×","gake":"×","takashio":"×","jishin":"×","tsunami":"○","kaji":"×","naisui":"×","kazan":"×"}}
,{"type":"Feature","geometry":{"type":"Point","coordinates":[124.250896189104,24.5079507486975]},"properties":{"Name":"栄公民館","Jusho":"沖縄県石垣市野底455-1","kouzui":"×","gake":"×","takashio":"×","jishin":"×","tsunami":"○","kaji":"×","naisui":"×","kazan":"×"}}
,{"type":"Feature","geometry":{"type":"Point","coordinates":[124.229392352445,24.4779093453093]},"properties":{"Name":"伊土名集落南方高台","Jusho":"沖縄県石垣市桴海337-77付近","kouzui":"×","gake":"×","takashio":"×","jishin":"×","tsunami":"○","kaji":"×","naisui":"×","kazan":"×"}}
,{"type":"Feature","geometry":{"type":"Point","coordinates":[124.168106912695,24.4474551116197]},"properties":{"Name":"ポーサーおばさん食卓前公園","Jusho":"沖縄県石垣市川平1216-156","kouzui":"×","gake":"×","takashio":"×","jishin":"×","tsunami":"○","kaji":"×","naisui":"×","kazan":"×"}}
,{"type":"Feature","geometry":{"type":"Point","coordinates":[124.194882371563,24.4518548669464]},"properties":{"Name":"米原ヤシ群落駐車場","Jusho":"沖縄県石垣市桴海546付近","kouzui":"×","gake":"×","takashio":"×","jishin":"×","tsunami":"○","kaji":"×","naisui":"×","kazan":"×"}}
,{"type":"Feature","geometry":{"type":"Point","coordinates":[124.203972031369,24.4531235154205]},"properties":{"Name":"富野公民館","Jusho":"沖縄県石垣市桴海148-55","kouzui":"×","gake":"×","takashio":"×","jishin":"×","tsunami":"○","kaji":"×","naisui":"×","kazan":"×"}}
,{"type":"Feature","geometry":{"type":"Point","coordinates":[124.245407706659,24.4684119950776]},"properties":{"Name":"金比羅","Jusho":"沖縄県石垣市桃里200-227付近","kouzui":"×","gake":"×","takashio":"×","jishin":"×","tsunami":"○","kaji":"×","naisui":"×","kazan":"×"}}
,{"type":"Feature","geometry":{"type":"Point","coordinates":[124.241523868008,24.4516683151857]},"properties":{"Name":"番屋","Jusho":"沖縄県石垣市桃里200-16付近","kouzui":"×","gake":"×","takashio":"×","jishin":"×","tsunami":"○","kaji":"×","naisui":"×","kazan":"×"}}
,{"type":"Feature","geometry":{"type":"Point","coordinates":[124.134957187021,24.4389917488694]},"properties":{"Name":"大嵩公民館","Jusho":"沖縄県石垣市川平1218-194","kouzui":"×","gake":"×","takashio":"×","jishin":"×","tsunami":"○","kaji":"×","naisui":"×","kazan":"×"}}
,{"type":"Feature","geometry":{"type":"Point","coordinates":[124.242276798257,24.4394692108397]},"properties":{"Name":"とりなき山","Jusho":"沖縄県石垣市桃里165-550付近","kouzui":"×","gake":"×","takashio":"×","jishin":"×","tsunami":"○","kaji":"×","naisui":"×","kazan":"×"}}
,{"type":"Feature","geometry":{"type":"Point","coordinates":[124.245203519981,24.4201561332859]},"properties":{"Name":"大里公民館","Jusho":"沖縄県石垣市桃里165-189","kouzui":"×","gake":"×","takashio":"×","jishin":"×","tsunami":"○","kaji":"×","naisui":"×","kazan":"×"}}
,{"type":"Feature","geometry":{"type":"Point","coordinates":[124.174789522054,24.3840533283114]},"properties":{"Name":"バンナ公園北口広場","Jusho":"沖縄県石垣市登野城2241-1","kouzui":"×","gake":"×","takashio":"×","jishin":"×","tsunami":"○","kaji":"×","naisui":"×","kazan":"×"}}
,{"type":"Feature","geometry":{"type":"Point","coordinates":[124.234436543691,24.3668498068534]},"properties":{"Name":"ゆなむり","Jusho":"沖縄県石垣市白保1057-76","kouzui":"×","gake":"×","takashio":"×","jishin":"×","tsunami":"○","kaji":"×","naisui":"×","kazan":"×"}}
,{"type":"Feature","geometry":{"type":"Point","coordinates":[124.188407762599,24.3514108401514]},"properties":{"Name":"八重山運輸事務所北三又路","Jusho":"沖縄県石垣市真栄里820-1付近","kouzui":"×","gake":"×","takashio":"×","jishin":"×","tsunami":"○","kaji":"×","naisui":"×","kazan":"×"}}
,{"type":"Feature","geometry":{"type":"Point","coordinates":[124.231585963314,24.3558043256057]},"properties":{"Name":"産業廃棄物処理場前付近","Jusho":"沖縄県石垣市宮良422-6付近","kouzui":"×","gake":"×","takashio":"×","jishin":"×","tsunami":"○","kaji":"×","naisui":"×","kazan":"×"}}
,{"type":"Feature","geometry":{"type":"Point","coordinates":[124.297584834425,24.5457985051957]},"properties":{"Name":"明石集落北方携帯基地局付近","Jusho":"沖縄県石垣市平久保234-541付近","kouzui":"×","gake":"×","takashio":"×","jishin":"×","tsunami":"○","kaji":"×","naisui":"×","kazan":"×"}}
,{"type":"Feature","geometry":{"type":"Point","coordinates":[124.137405100625,24.4628512468686]},"properties":{"Name":"川平ロータリー付近","Jusho":"沖縄県石垣市川平862付近","kouzui":"×","gake":"×","takashio":"×","jishin":"×","tsunami":"○","kaji":"×","naisui":"×","kazan":"×"}}
,{"type":"Feature","geometry":{"type":"Point","coordinates":[124.146391267341,24.3515384683064]},"properties":{"Name":"新川公園","Jusho":"沖縄県石垣市新川2395-1","kouzui":"×","gake":"×","takashio":"×","jishin":"○","tsunami":"×","kaji":"○","naisui":"×","kazan":"×"}}
,{"type":"Feature","geometry":{"type":"Point","coordinates":[124.15345510127,24.3407190228211]},"properties":{"Name":"新栄公園","Jusho":"沖縄県石垣市新栄町3-1","kouzui":"×","gake":"×","takashio":"×","jishin":"○","tsunami":"×","kaji":"○","naisui":"×","kazan":"×"}}
,{"type":"Feature","geometry":{"type":"Point","coordinates":[124.168253016741,24.3330061522165]},"properties":{"Name":"真栄里公園","Jusho":"沖縄県石垣市真栄里109-3","kouzui":"×","gake":"×","takashio":"×","jishin":"○","tsunami":"×","kaji":"○","naisui":"×","kazan":"×"}}
,{"type":"Feature","geometry":{"type":"Point","coordinates":[124.151305115169,24.3425264949681]},"properties":{"Name":"ホテルルートイングランティア石垣 （5階以上）","Jusho":"沖縄県石垣市新栄町21.","kouzui":"×","gake":"×","takashio":"×","jishin":"×","tsunami":"○","kaji":"×","naisui":"×","kazan":"×"}}
,{"type":"Feature","geometry":{"type":"Point","coordinates":[124.154682199957,24.3397139742391]},"properties":{"Name":"ホテルピースアイランド石垣島 （5階以上）","Jusho":"沖縄県石垣市美崎町11-1","kouzui":"×","gake":"×","takashio":"×","jishin":"×","tsunami":"○","kaji":"×","naisui":"×","kazan":"×"}}
,{"type":"Feature","geometry":{"type":"Point","coordinates":[124.155111353403,24.3384725134714]},"properties":{"Name":"南の美ら花ホテル ミヤヒラ （5階以上）","Jusho":"沖縄県石垣市美崎町4-9","kouzui":"×","gake":"×","takashio":"×","jishin":"×","tsunami":"○","kaji":"×","naisui":"×","kazan":"×"}}
,{"type":"Feature","geometry":{"type":"Point","coordinates":[124.156892340187,24.3389954925219]},"properties":{"Name":"石垣島ホテル クルル（5階以上）","Jusho":"沖縄県石垣市美崎町8-1","kouzui":"×","gake":"×","takashio":"×","jishin":"×","tsunami":"○","kaji":"×","naisui":"×","kazan":"×"}}
,{"type":"Feature","geometry":{"type":"Point","coordinates":[124.158275263563,24.3381254810974]},"properties":{"Name":"ホテルグランビュー（5階以上）","Jusho":"沖縄県石垣市登野城１","kouzui":"×","gake":"×","takashio":"×","jishin":"×","tsunami":"○","kaji":"×","naisui":"×","kazan":"×"}}
,{"type":"Feature","geometry":{"type":"Point","coordinates":[124.159171121371,24.3371577171252]},"properties":{"Name":"ホテルハッピーホリデー石垣島 （5階以上）","Jusho":"沖縄県石垣市登野城16","kouzui":"×","gake":"×","takashio":"×","jishin":"×","tsunami":"○","kaji":"×","naisui":"×","kazan":"×"}}
,{"type":"Feature","geometry":{"type":"Point","coordinates":[124.15934849641,24.3350429225266]},"properties":{"Name":"アパホテル石垣島（5階以上）","Jusho":"沖縄県石垣市八島町1-2-3","kouzui":"×","gake":"×","takashio":"×","jishin":"×","tsunami":"○","kaji":"×","naisui":"×","kazan":"×"}}
,{"type":"Feature","geometry":{"type":"Point","coordinates":[124.151991604125,24.3411072443166]},"properties":{"Name":"蓬莱閣マンション（5階以上）","Jusho":"沖縄県石垣市浜崎町2-1-7","kouzui":"×","gake":"×","takashio":"×","jishin":"×","tsunami":"○","kaji":"×","naisui":"×","kazan":"×"}}
,{"type":"Feature","geometry":{"type":"Point","coordinates":[124.187800333006,24.340333961152]},"properties":{"Name":"沖縄県八重山合同庁舎 （5階会議室・研修室）","Jusho":"沖縄県石垣市真栄里438-1","kouzui":"×","gake":"×","takashio":"×","jishin":"×","tsunami":"○","kaji":"×","naisui":"×","kazan":"×"}}
,{"type":"Feature","geometry":{"type":"Point","coordinates":[124.189370498327,24.3359243091045]},"properties":{"Name":"ANAインターコンチネンタル石垣リゾート（5階以上）","Jusho":"沖縄県石垣市真栄里354-1","kouzui":"×","gake":"×","takashio":"×","jishin":"×","tsunami":"○","kaji":"×","naisui":"×","kazan":"×"}}
,{"type":"Feature","geometry":{"type":"Point","coordinates":[124.148622749611,24.3385607983435]},"properties":{"Name":"東横イン石垣島（5階以上）","Jusho":"沖縄県石垣市浜崎町3-2-12","kouzui":"×","gake":"×","takashio":"×","jishin":"×","tsunami":"○","kaji":"×","naisui":"×","kazan":"×"}}
,{"type":"Feature","geometry":{"type":"Point","coordinates":[124.135970235474,24.3553123930943]},"properties":{"Name":"ホテルロイヤルマリンパレス（5階以上）","Jusho":"沖縄県石垣市新川2459-1","kouzui":"×","gake":"×","takashio":"×","jishin":"×","tsunami":"○","kaji":"×","naisui":"×","kazan":"×"}}
,{"type":"Feature","geometry":{"type":"Point","coordinates":[124.166135734832,24.3346714876821]},"properties":{"Name":"丸栄タイル商会ビル（3階広場）","Jusho":"沖縄県石垣市登野城522-2","kouzui":"×","gake":"×","takashio":"×","jishin":"×","tsunami":"○","kaji":"×","naisui":"×","kazan":"×"}}
,{"type":"Feature","geometry":{"type":"Point","coordinates":[124.170042050158,24.3349124093878]},"properties":{"Name":"県営平真団地（高層1・2号棟5階以上）","Jusho":"沖縄県石垣市真栄里109","kouzui":"×","gake":"×","takashio":"×","jishin":"×","tsunami":"○","kaji":"×","naisui":"×","kazan":"×"}}
,{"type":"Feature","geometry":{"type":"Point","coordinates":[124.168682583025,24.3344417765336]},"properties":{"Name":"コンフォート真栄里（5階以上）","Jusho":"沖縄県石垣市真栄里97-4","kouzui":"×","gake":"×","takashio":"×","jishin":"×","tsunami":"○","kaji":"×","naisui":"×","kazan":"×"}}
,{"type":"Feature","geometry":{"type":"Point","coordinates":[124.177884653271,24.3327317007878]},"properties":{"Name":"ブルーシーナリー真栄里（5階以上）","Jusho":"沖縄県石垣市真栄里204-64","kouzui":"×","gake":"×","takashio":"×","jishin":"×","tsunami":"○","kaji":"×","naisui":"×","kazan":"×"}}
,{"type":"Feature","geometry":{"type":"Point","coordinates":[124.168360717943,24.3354193368188]},"properties":{"Name":"合同宿舎石垣住宅10号棟 （5階供用廊下）","Jusho":"沖縄県石垣市登野城589","kouzui":"×","gake":"×","takashio":"×","jishin":"×","tsunami":"○","kaji":"×","naisui":"×","kazan":"×"}}
,{"type":"Feature","geometry":{"type":"Point","coordinates":[124.167942293338,24.3355073168746]},"properties":{"Name":"合同宿舎石垣住宅11号棟 （5階供用廊下・エレベーターホール）","Jusho":"沖縄県石垣市登野城589","kouzui":"×","gake":"×","takashio":"×","jishin":"×","tsunami":"○","kaji":"×","naisui":"×","kazan":"×"}}
,{"type":"Feature","geometry":{"type":"Point","coordinates":[124.168022759606,24.3357419300578]},"properties":{"Name":"合同宿舎石垣住宅12号棟 （5階供用廊下・エレベーターホール）","Jusho":"沖縄県石垣市登野城589","kouzui":"×","gake":"×","takashio":"×","jishin":"×","tsunami":"○","kaji":"×","naisui":"×","kazan":"×"}}
,{"type":"Feature","geometry":{"type":"Point","coordinates":[124.151583908359,24.3396702926133]},"properties":{"Name":"ベッセルホテル石垣島 （5階以上通路、階段及び屋上）","Jusho":"沖縄県石垣市浜崎町1-2-7","kouzui":"×","gake":"×","takashio":"×","jishin":"×","tsunami":"○","kaji":"×","naisui":"×","kazan":"×"}}
,{"type":"Feature","geometry":{"type":"Point","coordinates":[124.154923598771,24.3388879642956]},"properties":{"Name":"ホテルエメラルドアイル石垣島 （5階以上の通路及び階段、屋上）","Jusho":"沖縄県石垣市美崎町7-14","kouzui":"×","gake":"×","takashio":"×","jishin":"×","tsunami":"○","kaji":"×","naisui":"×","kazan":"×"}}
,{"type":"Feature","geometry":{"type":"Point","coordinates":[124.147288253281,24.3465828470833]},"properties":{"Name":"海上保安庁新栄町宿舎 （5階供用廊下、屋上）","Jusho":"沖縄県石垣市新栄町58","kouzui":"×","gake":"×","takashio":"×","jishin":"×","tsunami":"○","kaji":"×","naisui":"×","kazan":"×"}}
,{"type":"Feature","geometry":{"type":"Point","coordinates":[124.15833427216,24.3371626048407]},"properties":{"Name":"ホテルイーストチャイナシー （5階以上の通路及び階段）","Jusho":"沖縄県石垣市美崎町2-8","kouzui":"×","gake":"×","takashio":"×","jishin":"×","tsunami":"○","kaji":"×","naisui":"×","kazan":"×"}}
,{"type":"Feature","geometry":{"type":"Point","coordinates":[124.171070498574,24.3478297243564]},"properties":{"Name":"石垣市健康福祉センター","Jusho":"沖縄県石垣市登野城1357","kouzui":"○","gake":"○","takashio":"○","jishin":"×","tsunami":"×","kaji":"×","naisui":"○","kazan":"×"}}
,{"type":"Feature","geometry":{"type":"Point","coordinates":[124.281516927087,24.5087292358243]},"properties":{"Name":"伊原間中学校","Jusho":"沖縄県石垣市伊原間28","kouzui":"○","gake":"○","takashio":"○","jishin":"×","tsunami":"×","kaji":"×","naisui":"○","kazan":"×"}}
,{"type":"Feature","geometry":{"type":"Point","coordinates":[124.139300121125,24.4590594382726]},"properties":{"Name":"川平小中学校","Jusho":"沖縄県石垣市川平969","kouzui":"○","gake":"○","takashio":"○","jishin":"×","tsunami":"×","kaji":"×","naisui":"○","kazan":"×"}}
,{"type":"Feature","geometry":{"type":"Point","coordinates":[124.189760425883,24.3399034408116]},"properties":{"Name":"石垣島徳洲会病院 （5階以上の通路、階段）","Jusho":"沖縄県石垣市南大浜446-1","kouzui":"×","gake":"×","takashio":"×","jishin":"×","tsunami":"○","kaji":"×","naisui":"×","kazan":"×"}}
,{"type":"Feature","geometry":{"type":"Point","coordinates":[124.159056927442,24.3346279450307]},"properties":{"Name":"ホテルチューリップ石垣島 （5階以上の通路、階段及び7階屋上）","Jusho":"沖縄県石垣市八島町1-3-5","kouzui":"×","gake":"×","takashio":"×","jishin":"×","tsunami":"○","kaji":"×","naisui":"×","kazan":"×"}}
,{"type":"Feature","geometry":{"type":"Point","coordinates":[124.182882039596,24.3368358653288]},"properties":{"Name":"ドリームハイツ （5階以上の通路及び階段）","Jusho":"沖縄県石垣市真栄里307-1","kouzui":"×","gake":"×","takashio":"×","jishin":"×","tsunami":"○","kaji":"×","naisui":"×","kazan":"×"}}
,{"type":"Feature","geometry":{"type":"Point","coordinates":[124.162593027636,24.3452909543832]},"properties":{"Name":"福祉避難所兼ふれあい交流施設「結い心センター」","Jusho":"沖縄県石垣市字大川100番地3","kouzui":"○","gake":"○","takashio":"○","jishin":"○","tsunami":"○","kaji":"○","naisui":"○","kazan":"○"}}
,{"type":"Feature","geometry":{"type":"Point","coordinates":[124.143163929115,24.3556434837769]},"properties":{"Name":"県営新川団地２号棟 （５階以上の通路及び階段）","Jusho":"沖縄県石垣市字新川2212-1","kouzui":"×","gake":"×","takashio":"×","jishin":"×","tsunami":"○","kaji":"×","naisui":"×","kazan":"×"}}
,{"type":"Feature","geometry":{"type":"Point","coordinates":[124.155991598742,24.3381654075155]},"properties":{"Name":"南の美ら花ホテル ミヤヒラ（美崎館） （5階以上の通路及び階段、９階屋上）","Jusho":"沖縄県石垣市美崎町4-9","kouzui":"×","gake":"×","takashio":"×","jishin":"×","tsunami":"○","kaji":"×","naisui":"×","kazan":"×"}}
,{"type":"Feature","geometry":{"type":"Point","coordinates":[124.182676092076,24.3364784175794]},"properties":{"Name":"ドリームハイツ空 （５階以上の通路及び階段）","Jusho":"沖縄県石垣市字真栄里307-6","kouzui":"×","gake":"×","takashio":"×","jishin":"×","tsunami":"○","kaji":"×","naisui":"×","kazan":"×"}}
,{"type":"Feature","geometry":{"type":"Point","coordinates":[124.186311687398,24.3381517859534]},"properties":{"Name":"ドリームタウン宮鳥 （５階以上の通路及び階段）","Jusho":"沖縄県石垣市字真栄里349-5","kouzui":"×","gake":"×","takashio":"×","jishin":"×","tsunami":"○","kaji":"×","naisui":"×","kazan":"×"}}
,{"type":"Feature","geometry":{"type":"Point","coordinates":[124.185245,24.344419]},"properties":{"Name":"石垣市役所","Jusho":"沖縄県石垣市字真栄里672番地","kouzui":"○","gake":"○","takashio":"○","jishin":"○","tsunami":"○","kaji":"○","naisui":"○","kazan":"○"}}
,{"type":"Feature","geometry":{"type":"Point","coordinates":[127.72975379242,26.246971466427]},"properties":{"Name":"浦添小学校","Jusho":"沖縄県浦添市仲間2-47-1","kouzui":"○","gake":"○","takashio":"○","jishin":"○","tsunami":"○","kaji":"○","naisui":"○","kazan":"×"}}
,{"type":"Feature","geometry":{"type":"Point","coordinates":[127.70694151305,26.250151436151]},"properties":{"Name":"仲西小学校","Jusho":"沖縄県浦添市屋富祖2-32-1","kouzui":"○","gake":"○","takashio":"○","jishin":"○","tsunami":"○","kaji":"○","naisui":"○","kazan":"×"}}
,{"type":"Feature","geometry":{"type":"Point","coordinates":[127.69968482932,26.241928630678]},"properties":{"Name":"神森小学校","Jusho":"沖縄県浦添市勢理客1-4-1","kouzui":"○","gake":"○","takashio":"○","jishin":"○","tsunami":"○","kaji":"○","naisui":"○","kazan":"×"}}
,{"type":"Feature","geometry":{"type":"Point","coordinates":[127.71716653094,26.25376705971]},"properties":{"Name":"浦城小学校","Jusho":"沖縄県浦添市伊祖2-13-1","kouzui":"○","gake":"○","takashio":"○","jishin":"○","tsunami":"○","kaji":"○","naisui":"○","kazan":"×"}}
,{"type":"Feature","geometry":{"type":"Point","coordinates":[127.72451774776,26.259297772449]},"properties":{"Name":"牧港小学校","Jusho":"沖縄県浦添市牧港2-14-1","kouzui":"○","gake":"○","takashio":"○","jishin":"○","tsunami":"○","kaji":"○","naisui":"○","kazan":"×"}}
,{"type":"Feature","geometry":{"type":"Point","coordinates":[127.7334072437,26.251946410733]},"properties":{"Name":"当山小学校","Jusho":"沖縄県浦添市当山2-34-1","kouzui":"○","gake":"○","takashio":"○","jishin":"○","tsunami":"○","kaji":"○","naisui":"○","kazan":"×"}}
,{"type":"Feature","geometry":{"type":"Point","coordinates":[127.70445041559,26.239070847587]},"properties":{"Name":"内間小学校","Jusho":"沖縄県浦添市内間4-3-1","kouzui":"○","gake":"○","takashio":"○","jishin":"○","tsunami":"○","kaji":"○","naisui":"○","kazan":"×"}}
,{"type":"Feature","geometry":{"type":"Point","coordinates":[127.71601878306,26.260981048684]},"properties":{"Name":"港川小学校","Jusho":"沖縄県浦添市城間4-37-1","kouzui":"○","gake":"○","takashio":"○","jishin":"○","tsunami":"○","kaji":"○","naisui":"○","kazan":"×"}}
,{"type":"Feature","geometry":{"type":"Point","coordinates":[127.70648123611,26.24699308702]},"properties":{"Name":"宮城小学校","Jusho":"沖縄県浦添市宮城3-7-3","kouzui":"○","gake":"○","takashio":"○","jishin":"○","tsunami":"○","kaji":"○","naisui":"○","kazan":"×"}}
,{"type":"Feature","geometry":{"type":"Point","coordinates":[127.716981314,26.236712650101]},"properties":{"Name":"沢岻小学校","Jusho":"沖縄県浦添市沢岻998","kouzui":"○","gake":"○","takashio":"○","jishin":"○","tsunami":"○","kaji":"○","naisui":"○","kazan":"×"}}
,{"type":"Feature","geometry":{"type":"Point","coordinates":[127.73439462795,26.238993754454]},"properties":{"Name":"前田小学校","Jusho":"沖縄県浦添市前田333","kouzui":"○","gake":"○","takashio":"○","jishin":"○","tsunami":"○","kaji":"○","naisui":"○","kazan":"×"}}
,{"type":"Feature","geometry":{"type":"Point","coordinates":[127.7272975029,26.24596563487]},"properties":{"Name":"浦添中学校","Jusho":"沖縄県浦添市仲間2-46-1","kouzui":"○","gake":"○","takashio":"○","jishin":"○","tsunami":"○","kaji":"○","naisui":"○","kazan":"×"}}
,{"type":"Feature","geometry":{"type":"Point","coordinates":[127.70984173215,26.250160612242]},"properties":{"Name":"仲西中学校","Jusho":"沖縄県浦添市屋富祖2-13-1","kouzui":"○","gake":"○","takashio":"○","jishin":"○","tsunami":"○","kaji":"○","naisui":"○","kazan":"×"}}
,{"type":"Feature","geometry":{"type":"Point","coordinates":[127.70708173908,26.239334922262]},"properties":{"Name":"神森中学校","Jusho":"沖縄県浦添市内間1-6-1","kouzui":"○","gake":"○","takashio":"○","jishin":"○","tsunami":"○","kaji":"○","naisui":"○","kazan":"×"}}
,{"type":"Feature","geometry":{"type":"Point","coordinates":[127.71825255811,26.26138027019]},"properties":{"Name":"港川中学校","Jusho":"沖縄県浦添市港川1-1-1","kouzui":"○","gake":"○","takashio":"○","jishin":"○","tsunami":"○","kaji":"○","naisui":"○","kazan":"×"}}
,{"type":"Feature","geometry":{"type":"Point","coordinates":[127.7357638278,26.248499339742]},"properties":{"Name":"浦西中学校","Jusho":"沖縄県浦添市当山3-1-1","kouzui":"○","gake":"○","takashio":"○","jishin":"○","tsunami":"○","kaji":"○","naisui":"○","kazan":"×"}}
,{"type":"Feature","geometry":{"type":"Point","coordinates":[127.70293358946,26.237673495003]},"properties":{"Name":"浦添高等学校","Jusho":"沖縄県浦添市内間3-26-1","kouzui":"○","gake":"○","takashio":"○","jishin":"○","tsunami":"○","kaji":"○","naisui":"○","kazan":"×"}}
,{"type":"Feature","geometry":{"type":"Point","coordinates":[127.72041046944,26.259050459296]},"properties":{"Name":"浦添商業高等学校","Jusho":"沖縄県浦添市伊祖3-11-1","kouzui":"○","gake":"○","takashio":"○","jishin":"○","tsunami":"○","kaji":"○","naisui":"○","kazan":"×"}}
,{"type":"Feature","geometry":{"type":"Point","coordinates":[127.72038917434,26.250795388163]},"properties":{"Name":"浦添カルチャーパーク","Jusho":"沖縄県浦添市仲間1-9","kouzui":"○","gake":"○","takashio":"○","jishin":"○","tsunami":"○","kaji":"○","naisui":"○","kazan":"×"}}
,{"type":"Feature","geometry":{"type":"Point","coordinates":[127.72298080984,26.251237941943]},"properties":{"Name":"ANA SPORTS PARK浦添(浦添運動公園)","Jusho":"沖縄県浦添市仲間1-13-1","kouzui":"○","gake":"○","takashio":"○","jishin":"○","tsunami":"○","kaji":"○","naisui":"○","kazan":"×"}}
,{"type":"Feature","geometry":{"type":"Point","coordinates":[127.74400246429,26.250988962175]},"properties":{"Name":"つなひき公園","Jusho":"沖縄県浦添市西原4-9","kouzui":"○","gake":"○","takashio":"○","jishin":"○","tsunami":"○","kaji":"○","naisui":"○","kazan":"×"}}
,{"type":"Feature","geometry":{"type":"Point","coordinates":[127.74900614837,26.250714089645]},"properties":{"Name":"うがんやま公園","Jusho":"沖縄県浦添市西原4-36","kouzui":"○","gake":"○","takashio":"○","jishin":"○","tsunami":"○","kaji":"○","naisui":"○","kazan":"×"}}
,{"type":"Feature","geometry":{"type":"Point","coordinates":[127.74070267741,26.248282064591]},"properties":{"Name":"にしばる公園","Jusho":"沖縄県浦添市西原5-13","kouzui":"○","gake":"○","takashio":"○","jishin":"○","tsunami":"○","kaji":"○","naisui":"○","kazan":"×"}}
,{"type":"Feature","geometry":{"type":"Point","coordinates":[127.74431955221,26.247528272296]},"properties":{"Name":"浦西さくら公園","Jusho":"沖縄県浦添市西原5-25","kouzui":"○","gake":"○","takashio":"○","jishin":"○","tsunami":"○","kaji":"○","naisui":"○","kazan":"×"}}
,{"type":"Feature","geometry":{"type":"Point","coordinates":[127.74292818203,26.245581305472]},"properties":{"Name":"浦西あじさい公園","Jusho":"沖縄県浦添市西原5-27","kouzui":"○","gake":"○","takashio":"○","jishin":"○","tsunami":"○","kaji":"○","naisui":"○","kazan":"×"}}
,{"type":"Feature","geometry":{"type":"Point","coordinates":[127.74425188592,26.245985180422]},"properties":{"Name":"浦西でいご公園","Jusho":"沖縄県浦添市西原5-29","kouzui":"○","gake":"○","takashio":"○","jishin":"○","tsunami":"○","kaji":"○","naisui":"○","kazan":"×"}}
,{"type":"Feature","geometry":{"type":"Point","coordinates":[127.74584101347,26.248168221503]},"properties":{"Name":"浦西しらゆり公園","Jusho":"沖縄県浦添市西原5-42","kouzui":"○","gake":"○","takashio":"○","jishin":"○","tsunami":"○","kaji":"○","naisui":"○","kazan":"×"}}
,{"type":"Feature","geometry":{"type":"Point","coordinates":[127.74717974949,26.246449768696]},"properties":{"Name":"浦西ひまわり公園","Jusho":"沖縄県浦添市西原6-28","kouzui":"○","gake":"○","takashio":"○","jishin":"○","tsunami":"○","kaji":"○","naisui":"○","kazan":"×"}}
,{"type":"Feature","geometry":{"type":"Point","coordinates":[127.74568747109,26.245281659763]},"properties":{"Name":"浦西カトレア公園","Jusho":"沖縄県浦添市西原6-30","kouzui":"○","gake":"○","takashio":"○","jishin":"○","tsunami":"○","kaji":"○","naisui":"○","kazan":"×"}}
,{"type":"Feature","geometry":{"type":"Point","coordinates":[127.71350208269,26.251547642735]},"properties":{"Name":"城間南公園","Jusho":"沖縄県浦添市城間2-1-1","kouzui":"○","gake":"○","takashio":"○","jishin":"○","tsunami":"○","kaji":"○","naisui":"○","kazan":"×"}}
,{"type":"Feature","geometry":{"type":"Point","coordinates":[127.71321240411,26.253493731033]},"properties":{"Name":"すみれ公園","Jusho":"沖縄県浦添市城間2-11-1","kouzui":"○","gake":"○","takashio":"○","jishin":"○","tsunami":"○","kaji":"○","naisui":"○","kazan":"×"}}
,{"type":"Feature","geometry":{"type":"Point","coordinates":[127.71167013392,26.256616064168]},"properties":{"Name":"あさがお公園","Jusho":"沖縄県浦添市城間3-18-1","kouzui":"○","gake":"○","takashio":"○","jishin":"○","tsunami":"○","kaji":"○","naisui":"○","kazan":"×"}}
,{"type":"Feature","geometry":{"type":"Point","coordinates":[127.71072063193,26.257270348302]},"properties":{"Name":"うしもー公園","Jusho":"沖縄県浦添市城間3-21-1","kouzui":"○","gake":"○","takashio":"○","jishin":"○","tsunami":"○","kaji":"○","naisui":"○","kazan":"×"}}
,{"type":"Feature","geometry":{"type":"Point","coordinates":[127.71396519958,26.256084737514]},"properties":{"Name":"泉小公園","Jusho":"沖縄県浦添市城間4-4","kouzui":"○","gake":"○","takashio":"○","jishin":"○","tsunami":"○","kaji":"○","naisui":"○","kazan":"×"}}
,{"type":"Feature","geometry":{"type":"Point","coordinates":[127.71667587586,26.256735793531]},"properties":{"Name":"ぱんじー公園","Jusho":"沖縄県浦添市城間4-25-22","kouzui":"○","gake":"○","takashio":"○","jishin":"○","tsunami":"○","kaji":"○","naisui":"○","kazan":"×"}}
,{"type":"Feature","geometry":{"type":"Point","coordinates":[127.71466517465,26.260082194228]},"properties":{"Name":"浦城公園","Jusho":"沖縄県浦添市城間4-33","kouzui":"○","gake":"×","takashio":"○","jishin":"○","tsunami":"○","kaji":"○","naisui":"○","kazan":"×"}}
,{"type":"Feature","geometry":{"type":"Point","coordinates":[127.71675240464,26.261166355713]},"properties":{"Name":"まつば公園","Jusho":"沖縄県浦添市城間4-38-7","kouzui":"○","gake":"○","takashio":"○","jishin":"○","tsunami":"○","kaji":"○","naisui":"○","kazan":"×"}}
,{"type":"Feature","geometry":{"type":"Point","coordinates":[127.73723193721,26.23853797116]},"properties":{"Name":"前田東上原公園","Jusho":"沖縄県浦添市前田1-46","kouzui":"○","gake":"○","takashio":"○","jishin":"○","tsunami":"○","kaji":"○","naisui":"○","kazan":"×"}}
,{"type":"Feature","geometry":{"type":"Point","coordinates":[127.73301989747,26.244818145088]},"properties":{"Name":"前田山川原公園","Jusho":"沖縄県浦添市前田2-11","kouzui":"○","gake":"○","takashio":"○","jishin":"○","tsunami":"○","kaji":"○","naisui":"○","kazan":"×"}}
,{"type":"Feature","geometry":{"type":"Point","coordinates":[127.73883661994,26.246472042475]},"properties":{"Name":"ドラゴン公園","Jusho":"沖縄県浦添市前田3-7","kouzui":"○","gake":"○","takashio":"○","jishin":"○","tsunami":"○","kaji":"○","naisui":"○","kazan":"×"}}
,{"type":"Feature","geometry":{"type":"Point","coordinates":[127.73624890461,26.236919816505]},"properties":{"Name":"でいご公園","Jusho":"沖縄県浦添市前田4-16","kouzui":"○","gake":"○","takashio":"○","jishin":"○","tsunami":"○","kaji":"○","naisui":"○","kazan":"×"}}
,{"type":"Feature","geometry":{"type":"Point","coordinates":[127.72643073375,26.24082793229]},"properties":{"Name":"グリーンハイツ公園","Jusho":"沖縄県浦添市字前田824-1","kouzui":"○","gake":"○","takashio":"○","jishin":"○","tsunami":"○","kaji":"○","naisui":"○","kazan":"×"}}
,{"type":"Feature","geometry":{"type":"Point","coordinates":[127.72823915628,26.238636256269]},"properties":{"Name":"前田ありあけハイツ公園","Jusho":"沖縄県浦添市字前田990-9","kouzui":"○","gake":"○","takashio":"○","jishin":"○","tsunami":"○","kaji":"○","naisui":"○","kazan":"×"}}
,{"type":"Feature","geometry":{"type":"Point","coordinates":[127.73548380283,26.2382585395]},"properties":{"Name":"前田上原公園","Jusho":"沖縄県浦添市字前田1317-9","kouzui":"○","gake":"○","takashio":"○","jishin":"○","tsunami":"○","kaji":"○","naisui":"○","kazan":"×"}}
,{"type":"Feature","geometry":{"type":"Point","coordinates":[127.7165305398,26.25019179618]},"properties":{"Name":"ひなぎく公園","Jusho":"沖縄県浦添市伊祖1-3-1","kouzui":"○","gake":"○","takashio":"○","jishin":"○","tsunami":"○","kaji":"○","naisui":"○","kazan":"×"}}
,{"type":"Feature","geometry":{"type":"Point","coordinates":[127.71722977213,26.251508528024]},"properties":{"Name":"浅の浦公園","Jusho":"沖縄県浦添市伊祖1-13","kouzui":"○","gake":"○","takashio":"○","jishin":"○","tsunami":"○","kaji":"○","naisui":"○","kazan":"×"}}
,{"type":"Feature","geometry":{"type":"Point","coordinates":[127.71967632193,26.253058623506]},"properties":{"Name":"あさやら公園","Jusho":"沖縄県浦添市伊祖1-25-1","kouzui":"○","gake":"○","takashio":"○","jishin":"○","tsunami":"○","kaji":"○","naisui":"○","kazan":"×"}}
,{"type":"Feature","geometry":{"type":"Point","coordinates":[127.71534187217,26.252919102287]},"properties":{"Name":"かんな公園","Jusho":"沖縄県浦添市伊祖2-9-11","kouzui":"○","gake":"○","takashio":"○","jishin":"○","tsunami":"○","kaji":"○","naisui":"○","kazan":"×"}}
,{"type":"Feature","geometry":{"type":"Point","coordinates":[127.7181842237,26.255190542107]},"properties":{"Name":"ひなげし公園","Jusho":"沖縄県浦添市伊祖2-23-8","kouzui":"○","gake":"○","takashio":"○","jishin":"○","tsunami":"○","kaji":"○","naisui":"○","kazan":"×"}}
,{"type":"Feature","geometry":{"type":"Point","coordinates":[127.7200378597,26.255751121215]},"properties":{"Name":"すずらん公園","Jusho":"沖縄県浦添市伊祖3-3-8","kouzui":"○","gake":"○","takashio":"○","jishin":"○","tsunami":"○","kaji":"○","naisui":"○","kazan":"×"}}
,{"type":"Feature","geometry":{"type":"Point","coordinates":[127.723113235,26.257874038511]},"properties":{"Name":"伊祖公園","Jusho":"沖縄県浦添市伊祖3-48","kouzui":"○","gake":"×","takashio":"○","jishin":"○","tsunami":"○","kaji":"○","naisui":"○","kazan":"×"}}
,{"type":"Feature","geometry":{"type":"Point","coordinates":[127.72159130176,26.254390618325]},"properties":{"Name":"まえはら公園","Jusho":"沖縄県浦添市伊祖4-9-1","kouzui":"○","gake":"○","takashio":"○","jishin":"○","tsunami":"○","kaji":"○","naisui":"○","kazan":"×"}}
,{"type":"Feature","geometry":{"type":"Point","coordinates":[127.70871134968,26.248327502681]},"properties":{"Name":"宮城公園","Jusho":"沖縄県浦添市宮城2-1","kouzui":"○","gake":"×","takashio":"○","jishin":"○","tsunami":"○","kaji":"○","naisui":"○","kazan":"×"}}
,{"type":"Feature","geometry":{"type":"Point","coordinates":[127.70467965581,26.247965208544]},"properties":{"Name":"ひまわり公園","Jusho":"沖縄県浦添市宮城2-22-1","kouzui":"○","gake":"×","takashio":"○","jishin":"○","tsunami":"○","kaji":"○","naisui":"○","kazan":"×"}}
,{"type":"Feature","geometry":{"type":"Point","coordinates":[127.70725560231,26.24675948794]},"properties":{"Name":"せせらぎ公園","Jusho":"沖縄県浦添市宮城3-1","kouzui":"○","gake":"○","takashio":"○","jishin":"○","tsunami":"○","kaji":"○","naisui":"○","kazan":"×"}}
,{"type":"Feature","geometry":{"type":"Point","coordinates":[127.70418540351,26.245971786445]},"properties":{"Name":"チョンダ公園","Jusho":"沖縄県浦添市宮城3-12-1","kouzui":"○","gake":"○","takashio":"○","jishin":"○","tsunami":"○","kaji":"○","naisui":"○","kazan":"×"}}
,{"type":"Feature","geometry":{"type":"Point","coordinates":[127.70213199837,26.246827297598]},"properties":{"Name":"宮の浦公園","Jusho":"沖縄県浦添市宮城3-15-5","kouzui":"○","gake":"○","takashio":"○","jishin":"○","tsunami":"○","kaji":"○","naisui":"○","kazan":"×"}}
,{"type":"Feature","geometry":{"type":"Point","coordinates":[127.70588878611,26.243996613682]},"properties":{"Name":"大宮公園","Jusho":"沖縄県浦添市宮城4-2","kouzui":"○","gake":"○","takashio":"○","jishin":"○","tsunami":"○","kaji":"○","naisui":"○","kazan":"×"}}
,{"type":"Feature","geometry":{"type":"Point","coordinates":[127.70139655241,26.245636998682]},"properties":{"Name":"宮仲公園","Jusho":"沖縄県浦添市宮城4-21-9","kouzui":"○","gake":"○","takashio":"○","jishin":"○","tsunami":"○","kaji":"○","naisui":"○","kazan":"×"}}
,{"type":"Feature","geometry":{"type":"Point","coordinates":[127.7245551548,26.263039676474]},"properties":{"Name":"まちなと公園","Jusho":"沖縄県浦添市牧港2-38","kouzui":"○","gake":"○","takashio":"○","jishin":"○","tsunami":"○","kaji":"○","naisui":"○","kazan":"×"}}
,{"type":"Feature","geometry":{"type":"Point","coordinates":[127.73034979002,26.257397306053]},"properties":{"Name":"安川北公園","Jusho":"沖縄県浦添市牧港3-30-1","kouzui":"○","gake":"○","takashio":"○","jishin":"○","tsunami":"○","kaji":"○","naisui":"○","kazan":"×"}}
,{"type":"Feature","geometry":{"type":"Point","coordinates":[127.72971738276,26.256299168562]},"properties":{"Name":"安川南公園","Jusho":"沖縄県浦添市牧港3-36-1","kouzui":"○","gake":"○","takashio":"○","jishin":"○","tsunami":"○","kaji":"○","naisui":"○","kazan":"×"}}
,{"type":"Feature","geometry":{"type":"Point","coordinates":[127.72364101342,26.268643304673]},"properties":{"Name":"うえの公園","Jusho":"沖縄県浦添市牧港5-19","kouzui":"○","gake":"○","takashio":"×","jishin":"○","tsunami":"×","kaji":"○","naisui":"○","kazan":"×"}}
,{"type":"Feature","geometry":{"type":"Point","coordinates":[127.72349874164,26.26885034835]},"properties":{"Name":"うえの北公園","Jusho":"沖縄県浦添市牧港5-20","kouzui":"○","gake":"○","takashio":"×","jishin":"○","tsunami":"×","kaji":"○","naisui":"○","kazan":"×"}}
,{"type":"Feature","geometry":{"type":"Point","coordinates":[127.71971681342,26.263592428573]},"properties":{"Name":"牧港緑地（ふれあい広場）","Jusho":"沖縄県浦添市牧港1-63-1","kouzui":"○","gake":"×","takashio":"○","jishin":"○","tsunami":"○","kaji":"○","naisui":"○","kazan":"×"}}
,{"type":"Feature","geometry":{"type":"Point","coordinates":[127.709956532,26.236668067684]},"properties":{"Name":"めじろ公園","Jusho":"沖縄県浦添市字沢岻284-36","kouzui":"○","gake":"○","takashio":"○","jishin":"○","tsunami":"○","kaji":"○","naisui":"○","kazan":"×"}}
,{"type":"Feature","geometry":{"type":"Point","coordinates":[127.71129763651,26.234377651051]},"properties":{"Name":"沢岻端川原東公園","Jusho":"沖縄県浦添市字沢岻727-1","kouzui":"○","gake":"○","takashio":"○","jishin":"○","tsunami":"○","kaji":"○","naisui":"○","kazan":"×"}}
,{"type":"Feature","geometry":{"type":"Point","coordinates":[127.7139449768,26.233971049263]},"properties":{"Name":"沢岻前原西公園","Jusho":"沖縄県浦添市字沢岻812-10","kouzui":"○","gake":"○","takashio":"○","jishin":"○","tsunami":"○","kaji":"○","naisui":"○","kazan":"×"}}
,{"type":"Feature","geometry":{"type":"Point","coordinates":[127.71763301419,26.234724103522]},"properties":{"Name":"沢岻前原公園","Jusho":"沖縄県浦添市字沢岻902-13","kouzui":"○","gake":"○","takashio":"○","jishin":"○","tsunami":"○","kaji":"○","naisui":"○","kazan":"×"}}
,{"type":"Feature","geometry":{"type":"Point","coordinates":[127.71825339013,26.236278582442]},"properties":{"Name":"沢岻長田原公園","Jusho":"沖縄県浦添市字沢岻974","kouzui":"○","gake":"○","takashio":"○","jishin":"○","tsunami":"○","kaji":"○","naisui":"○","kazan":"×"}}
,{"type":"Feature","geometry":{"type":"Point","coordinates":[127.7091840558,26.235253403916]},"properties":{"Name":"クニンドーの森公園","Jusho":"沖縄県浦添市字沢岻735-1","kouzui":"○","gake":"×","takashio":"○","jishin":"○","tsunami":"○","kaji":"○","naisui":"○","kazan":"×"}}
,{"type":"Feature","geometry":{"type":"Point","coordinates":[127.71602100658,26.236071408874]},"properties":{"Name":"沢岻緑地","Jusho":"沖縄県浦添市字沢岻391-1","kouzui":"○","gake":"○","takashio":"○","jishin":"○","tsunami":"○","kaji":"○","naisui":"○","kazan":"×"}}
,{"type":"Feature","geometry":{"type":"Point","coordinates":[127.70693636464,26.238987309134]},"properties":{"Name":"内間東原公園","Jusho":"沖縄県浦添市内間1-13","kouzui":"○","gake":"○","takashio":"○","jishin":"○","tsunami":"○","kaji":"○","naisui":"○","kazan":"×"}}
,{"type":"Feature","geometry":{"type":"Point","coordinates":[127.70405273354,26.235375577448]},"properties":{"Name":"内間東公園","Jusho":"沖縄県浦添市内間2-19","kouzui":"○","gake":"○","takashio":"○","jishin":"○","tsunami":"○","kaji":"○","naisui":"○","kazan":"×"}}
,{"type":"Feature","geometry":{"type":"Point","coordinates":[127.69874865833,26.23735817698]},"properties":{"Name":"内間西公園","Jusho":"沖縄県浦添市内間3-17","kouzui":"○","gake":"○","takashio":"×","jishin":"○","tsunami":"×","kaji":"○","naisui":"○","kazan":"×"}}
,{"type":"Feature","geometry":{"type":"Point","coordinates":[127.70290169661,26.239882669086]},"properties":{"Name":"内間後原なかよし公園","Jusho":"沖縄県浦添市内間4-8","kouzui":"○","gake":"○","takashio":"○","jishin":"○","tsunami":"○","kaji":"○","naisui":"○","kazan":"×"}}
,{"type":"Feature","geometry":{"type":"Point","coordinates":[127.70508749647,26.240903371337]},"properties":{"Name":"内間後原公園","Jusho":"沖縄県浦添市内間4-18","kouzui":"○","gake":"○","takashio":"○","jishin":"○","tsunami":"○","kaji":"○","naisui":"○","kazan":"×"}}
,{"type":"Feature","geometry":{"type":"Point","coordinates":[127.69753191416,26.239286026777]},"properties":{"Name":"内間西原公園","Jusho":"沖縄県浦添市内間4-8","kouzui":"○","gake":"○","takashio":"○","jishin":"○","tsunami":"○","kaji":"○","naisui":"○","kazan":"×"}}
,{"type":"Feature","geometry":{"type":"Point","coordinates":[127.71905980063,26.24473643237]},"properties":{"Name":"ニュータウン公園","Jusho":"沖縄県浦添市安波茶1-13","kouzui":"○","gake":"○","takashio":"○","jishin":"○","tsunami":"○","kaji":"○","naisui":"○","kazan":"×"}}
,{"type":"Feature","geometry":{"type":"Point","coordinates":[127.71838969455,26.247725806042]},"properties":{"Name":"和久原公園","Jusho":"沖縄県浦添市安波茶1-28","kouzui":"○","gake":"○","takashio":"○","jishin":"○","tsunami":"○","kaji":"○","naisui":"○","kazan":"×"}}
,{"type":"Feature","geometry":{"type":"Point","coordinates":[127.72080497743,26.242267716299]},"properties":{"Name":"あじさい公園","Jusho":"沖縄県浦添市安波茶3-26","kouzui":"○","gake":"○","takashio":"○","jishin":"○","tsunami":"○","kaji":"○","naisui":"○","kazan":"×"}}
,{"type":"Feature","geometry":{"type":"Point","coordinates":[127.71925885185,26.243554956899]},"properties":{"Name":"老年原公園","Jusho":"沖縄県浦添市安波茶3-34","kouzui":"○","gake":"×","takashio":"○","jishin":"○","tsunami":"○","kaji":"○","naisui":"○","kazan":"×"}}
,{"type":"Feature","geometry":{"type":"Point","coordinates":[127.71043091022,26.246143796802]},"properties":{"Name":"大平小公園","Jusho":"沖縄県浦添市大平2-5","kouzui":"○","gake":"×","takashio":"○","jishin":"○","tsunami":"○","kaji":"○","naisui":"○","kazan":"×"}}
,{"type":"Feature","geometry":{"type":"Point","coordinates":[127.70883348814,26.241894391159]},"properties":{"Name":"沢岻兼元原公園","Jusho":"沖縄県浦添市大平2-16","kouzui":"○","gake":"○","takashio":"○","jishin":"○","tsunami":"○","kaji":"○","naisui":"○","kazan":"×"}}
,{"type":"Feature","geometry":{"type":"Point","coordinates":[127.7113225781,26.24177891424]},"properties":{"Name":"大平瓶ノ原公園","Jusho":"沖縄県浦添市字大平479-1","kouzui":"○","gake":"○","takashio":"○","jishin":"○","tsunami":"○","kaji":"○","naisui":"○","kazan":"×"}}
,{"type":"Feature","geometry":{"type":"Point","coordinates":[127.69551876781,26.241518730497]},"properties":{"Name":"勢理客小公園","Jusho":"沖縄県浦添市勢理客1-22","kouzui":"○","gake":"○","takashio":"○","jishin":"○","tsunami":"○","kaji":"○","naisui":"○","kazan":"×"}}
,{"type":"Feature","geometry":{"type":"Point","coordinates":[127.69717083713,26.243587801516]},"properties":{"Name":"ゆうな公園","Jusho":"沖縄県浦添市勢理客2-6","kouzui":"○","gake":"○","takashio":"○","jishin":"○","tsunami":"○","kaji":"○","naisui":"○","kazan":"×"}}
,{"type":"Feature","geometry":{"type":"Point","coordinates":[127.69224209787,26.241375009708]},"properties":{"Name":"むつき公園","Jusho":"沖縄県浦添市勢理客3-11","kouzui":"○","gake":"○","takashio":"×","jishin":"○","tsunami":"×","kaji":"○","naisui":"○","kazan":"×"}}
,{"type":"Feature","geometry":{"type":"Point","coordinates":[127.68821755603,26.245678013976]},"properties":{"Name":"組踊公園","Jusho":"沖縄県浦添市勢理客4-14","kouzui":"○","gake":"○","takashio":"×","jishin":"○","tsunami":"×","kaji":"○","naisui":"○","kazan":"×"}}
,{"type":"Feature","geometry":{"type":"Point","coordinates":[127.72749102757,26.244572988031]},"properties":{"Name":"茶山第2公園","Jusho":"沖縄県浦添市仲間3-4","kouzui":"○","gake":"○","takashio":"○","jishin":"○","tsunami":"○","kaji":"○","naisui":"○","kazan":"×"}}
,{"type":"Feature","geometry":{"type":"Point","coordinates":[127.72725428198,26.243380759916]},"properties":{"Name":"茶山第1公園","Jusho":"沖縄県浦添市仲間3-14","kouzui":"○","gake":"○","takashio":"○","jishin":"○","tsunami":"○","kaji":"○","naisui":"○","kazan":"×"}}
,{"type":"Feature","geometry":{"type":"Point","coordinates":[127.72766996783,26.252438842456]},"properties":{"Name":"浦添墓地公園","Jusho":"沖縄県浦添市仲間2-54","kouzui":"○","gake":"○","takashio":"○","jishin":"○","tsunami":"○","kaji":"○","naisui":"○","kazan":"×"}}
,{"type":"Feature","geometry":{"type":"Point","coordinates":[127.71230644687,26.265044368602]},"properties":{"Name":"港川サンハイツ公園","Jusho":"沖縄県浦添市字港川281-49","kouzui":"○","gake":"×","takashio":"○","jishin":"○","tsunami":"○","kaji":"○","naisui":"○","kazan":"×"}}
,{"type":"Feature","geometry":{"type":"Point","coordinates":[127.71176464064,26.265068421486]},"properties":{"Name":"港川原公園","Jusho":"沖縄県浦添市字港川310-23","kouzui":"○","gake":"×","takashio":"○","jishin":"○","tsunami":"○","kaji":"○","naisui":"○","kazan":"×"}}
,{"type":"Feature","geometry":{"type":"Point","coordinates":[127.71905777052,26.26313685115]},"properties":{"Name":"牧港緑地（展望広場）","Jusho":"沖縄県浦添市港川1-34","kouzui":"○","gake":"×","takashio":"○","jishin":"○","tsunami":"○","kaji":"○","naisui":"○","kazan":"×"}}
,{"type":"Feature","geometry":{"type":"Point","coordinates":[127.72202797982,26.239984145912]},"properties":{"Name":"夕陽ヶ丘公園","Jusho":"沖縄県浦添市経塚1-17","kouzui":"○","gake":"×","takashio":"○","jishin":"○","tsunami":"○","kaji":"○","naisui":"○","kazan":"×"}}
,{"type":"Feature","geometry":{"type":"Point","coordinates":[127.71989873658,26.237624076029]},"properties":{"Name":"経塚洗江原公園","Jusho":"沖縄県浦添市字経塚253-9","kouzui":"○","gake":"○","takashio":"○","jishin":"○","tsunami":"○","kaji":"○","naisui":"○","kazan":"×"}}
,{"type":"Feature","geometry":{"type":"Point","coordinates":[127.72408494221,26.238751200256]},"properties":{"Name":"龍巻松の木公園","Jusho":"沖縄県浦添市経塚916","kouzui":"○","gake":"○","takashio":"○","jishin":"○","tsunami":"○","kaji":"○","naisui":"○","kazan":"×"}}
,{"type":"Feature","geometry":{"type":"Point","coordinates":[127.73146555744,26.253895006018]},"properties":{"Name":"当山ハイツ公園","Jusho":"沖縄県浦添市当山1-9","kouzui":"○","gake":"○","takashio":"○","jishin":"○","tsunami":"○","kaji":"○","naisui":"○","kazan":"×"}}
,{"type":"Feature","geometry":{"type":"Point","coordinates":[127.73414771791,26.251063256946]},"properties":{"Name":"当山勢理原公園","Jusho":"沖縄県浦添市当山2-23","kouzui":"○","gake":"○","takashio":"○","jishin":"○","tsunami":"○","kaji":"○","naisui":"○","kazan":"×"}}
,{"type":"Feature","geometry":{"type":"Point","coordinates":[127.73247216648,26.252319211655]},"properties":{"Name":"当山小公園","Jusho":"沖縄県浦添市当山2-37","kouzui":"○","gake":"○","takashio":"○","jishin":"○","tsunami":"○","kaji":"○","naisui":"○","kazan":"×"}}
,{"type":"Feature","geometry":{"type":"Point","coordinates":[127.71231765243,26.250774425325]},"properties":{"Name":"たんぽぽ公園","Jusho":"沖縄県浦添市屋富祖1-7-1","kouzui":"○","gake":"○","takashio":"○","jishin":"○","tsunami":"○","kaji":"○","naisui":"○","kazan":"×"}}
,{"type":"Feature","geometry":{"type":"Point","coordinates":[127.70820654893,26.252471169083]},"properties":{"Name":"なかし公園","Jusho":"沖縄県浦添市屋富祖3-1","kouzui":"○","gake":"○","takashio":"○","jishin":"○","tsunami":"○","kaji":"○","naisui":"○","kazan":"×"}}
,{"type":"Feature","geometry":{"type":"Point","coordinates":[127.70017736928,26.24704674275]},"properties":{"Name":"仲の浦公園","Jusho":"沖縄県浦添市仲西2-2-22","kouzui":"○","gake":"○","takashio":"○","jishin":"○","tsunami":"○","kaji":"○","naisui":"○","kazan":"×"}}
,{"type":"Feature","geometry":{"type":"Point","coordinates":[127.731502700497,26.2380865331741]},"properties":{"Name":"JICA沖縄センター","Jusho":"沖縄県浦添市字前田1143-1","kouzui":"○","gake":"×","takashio":"○","jishin":"○","tsunami":"○","kaji":"○","naisui":"○","kazan":"×"}}
,{"type":"Feature","geometry":{"type":"Point","coordinates":[127.93963576506,26.524400861955]},"properties":{"Name":"喜瀬カントリークラブ宿舎前","Jusho":"沖縄県名護市字喜瀬1345-1","kouzui":"○","gake":"○","takashio":"○","jishin":"○","tsunami":"○","kaji":"×","naisui":"×","kazan":"×"}}
,{"type":"Feature","geometry":{"type":"Point","coordinates":[127.94523468936,26.536224785866]},"properties":{"Name":"喜瀬ビーチパレスホテル","Jusho":"沖縄県名護市字喜瀬115-2","kouzui":"○","gake":"○","takashio":"○","jishin":"○","tsunami":"○","kaji":"×","naisui":"×","kazan":"×"}}
,{"type":"Feature","geometry":{"type":"Point","coordinates":[127.9485089217,26.538885293066]},"properties":{"Name":"ベストウェスタン沖縄幸喜ビーチ","Jusho":"沖縄県名護市字幸喜117","kouzui":"○","gake":"○","takashio":"○","jishin":"○","tsunami":"○","kaji":"×","naisui":"×","kazan":"×"}}
,{"type":"Feature","geometry":{"type":"Point","coordinates":[127.94900434909,26.538176857294]},"properties":{"Name":"沖縄サンコーストホテル","Jusho":"沖縄県名護市字幸喜108","kouzui":"○","gake":"○","takashio":"○","jishin":"○","tsunami":"○","kaji":"×","naisui":"×","kazan":"×"}}
,{"type":"Feature","geometry":{"type":"Point","coordinates":[127.9512730595,26.535951266647]},"properties":{"Name":"幸喜貯水タンク前","Jusho":"沖縄県名護市字幸喜655","kouzui":"○","gake":"○","takashio":"○","jishin":"○","tsunami":"○","kaji":"×","naisui":"×","kazan":"×"}}
,{"type":"Feature","geometry":{"type":"Point","coordinates":[127.954667,26.5365]},"properties":{"Name":"仲兼久原高台","Jusho":"沖縄県名護市字幸喜","kouzui":"○","gake":"○","takashio":"○","jishin":"○","tsunami":"○","kaji":"×","naisui":"×","kazan":"×"}}
,{"type":"Feature","geometry":{"type":"Point","coordinates":[127.958306,26.539278]},"properties":{"Name":"赤混田原高台","Jusho":"沖縄県名護市字幸喜","kouzui":"○","gake":"○","takashio":"○","jishin":"○","tsunami":"○","kaji":"×","naisui":"×","kazan":"×"}}
,{"type":"Feature","geometry":{"type":"Point","coordinates":[127.97150668904,26.539419583981]},"properties":{"Name":"許田区津波避難目標地点","Jusho":"沖縄県名護市字許田675","kouzui":"○","gake":"○","takashio":"○","jishin":"○","tsunami":"○","kaji":"×","naisui":"×","kazan":"×"}}
,{"type":"Feature","geometry":{"type":"Point","coordinates":[127.987528,26.565361]},"properties":{"Name":"数久田タンク場前","Jusho":"沖縄県名護市字数久田","kouzui":"○","gake":"×","takashio":"○","jishin":"×","tsunami":"○","kaji":"×","naisui":"×","kazan":"×"}}
,{"type":"Feature","geometry":{"type":"Point","coordinates":[127.98613925711,26.57493137675]},"properties":{"Name":"世冨慶区運動公園","Jusho":"沖縄県名護市字世冨慶139番地1","kouzui":"○","gake":"○","takashio":"○","jishin":"○","tsunami":"○","kaji":"×","naisui":"×","kazan":"×"}}
,{"type":"Feature","geometry":{"type":"Point","coordinates":[127.9914443204,26.571501959903]},"properties":{"Name":"名護市食肉センター駐車場","Jusho":"沖縄県名護市字世冨慶755番地","kouzui":"○","gake":"○","takashio":"○","jishin":"○","tsunami":"○","kaji":"×","naisui":"×","kazan":"×"}}
,{"type":"Feature","geometry":{"type":"Point","coordinates":[127.992333,26.58975]},"properties":{"Name":"名護城公園ノッポ椰子の広場","Jusho":"沖縄県名護市字名護","kouzui":"○","gake":"×","takashio":"○","jishin":"×","tsunami":"○","kaji":"×","naisui":"×","kazan":"×"}}
,{"type":"Feature","geometry":{"type":"Point","coordinates":[127.99175,26.587278]},"properties":{"Name":"名護城大橋津波避難目標地点","Jusho":"沖縄県名護市東江二丁目","kouzui":"○","gake":"○","takashio":"○","jishin":"○","tsunami":"○","kaji":"×","naisui":"×","kazan":"×"}}
,{"type":"Feature","geometry":{"type":"Point","coordinates":[127.9889815687,26.586360270373]},"properties":{"Name":"オリオンビール(株)名護工場事務所屋上","Jusho":"沖縄県名護市東江二丁目2番1号","kouzui":"○","gake":"○","takashio":"○","jishin":"○","tsunami":"○","kaji":"×","naisui":"×","kazan":"×"}}
,{"type":"Feature","geometry":{"type":"Point","coordinates":[127.98488042681,26.580340042003]},"properties":{"Name":"ホテルルートイン名護","Jusho":"沖縄県名護市東江五丁目11番3号","kouzui":"○","gake":"○","takashio":"○","jishin":"○","tsunami":"○","kaji":"×","naisui":"×","kazan":"×"}}
,{"type":"Feature","geometry":{"type":"Point","coordinates":[127.98363068297,26.585006663173]},"properties":{"Name":"県営東江高層住宅","Jusho":"沖縄県名護市東江五丁目1番1号","kouzui":"○","gake":"○","takashio":"○","jishin":"○","tsunami":"○","kaji":"×","naisui":"×","kazan":"×"}}
,{"type":"Feature","geometry":{"type":"Point","coordinates":[127.97519660038,26.590737212159]},"properties":{"Name":"名護市民会館屋上","Jusho":"沖縄県名護市港2-1-1","kouzui":"○","gake":"○","takashio":"○","jishin":"○","tsunami":"○","kaji":"×","naisui":"×","kazan":"×"}}
,{"type":"Feature","geometry":{"type":"Point","coordinates":[127.99136740859,26.591828920893]},"properties":{"Name":"大東区公園","Jusho":"沖縄県名護市大東三丁目11番18号","kouzui":"○","gake":"○","takashio":"○","jishin":"○","tsunami":"○","kaji":"×","naisui":"×","kazan":"×"}}
,{"type":"Feature","geometry":{"type":"Point","coordinates":[127.98538785893,26.59050729078]},"properties":{"Name":"名護市産業支援センター","Jusho":"沖縄県名護市大中一丁目19番24号","kouzui":"○","gake":"○","takashio":"○","jishin":"○","tsunami":"○","kaji":"×","naisui":"×","kazan":"×"}}
,{"type":"Feature","geometry":{"type":"Point","coordinates":[127.98002671548,26.592304640173]},"properties":{"Name":"ホテルデルフィーノ名護","Jusho":"沖縄県名護市大南一丁目5番14号","kouzui":"○","gake":"○","takashio":"○","jishin":"○","tsunami":"○","kaji":"×","naisui":"×","kazan":"×"}}
,{"type":"Feature","geometry":{"type":"Point","coordinates":[127.98610493996,26.595185092233]},"properties":{"Name":"大中緑地公園","Jusho":"沖縄県名護市大中三丁目17番","kouzui":"○","gake":"○","takashio":"○","jishin":"○","tsunami":"○","kaji":"×","naisui":"×","kazan":"×"}}
,{"type":"Feature","geometry":{"type":"Point","coordinates":[127.99022016999,26.59404044916]},"properties":{"Name":"嵩原公園","Jusho":"沖縄県名護市大中五丁目1番","kouzui":"○","gake":"○","takashio":"○","jishin":"○","tsunami":"○","kaji":"×","naisui":"×","kazan":"×"}}
,{"type":"Feature","geometry":{"type":"Point","coordinates":[127.98360442517,26.596506892471]},"properties":{"Name":"大西公民館","Jusho":"沖縄県名護市大西三丁目8番12号","kouzui":"○","gake":"○","takashio":"○","jishin":"○","tsunami":"○","kaji":"×","naisui":"×","kazan":"×"}}
,{"type":"Feature","geometry":{"type":"Point","coordinates":[127.98312219511,26.593693660508]},"properties":{"Name":"うみのほし幼稚園","Jusho":"沖縄県名護市大西二丁目1番20号","kouzui":"○","gake":"○","takashio":"○","jishin":"○","tsunami":"○","kaji":"×","naisui":"×","kazan":"×"}}
,{"type":"Feature","geometry":{"type":"Point","coordinates":[127.98357384832,26.605519836489]},"properties":{"Name":"柳児童公園","Jusho":"沖縄県名護市大北五丁目9番11号","kouzui":"○","gake":"○","takashio":"○","jishin":"○","tsunami":"○","kaji":"×","naisui":"×","kazan":"×"}}
,{"type":"Feature","geometry":{"type":"Point","coordinates":[127.98934822902,26.59843858008]},"properties":{"Name":"大中公園","Jusho":"沖縄県名護市大北一丁目28番","kouzui":"○","gake":"○","takashio":"○","jishin":"○","tsunami":"○","kaji":"×","naisui":"×","kazan":"×"}}
,{"type":"Feature","geometry":{"type":"Point","coordinates":[127.99445315398,26.601263590019]},"properties":{"Name":"大北公民館","Jusho":"沖縄県名護市大北一丁目7番1号","kouzui":"○","gake":"○","takashio":"○","jishin":"○","tsunami":"○","kaji":"×","naisui":"×","kazan":"×"}}
,{"type":"Feature","geometry":{"type":"Point","coordinates":[127.9745197142,26.610553827378]},"properties":{"Name":"為又公園","Jusho":"沖縄県名護市字為又507-48","kouzui":"○","gake":"○","takashio":"○","jishin":"○","tsunami":"○","kaji":"×","naisui":"×","kazan":"×"}}
,{"type":"Feature","geometry":{"type":"Point","coordinates":[127.97156987683,26.612522265546]},"properties":{"Name":"北部地区医師会北部看護学校駐車場","Jusho":"沖縄県名護市字為又1219-91","kouzui":"×","gake":"×","takashio":"×","jishin":"×","tsunami":"○","kaji":"×","naisui":"×","kazan":"×"}}
,{"type":"Feature","geometry":{"type":"Point","coordinates":[127.97419683245,26.604557568888]},"properties":{"Name":"スーパーホテル沖縄名護","Jusho":"沖縄県名護市字宮里1018","kouzui":"○","gake":"○","takashio":"○","jishin":"○","tsunami":"○","kaji":"×","naisui":"×","kazan":"×"}}
,{"type":"Feature","geometry":{"type":"Point","coordinates":[127.97377757689,26.597110908097]},"properties":{"Name":"名護市立大宮小学校","Jusho":"沖縄県名護市宮里五丁目13番22号","kouzui":"○","gake":"○","takashio":"○","jishin":"○","tsunami":"○","kaji":"×","naisui":"×","kazan":"×"}}
,{"type":"Feature","geometry":{"type":"Point","coordinates":[127.96708006008,26.594543263402]},"properties":{"Name":"宮里キリストの教会駐車場","Jusho":"沖縄県名護市宮里三丁目30番30号","kouzui":"○","gake":"○","takashio":"○","jishin":"○","tsunami":"○","kaji":"×","naisui":"×","kazan":"×"}}
,{"type":"Feature","geometry":{"type":"Point","coordinates":[127.97127098633,26.600045720685]},"properties":{"Name":"名護厚生園","Jusho":"沖縄県名護市宮里五丁目4番29号","kouzui":"○","gake":"○","takashio":"○","jishin":"○","tsunami":"○","kaji":"×","naisui":"×","kazan":"×"}}
,{"type":"Feature","geometry":{"type":"Point","coordinates":[127.97060381321,26.599609600638]},"properties":{"Name":"名護市立中央図書館","Jusho":"沖縄県名護市宮里五丁目6番1号","kouzui":"○","gake":"○","takashio":"○","jishin":"○","tsunami":"○","kaji":"×","naisui":"×","kazan":"×"}}
,{"type":"Feature","geometry":{"type":"Point","coordinates":[127.96510858806,26.593355954952]},"properties":{"Name":"ホテルゆがふいんおきなわ","Jusho":"沖縄県名護市字宮里453番地1","kouzui":"○","gake":"○","takashio":"○","jishin":"○","tsunami":"○","kaji":"×","naisui":"×","kazan":"×"}}
,{"type":"Feature","geometry":{"type":"Point","coordinates":[127.96993514482,26.599806607327]},"properties":{"Name":"宮里公園","Jusho":"沖縄県名護市宮里四丁目7","kouzui":"○","gake":"○","takashio":"○","jishin":"○","tsunami":"○","kaji":"×","naisui":"×","kazan":"×"}}
,{"type":"Feature","geometry":{"type":"Point","coordinates":[128.00697811575,26.517354567194]},"properties":{"Name":"久志公園","Jusho":"沖縄県名護市字久志790-1","kouzui":"○","gake":"○","takashio":"○","jishin":"○","tsunami":"○","kaji":"×","naisui":"×","kazan":"×"}}
,{"type":"Feature","geometry":{"type":"Point","coordinates":[128.01617217404,26.514721782563]},"properties":{"Name":"みらい４号館","Jusho":"沖縄県名護市字久志283","kouzui":"○","gake":"○","takashio":"○","jishin":"○","tsunami":"○","kaji":"×","naisui":"×","kazan":"×"}}
,{"type":"Feature","geometry":{"type":"Point","coordinates":[128.02082171765,26.520698041862]},"properties":{"Name":"豊原公民館","Jusho":"沖縄県名護市字豊原221-24","kouzui":"○","gake":"○","takashio":"○","jishin":"○","tsunami":"○","kaji":"×","naisui":"×","kazan":"×"}}
,{"type":"Feature","geometry":{"type":"Point","coordinates":[128.02375541969,26.519892426964]},"properties":{"Name":"名護市立久辺小学校","Jusho":"沖縄県名護市字豊原208","kouzui":"○","gake":"○","takashio":"○","jishin":"○","tsunami":"○","kaji":"×","naisui":"×","kazan":"×"}}
,{"type":"Feature","geometry":{"type":"Point","coordinates":[128.02312719276,26.521513749616]},"properties":{"Name":"名護市立久辺中学校","Jusho":"沖縄県名護市字豊原208","kouzui":"○","gake":"○","takashio":"○","jishin":"○","tsunami":"○","kaji":"×","naisui":"×","kazan":"×"}}
,{"type":"Feature","geometry":{"type":"Point","coordinates":[128.03132965472,26.523866081275]},"properties":{"Name":"辺野古紫雲道場","Jusho":"沖縄県名護市字辺野古134-15","kouzui":"○","gake":"○","takashio":"○","jishin":"○","tsunami":"○","kaji":"×","naisui":"×","kazan":"×"}}
,{"type":"Feature","geometry":{"type":"Point","coordinates":[128.03308607124,26.521568307166]},"properties":{"Name":"辺野古運動公園","Jusho":"沖縄県名護市字辺野古360-79","kouzui":"○","gake":"○","takashio":"○","jishin":"○","tsunami":"○","kaji":"×","naisui":"×","kazan":"×"}}
,{"type":"Feature","geometry":{"type":"Point","coordinates":[128.02413318391,26.547292829628]},"properties":{"Name":"デイサービス二見の里","Jusho":"沖縄県名護市字二見241-7","kouzui":"○","gake":"○","takashio":"○","jishin":"○","tsunami":"○","kaji":"×","naisui":"×","kazan":"×"}}
,{"type":"Feature","geometry":{"type":"Point","coordinates":[128.031556,26.571972]},"properties":{"Name":"大川区津波避難目標地点１","Jusho":"沖縄県名護市字大川","kouzui":"○","gake":"○","takashio":"○","jishin":"○","tsunami":"○","kaji":"×","naisui":"×","kazan":"×"}}
,{"type":"Feature","geometry":{"type":"Point","coordinates":[128.039972,26.574167]},"properties":{"Name":"大川区津波避難目標地点２","Jusho":"沖縄県名護市字大川","kouzui":"○","gake":"×","takashio":"○","jishin":"×","tsunami":"○","kaji":"×","naisui":"×","kazan":"×"}}
,{"type":"Feature","geometry":{"type":"Point","coordinates":[128.05663859078,26.552581085153]},"properties":{"Name":"エナジックカントリークラブ駐車場","Jusho":"沖縄県名護市字瀬嵩463-3","kouzui":"○","gake":"○","takashio":"○","jishin":"○","tsunami":"○","kaji":"×","naisui":"×","kazan":"×"}}
,{"type":"Feature","geometry":{"type":"Point","coordinates":[128.060417,26.555556]},"properties":{"Name":"汀間区津波避難場所","Jusho":"沖縄県名護市字汀間","kouzui":"○","gake":"○","takashio":"○","jishin":"○","tsunami":"○","kaji":"×","naisui":"×","kazan":"×"}}
,{"type":"Feature","geometry":{"type":"Point","coordinates":[128.069917,26.569694]},"properties":{"Name":"三原区津波避難目標地点","Jusho":"沖縄県名護市字三原","kouzui":"○","gake":"×","takashio":"○","jishin":"×","tsunami":"○","kaji":"×","naisui":"×","kazan":"×"}}
,{"type":"Feature","geometry":{"type":"Point","coordinates":[128.0915,26.542472]},"properties":{"Name":"安部区津波避難目標地点１","Jusho":"沖縄県名護市字安部","kouzui":"○","gake":"○","takashio":"○","jishin":"○","tsunami":"○","kaji":"×","naisui":"×","kazan":"×"}}
,{"type":"Feature","geometry":{"type":"Point","coordinates":[128.085639,26.541694]},"properties":{"Name":"安部区津波避難目標地点２","Jusho":"沖縄県名護市字安部","kouzui":"○","gake":"○","takashio":"○","jishin":"○","tsunami":"○","kaji":"×","naisui":"×","kazan":"×"}}
,{"type":"Feature","geometry":{"type":"Point","coordinates":[128.07742520157,26.548594602684]},"properties":{"Name":"カヌチャベイリゾート駐車場","Jusho":"沖縄県名護市字安部156-2","kouzui":"○","gake":"○","takashio":"○","jishin":"○","tsunami":"○","kaji":"×","naisui":"×","kazan":"×"}}
,{"type":"Feature","geometry":{"type":"Point","coordinates":[128.099361,26.546667]},"properties":{"Name":"嘉陽区津波避難目標地点","Jusho":"沖縄県名護市字嘉陽","kouzui":"○","gake":"○","takashio":"○","jishin":"○","tsunami":"○","kaji":"×","naisui":"×","kazan":"×"}}
,{"type":"Feature","geometry":{"type":"Point","coordinates":[128.108389,26.553306]},"properties":{"Name":"上城（拝所）","Jusho":"沖縄県名護市字嘉陽","kouzui":"○","gake":"○","takashio":"○","jishin":"○","tsunami":"○","kaji":"×","naisui":"×","kazan":"×"}}
,{"type":"Feature","geometry":{"type":"Point","coordinates":[128.109583,26.554083]},"properties":{"Name":"名護市ポンプ場横一帯","Jusho":"沖縄県名護市字嘉陽","kouzui":"○","gake":"×","takashio":"○","jishin":"×","tsunami":"○","kaji":"×","naisui":"×","kazan":"×"}}
,{"type":"Feature","geometry":{"type":"Point","coordinates":[128.12231809948,26.572447978069]},"properties":{"Name":"底仁屋公民館","Jusho":"沖縄県名護市字天仁屋696-1","kouzui":"○","gake":"○","takashio":"○","jishin":"○","tsunami":"○","kaji":"×","naisui":"×","kazan":"×"}}
,{"type":"Feature","geometry":{"type":"Point","coordinates":[128.13497185294,26.569936954689]},"properties":{"Name":"天仁屋公民館","Jusho":"沖縄県名護市字天仁屋273","kouzui":"○","gake":"○","takashio":"○","jishin":"○","tsunami":"○","kaji":"×","naisui":"×","kazan":"×"}}
,{"type":"Feature","geometry":{"type":"Point","coordinates":[128.123167,26.585833]},"properties":{"Name":"有津簡易水道タンク","Jusho":"沖縄県名護市字天仁屋","kouzui":"○","gake":"○","takashio":"○","jishin":"○","tsunami":"○","kaji":"×","naisui":"×","kazan":"×"}}
,{"type":"Feature","geometry":{"type":"Point","coordinates":[128.127389,26.587972]},"properties":{"Name":"有津津波避難目標地点１","Jusho":"沖縄県名護市字天仁屋","kouzui":"○","gake":"○","takashio":"○","jishin":"○","tsunami":"○","kaji":"×","naisui":"×","kazan":"×"}}
,{"type":"Feature","geometry":{"type":"Point","coordinates":[128.00525811012,26.611319514323]},"properties":{"Name":"伊差川運動公園","Jusho":"沖縄県名護市字伊差川32-2","kouzui":"○","gake":"○","takashio":"○","jishin":"○","tsunami":"○","kaji":"×","naisui":"×","kazan":"×"}}
,{"type":"Feature","geometry":{"type":"Point","coordinates":[128.01845596646,26.619237626532]},"properties":{"Name":"川上公民館","Jusho":"沖縄県名護市字川上3","kouzui":"×","gake":"×","takashio":"×","jishin":"×","tsunami":"○","kaji":"×","naisui":"×","kazan":"×"}}
,{"type":"Feature","geometry":{"type":"Point","coordinates":[128.01654457161,26.624007546742]},"properties":{"Name":"親川公民館","Jusho":"沖縄県名護市字親川67-1","kouzui":"○","gake":"○","takashio":"○","jishin":"○","tsunami":"○","kaji":"×","naisui":"×","kazan":"×"}}
,{"type":"Feature","geometry":{"type":"Point","coordinates":[128.016417,26.627528]},"properties":{"Name":"仲尾区津波避難目標地点","Jusho":"沖縄県名護市字親川","kouzui":"○","gake":"○","takashio":"○","jishin":"○","tsunami":"○","kaji":"×","naisui":"×","kazan":"×"}}
,{"type":"Feature","geometry":{"type":"Point","coordinates":[128.01137310978,26.612452031657]},"properties":{"Name":"山田公園","Jusho":"沖縄県名護市字田井等909","kouzui":"○","gake":"○","takashio":"○","jishin":"○","tsunami":"○","kaji":"×","naisui":"×","kazan":"×"}}
,{"type":"Feature","geometry":{"type":"Point","coordinates":[128.00248530878,26.620709423979]},"properties":{"Name":"我部祖河之御嶽","Jusho":"沖縄県名護市字我部祖河33-1","kouzui":"○","gake":"○","takashio":"○","jishin":"○","tsunami":"○","kaji":"×","naisui":"×","kazan":"×"}}
,{"type":"Feature","geometry":{"type":"Point","coordinates":[128.0709777735,26.632033776164]},"properties":{"Name":"源河区津波避難目標地点１","Jusho":"沖縄県名護市字源河1856","kouzui":"○","gake":"○","takashio":"○","jishin":"○","tsunami":"○","kaji":"×","naisui":"×","kazan":"×"}}
,{"type":"Feature","geometry":{"type":"Point","coordinates":[128.068167,26.631222]},"properties":{"Name":"源河区津波避難目標地点２","Jusho":"沖縄県名護市字源河","kouzui":"○","gake":"○","takashio":"○","jishin":"○","tsunami":"○","kaji":"×","naisui":"×","kazan":"×"}}
,{"type":"Feature","geometry":{"type":"Point","coordinates":[128.041889,26.630222]},"properties":{"Name":"稲嶺区津波避難目標地点（クイユーのT字路）","Jusho":"沖縄県名護市字稲嶺","kouzui":"○","gake":"○","takashio":"○","jishin":"○","tsunami":"○","kaji":"×","naisui":"×","kazan":"×"}}
,{"type":"Feature","geometry":{"type":"Point","coordinates":[128.03871854853,26.629074041777]},"properties":{"Name":"真喜屋阿社義","Jusho":"沖縄県名護市字真喜屋84","kouzui":"○","gake":"○","takashio":"○","jishin":"○","tsunami":"○","kaji":"×","naisui":"×","kazan":"×"}}
,{"type":"Feature","geometry":{"type":"Point","coordinates":[128.03853283643,26.630245746852]},"properties":{"Name":"真喜屋公民館","Jusho":"沖縄県名護市字真喜屋73","kouzui":"○","gake":"○","takashio":"○","jishin":"○","tsunami":"○","kaji":"×","naisui":"×","kazan":"×"}}
,{"type":"Feature","geometry":{"type":"Point","coordinates":[128.02881535917,26.624615780266]},"properties":{"Name":"屋之上（ヤーノウイ）","Jusho":"沖縄県名護市字仲尾次1067-1","kouzui":"○","gake":"○","takashio":"○","jishin":"○","tsunami":"○","kaji":"×","naisui":"×","kazan":"×"}}
,{"type":"Feature","geometry":{"type":"Point","coordinates":[128.02381379833,26.623073715873]},"properties":{"Name":"羽地地区センター","Jusho":"沖縄県名護市字仲尾次829","kouzui":"○","gake":"○","takashio":"○","jishin":"○","tsunami":"○","kaji":"×","naisui":"×","kazan":"×"}}
,{"type":"Feature","geometry":{"type":"Point","coordinates":[128.02153859148,26.624395030293]},"properties":{"Name":"名護市立羽地中学校","Jusho":"沖縄県名護市字仲尾次756","kouzui":"○","gake":"○","takashio":"○","jishin":"○","tsunami":"○","kaji":"×","naisui":"×","kazan":"×"}}
,{"type":"Feature","geometry":{"type":"Point","coordinates":[127.99497132897,26.638593260442]},"properties":{"Name":"嵐山茶工場","Jusho":"沖縄県名護市字呉我940-2","kouzui":"○","gake":"○","takashio":"○","jishin":"○","tsunami":"○","kaji":"×","naisui":"×","kazan":"×"}}
,{"type":"Feature","geometry":{"type":"Point","coordinates":[127.98908100621,26.642960901098]},"properties":{"Name":"嵐山展望台","Jusho":"沖縄県名護市字呉我1460-2","kouzui":"○","gake":"○","takashio":"○","jishin":"○","tsunami":"○","kaji":"×","naisui":"×","kazan":"×"}}
,{"type":"Feature","geometry":{"type":"Point","coordinates":[127.9624114516,26.601106317466]},"properties":{"Name":"あだね川公園","Jusho":"沖縄県名護市宇茂佐の森4-9","kouzui":"○","gake":"○","takashio":"○","jishin":"○","tsunami":"○","kaji":"×","naisui":"×","kazan":"×"}}
,{"type":"Feature","geometry":{"type":"Point","coordinates":[127.957861,26.599833]},"properties":{"Name":"名護特別支援学校後方交差点","Jusho":"沖縄県名護市宇茂佐の森三丁目","kouzui":"○","gake":"○","takashio":"○","jishin":"○","tsunami":"○","kaji":"×","naisui":"×","kazan":"×"}}
,{"type":"Feature","geometry":{"type":"Point","coordinates":[127.954222,26.598556]},"properties":{"Name":"県職員住宅入口","Jusho":"沖縄県名護市宇茂佐の森三丁目","kouzui":"○","gake":"○","takashio":"○","jishin":"○","tsunami":"○","kaji":"×","naisui":"×","kazan":"×"}}
,{"type":"Feature","geometry":{"type":"Point","coordinates":[127.96432681808,26.608137888519]},"properties":{"Name":"名護療育園駐車場","Jusho":"沖縄県名護市字宇茂佐1765","kouzui":"○","gake":"○","takashio":"○","jishin":"○","tsunami":"○","kaji":"×","naisui":"×","kazan":"×"}}
,{"type":"Feature","geometry":{"type":"Point","coordinates":[127.943889,26.604944]},"properties":{"Name":"勝山ガーデンゴルフ練習場前","Jusho":"沖縄県名護市字屋部","kouzui":"○","gake":"○","takashio":"○","jishin":"○","tsunami":"○","kaji":"×","naisui":"×","kazan":"×"}}
,{"type":"Feature","geometry":{"type":"Point","coordinates":[127.956083,26.605806]},"properties":{"Name":"屋部区津波避難目標地点（国道449号上）","Jusho":"沖縄県名護市字屋部","kouzui":"○","gake":"○","takashio":"○","jishin":"○","tsunami":"○","kaji":"×","naisui":"×","kazan":"×"}}
,{"type":"Feature","geometry":{"type":"Point","coordinates":[127.936639,26.606222]},"properties":{"Name":"山入端区津波避難目標地点１","Jusho":"沖縄県名護市字山入端","kouzui":"○","gake":"○","takashio":"○","jishin":"○","tsunami":"○","kaji":"×","naisui":"×","kazan":"×"}}
,{"type":"Feature","geometry":{"type":"Point","coordinates":[127.936611,26.6115]},"properties":{"Name":"山入端区津波避難目標地点","Jusho":"沖縄県名護市字山入端","kouzui":"○","gake":"○","takashio":"○","jishin":"○","tsunami":"○","kaji":"×","naisui":"×","kazan":"×"}}
,{"type":"Feature","geometry":{"type":"Point","coordinates":[127.933222,26.61]},"properties":{"Name":"安和区津波避難目標地点（山入端13号線）","Jusho":"沖縄県名護市字山入端","kouzui":"○","gake":"○","takashio":"○","jishin":"○","tsunami":"○","kaji":"×","naisui":"×","kazan":"×"}}
,{"type":"Feature","geometry":{"type":"Point","coordinates":[127.92512129709,26.613120096277]},"properties":{"Name":"琉球セメント事務所屋上","Jusho":"沖縄県名護市字安和1008","kouzui":"○","gake":"○","takashio":"○","jishin":"○","tsunami":"○","kaji":"×","naisui":"×","kazan":"×"}}
,{"type":"Feature","geometry":{"type":"Point","coordinates":[127.9009187558,26.607223471573]},"properties":{"Name":"部間権現の鳥居","Jusho":"沖縄県名護市字安和2640","kouzui":"○","gake":"○","takashio":"○","jishin":"○","tsunami":"○","kaji":"×","naisui":"×","kazan":"×"}}
,{"type":"Feature","geometry":{"type":"Point","coordinates":[127.96546912432,26.621863790383]},"properties":{"Name":"中山公民館","Jusho":"沖縄県名護市字中山129","kouzui":"○","gake":"○","takashio":"○","jishin":"○","tsunami":"○","kaji":"×","naisui":"×","kazan":"×"}}
,{"type":"Feature","geometry":{"type":"Point","coordinates":[128.00846395549,26.659584351506]},"properties":{"Name":"饒平名区津波避難目標地点","Jusho":"沖縄県名護市字饒平名1243-1","kouzui":"○","gake":"○","takashio":"○","jishin":"○","tsunami":"○","kaji":"×","naisui":"×","kazan":"×"}}
,{"type":"Feature","geometry":{"type":"Point","coordinates":[128.01255686668,26.660915587018]},"properties":{"Name":"屋我地支所","Jusho":"沖縄県名護市字饒平名1177-1","kouzui":"○","gake":"○","takashio":"○","jishin":"○","tsunami":"○","kaji":"×","naisui":"×","kazan":"×"}}
,{"type":"Feature","geometry":{"type":"Point","coordinates":[127.99798914529,26.662246566333]},"properties":{"Name":"山口バス停前","Jusho":"沖縄県名護市字我部1119","kouzui":"○","gake":"○","takashio":"○","jishin":"○","tsunami":"○","kaji":"×","naisui":"×","kazan":"×"}}
,{"type":"Feature","geometry":{"type":"Point","coordinates":[128.00066521769,26.668420020504]},"properties":{"Name":"農業用２号給水所","Jusho":"沖縄県名護市字運天原676-3","kouzui":"○","gake":"○","takashio":"○","jishin":"○","tsunami":"○","kaji":"×","naisui":"×","kazan":"×"}}
,{"type":"Feature","geometry":{"type":"Point","coordinates":[128.00465637711,26.668757136504]},"properties":{"Name":"運天原共同墓地駐車場","Jusho":"沖縄県名護市字運天原575-1","kouzui":"○","gake":"○","takashio":"○","jishin":"○","tsunami":"○","kaji":"×","naisui":"×","kazan":"×"}}
,{"type":"Feature","geometry":{"type":"Point","coordinates":[128.00785355532,26.671692947312]},"properties":{"Name":"ナガマシのあじまぁ","Jusho":"沖縄県名護市字運天原89","kouzui":"○","gake":"○","takashio":"○","jishin":"○","tsunami":"○","kaji":"×","naisui":"×","kazan":"×"}}
,{"type":"Feature","geometry":{"type":"Point","coordinates":[128.014306,26.666472]},"properties":{"Name":"伊是名高台１","Jusho":"沖縄県名護市字済井出","kouzui":"○","gake":"○","takashio":"○","jishin":"○","tsunami":"○","kaji":"×","naisui":"×","kazan":"×"}}
,{"type":"Feature","geometry":{"type":"Point","coordinates":[128.015222,26.664806]},"properties":{"Name":"伊是名高台２","Jusho":"沖縄県名護市字済井出","kouzui":"○","gake":"○","takashio":"○","jishin":"○","tsunami":"○","kaji":"×","naisui":"×","kazan":"×"}}
,{"type":"Feature","geometry":{"type":"Point","coordinates":[128.016194,26.663139]},"properties":{"Name":"伊是名高台３","Jusho":"沖縄県名護市字饒平名","kouzui":"○","gake":"○","takashio":"○","jishin":"○","tsunami":"○","kaji":"×","naisui":"×","kazan":"×"}}
,{"type":"Feature","geometry":{"type":"Point","coordinates":[128.02813421363,26.653210053777]},"properties":{"Name":"屋我の拝所","Jusho":"沖縄県名護市字屋我272","kouzui":"○","gake":"○","takashio":"○","jishin":"○","tsunami":"○","kaji":"×","naisui":"×","kazan":"×"}}
,{"type":"Feature","geometry":{"type":"Point","coordinates":[128.0438151391,26.554798116627]},"properties":{"Name":"大浦シンナトウ","Jusho":"沖縄県名護市字大浦151","kouzui":"○","gake":"○","takashio":"○","jishin":"○","tsunami":"○","kaji":"×","naisui":"×","kazan":"×"}}
,{"type":"Feature","geometry":{"type":"Point","coordinates":[128.027528,26.628472]},"properties":{"Name":"羽地大橋","Jusho":"沖縄県名護市字仲尾次","kouzui":"○","gake":"○","takashio":"○","jishin":"○","tsunami":"○","kaji":"×","naisui":"×","kazan":"×"}}
,{"type":"Feature","geometry":{"type":"Point","coordinates":[127.72328020643,26.094945361602]},"properties":{"Name":"平和祈念公園","Jusho":"沖縄県糸満市摩文仁４４４","kouzui":"○","gake":"○","takashio":"○","jishin":"○","tsunami":"○","kaji":"○","naisui":"○","kazan":"×"}}
,{"type":"Feature","geometry":{"type":"Point","coordinates":[127.71736034984,26.103001251672]},"properties":{"Name":"糸満観光農園","Jusho":"沖縄県糸満市摩文仁1018","kouzui":"○","gake":"○","takashio":"○","jishin":"○","tsunami":"○","kaji":"○","naisui":"○","kazan":"×"}}
,{"type":"Feature","geometry":{"type":"Point","coordinates":[127.67410968058,26.118539543221]},"properties":{"Name":"ロンドン杜公園","Jusho":"沖縄県糸満市真栄里1473","kouzui":"○","gake":"○","takashio":"○","jishin":"○","tsunami":"○","kaji":"○","naisui":"○","kazan":"×"}}
,{"type":"Feature","geometry":{"type":"Point","coordinates":[127.6630462243,26.146435616343]},"properties":{"Name":"西崎総合運動公園","Jusho":"沖縄県糸満市西崎町3丁目","kouzui":"×","gake":"○","takashio":"×","jishin":"×","tsunami":"×","kaji":"○","naisui":"×","kazan":"×"}}
,{"type":"Feature","geometry":{"type":"Point","coordinates":[127.67454753656,26.130567527912]},"properties":{"Name":"糸満小学校グラウンド","Jusho":"沖縄県糸満市糸満673","kouzui":"○","gake":"○","takashio":"○","jishin":"○","tsunami":"○","kaji":"○","naisui":"○","kazan":"×"}}
,{"type":"Feature","geometry":{"type":"Point","coordinates":[127.67626415033,26.13146332569]},"properties":{"Name":"糸満中学校グラウンド","Jusho":"沖縄県糸満市糸満1880","kouzui":"○","gake":"○","takashio":"○","jishin":"○","tsunami":"○","kaji":"○","naisui":"○","kazan":"×"}}
,{"type":"Feature","geometry":{"type":"Point","coordinates":[127.69043240917,26.14517546373]},"properties":{"Name":"兼城小学校グラウンド","Jusho":"沖縄県糸満市賀数1","kouzui":"○","gake":"○","takashio":"○","jishin":"○","tsunami":"○","kaji":"○","naisui":"○","kazan":"×"}}
,{"type":"Feature","geometry":{"type":"Point","coordinates":[127.69127998721,26.144722802747]},"properties":{"Name":"兼城中学校グラウンド","Jusho":"沖縄県糸満市座波1271","kouzui":"○","gake":"○","takashio":"○","jishin":"○","tsunami":"○","kaji":"○","naisui":"○","kazan":"×"}}
,{"type":"Feature","geometry":{"type":"Point","coordinates":[127.69877244308,26.096552480184]},"properties":{"Name":"米須小学校グラウンド","Jusho":"沖縄県糸満市米須632","kouzui":"○","gake":"○","takashio":"○","jishin":"○","tsunami":"○","kaji":"○","naisui":"○","kazan":"×"}}
,{"type":"Feature","geometry":{"type":"Point","coordinates":[127.68870802719,26.103190195474]},"properties":{"Name":"真壁小学校グラウンド","Jusho":"沖縄県糸満市真壁630","kouzui":"○","gake":"○","takashio":"○","jishin":"○","tsunami":"○","kaji":"○","naisui":"○","kazan":"×"}}
,{"type":"Feature","geometry":{"type":"Point","coordinates":[127.68963607151,26.102732554507]},"properties":{"Name":"三和中学校グラウンド","Jusho":"沖縄県糸満市真壁519","kouzui":"○","gake":"○","takashio":"○","jishin":"○","tsunami":"○","kaji":"○","naisui":"○","kazan":"×"}}
,{"type":"Feature","geometry":{"type":"Point","coordinates":[127.66577810753,26.093933071775]},"properties":{"Name":"喜屋武小学校グラウンド","Jusho":"沖縄県糸満市喜屋武555","kouzui":"○","gake":"○","takashio":"○","jishin":"○","tsunami":"○","kaji":"○","naisui":"○","kazan":"×"}}
,{"type":"Feature","geometry":{"type":"Point","coordinates":[127.68945328315,26.127651313744]},"properties":{"Name":"高嶺小学校グラウンド","Jusho":"沖縄県糸満市大里1901","kouzui":"○","gake":"○","takashio":"○","jishin":"○","tsunami":"○","kaji":"○","naisui":"○","kazan":"×"}}
,{"type":"Feature","geometry":{"type":"Point","coordinates":[127.68828920444,26.127015566249]},"properties":{"Name":"高嶺中学校グラウンド","Jusho":"沖縄県糸満市大里1902","kouzui":"○","gake":"○","takashio":"○","jishin":"○","tsunami":"○","kaji":"○","naisui":"○","kazan":"×"}}
,{"type":"Feature","geometry":{"type":"Point","coordinates":[127.67163150195,26.111961067248]},"properties":{"Name":"社会福祉センターグラウンド","Jusho":"沖縄県糸満市真栄里857","kouzui":"○","gake":"○","takashio":"○","jishin":"○","tsunami":"○","kaji":"○","naisui":"○","kazan":"×"}}
,{"type":"Feature","geometry":{"type":"Point","coordinates":[127.66730970588,26.142337825065]},"properties":{"Name":"西崎小学校グラウンド","Jusho":"沖縄県糸満市西崎2-4-1","kouzui":"×","gake":"○","takashio":"×","jishin":"×","tsunami":"×","kaji":"○","naisui":"×","kazan":"×"}}
,{"type":"Feature","geometry":{"type":"Point","coordinates":[127.66645139899,26.141995913407]},"properties":{"Name":"西崎小学校校舎","Jusho":"沖縄県糸満市西崎2-4-1","kouzui":"×","gake":"×","takashio":"×","jishin":"×","tsunami":"○","kaji":"×","naisui":"×","kazan":"×"}}
,{"type":"Feature","geometry":{"type":"Point","coordinates":[127.66951902218,26.146960813337]},"properties":{"Name":"西崎中学校グラウンド","Jusho":"沖縄県糸満市西崎3-422","kouzui":"×","gake":"○","takashio":"×","jishin":"×","tsunami":"×","kaji":"○","naisui":"×","kazan":"×"}}
,{"type":"Feature","geometry":{"type":"Point","coordinates":[127.6692883522,26.147394203877]},"properties":{"Name":"西崎中学校校舎","Jusho":"沖縄県糸満市西崎3-422","kouzui":"×","gake":"×","takashio":"×","jishin":"×","tsunami":"○","kaji":"×","naisui":"×","kazan":"×"}}
,{"type":"Feature","geometry":{"type":"Point","coordinates":[127.66357096225,26.149096198435]},"properties":{"Name":"光洋小学校グラウンド","Jusho":"沖縄県糸満市西崎町3-7-12","kouzui":"×","gake":"○","takashio":"×","jishin":"×","tsunami":"×","kaji":"○","naisui":"×","kazan":"×"}}
,{"type":"Feature","geometry":{"type":"Point","coordinates":[127.66687651791,26.120185466953]},"properties":{"Name":"糸満南小学校グラウンド","Jusho":"沖縄県糸満市潮崎町3-1","kouzui":"×","gake":"○","takashio":"×","jishin":"×","tsunami":"×","kaji":"○","naisui":"×","kazan":"×"}}
,{"type":"Feature","geometry":{"type":"Point","coordinates":[127.67431540744,26.145523990577]},"properties":{"Name":"潮平小学校グラウンド","Jusho":"沖縄県糸満市潮平634-2","kouzui":"×","gake":"○","takashio":"×","jishin":"×","tsunami":"×","kaji":"○","naisui":"×","kazan":"×"}}
,{"type":"Feature","geometry":{"type":"Point","coordinates":[127.6748679425,26.145398787024]},"properties":{"Name":"潮平小学校校舎","Jusho":"沖縄県糸満市潮平634-2","kouzui":"×","gake":"×","takashio":"×","jishin":"×","tsunami":"○","kaji":"×","naisui":"×","kazan":"×"}}
,{"type":"Feature","geometry":{"type":"Point","coordinates":[127.67462654368,26.147609091532]},"properties":{"Name":"潮平中学校グラウンド","Jusho":"沖縄県糸満市阿波根1200","kouzui":"○","gake":"○","takashio":"○","jishin":"○","tsunami":"○","kaji":"○","naisui":"○","kazan":"×"}}
,{"type":"Feature","geometry":{"type":"Point","coordinates":[127.67484648482,26.148220649874]},"properties":{"Name":"潮平中学校校舎","Jusho":"沖縄県糸満市阿波根1200","kouzui":"×","gake":"×","takashio":"×","jishin":"×","tsunami":"○","kaji":"×","naisui":"×","kazan":"×"}}
,{"type":"Feature","geometry":{"type":"Point","coordinates":[127.6661594476,26.144031428848]},"properties":{"Name":"県営西崎団地","Jusho":"沖縄県糸満市西崎2-5-9","kouzui":"×","gake":"×","takashio":"×","jishin":"×","tsunami":"○","kaji":"×","naisui":"×","kazan":"×"}}
,{"type":"Feature","geometry":{"type":"Point","coordinates":[127.66197956118,26.14919728918]},"properties":{"Name":"県営西崎第２団地","Jusho":"沖縄県糸満市西崎町3-7-9","kouzui":"×","gake":"×","takashio":"×","jishin":"×","tsunami":"○","kaji":"×","naisui":"×","kazan":"×"}}
,{"type":"Feature","geometry":{"type":"Point","coordinates":[127.6706950809,26.150755647709]},"properties":{"Name":"県営潮平高層住宅","Jusho":"沖縄県糸満市潮平791","kouzui":"×","gake":"×","takashio":"×","jishin":"×","tsunami":"○","kaji":"×","naisui":"×","kazan":"×"}}
,{"type":"Feature","geometry":{"type":"Point","coordinates":[127.66077048422,26.146820204415]},"properties":{"Name":"スポーツロッジ糸満","Jusho":"沖縄県糸満市西崎町3-1","kouzui":"×","gake":"×","takashio":"×","jishin":"×","tsunami":"○","kaji":"×","naisui":"×","kazan":"×"}}
,{"type":"Feature","geometry":{"type":"Point","coordinates":[127.67039423195,26.136121755058]},"properties":{"Name":"エンゼルハイム糸満","Jusho":"沖縄県糸満市兼城581-1","kouzui":"×","gake":"×","takashio":"×","jishin":"×","tsunami":"○","kaji":"×","naisui":"×","kazan":"×"}}
,{"type":"Feature","geometry":{"type":"Point","coordinates":[127.66629141474,26.135609657227]},"properties":{"Name":"沖縄水産高等学校","Jusho":"沖縄県糸満市西崎1-1-1","kouzui":"×","gake":"×","takashio":"×","jishin":"×","tsunami":"○","kaji":"×","naisui":"×","kazan":"×"}}
,{"type":"Feature","geometry":{"type":"Point","coordinates":[127.67318951095,26.141669572177]},"properties":{"Name":"県営浜川団地","Jusho":"沖縄県糸満市兼城340","kouzui":"×","gake":"×","takashio":"×","jishin":"×","tsunami":"○","kaji":"×","naisui":"×","kazan":"×"}}
,{"type":"Feature","geometry":{"type":"Point","coordinates":[127.66577228388,26.123554193233]},"properties":{"Name":"糸満市役所","Jusho":"沖縄県糸満市潮崎町1-1","kouzui":"×","gake":"×","takashio":"×","jishin":"×","tsunami":"○","kaji":"×","naisui":"×","kazan":"×"}}
,{"type":"Feature","geometry":{"type":"Point","coordinates":[127.67252735341,26.119475207151]},"properties":{"Name":"糸満市中央図書館","Jusho":"沖縄県糸満市真栄里1448","kouzui":"×","gake":"×","takashio":"×","jishin":"×","tsunami":"○","kaji":"×","naisui":"×","kazan":"×"}}
,{"type":"Feature","geometry":{"type":"Point","coordinates":[127.65294503246,26.13199298108]},"properties":{"Name":"サザンビーチホテル","Jusho":"沖縄県糸満市西崎1-6-1","kouzui":"×","gake":"×","takashio":"×","jishin":"×","tsunami":"○","kaji":"×","naisui":"×","kazan":"×"}}
,{"type":"Feature","geometry":{"type":"Point","coordinates":[127.67608356784,26.128889827772]},"properties":{"Name":"沖縄県立糸満高校","Jusho":"沖縄県糸満市糸満1696-1","kouzui":"×","gake":"×","takashio":"×","jishin":"×","tsunami":"○","kaji":"×","naisui":"×","kazan":"×"}}
,{"type":"Feature","geometry":{"type":"Point","coordinates":[127.67038655903,26.142983298534]},"properties":{"Name":"すこやか館","Jusho":"沖縄県糸満市西崎6-4-8","kouzui":"×","gake":"×","takashio":"×","jishin":"×","tsunami":"○","kaji":"×","naisui":"×","kazan":"×"}}
,{"type":"Feature","geometry":{"type":"Point","coordinates":[127.66490720897,26.131042355105]},"properties":{"Name":"国道３３１号糸満高架橋","Jusho":"沖縄県糸満市字糸満・西崎１丁目","kouzui":"×","gake":"×","takashio":"×","jishin":"×","tsunami":"○","kaji":"×","naisui":"×","kazan":"×"}}
,{"type":"Feature","geometry":{"type":"Point","coordinates":[127.67863646265,26.127245144253]},"properties":{"Name":"稲嶺原市営住宅Ａ棟","Jusho":"沖縄県糸満市字糸満1736","kouzui":"×","gake":"×","takashio":"×","jishin":"×","tsunami":"○","kaji":"×","naisui":"×","kazan":"×"}}
,{"type":"Feature","geometry":{"type":"Point","coordinates":[127.678044056906,26.097573412086]},"properties":{"Name":"琉球ガラス村駐車場","Jusho":"沖縄県糸満市福地169番地","kouzui":"○","gake":"○","takashio":"○","jishin":"○","tsunami":"○","kaji":"○","naisui":"○","kazan":"×"}}
,{"type":"Feature","geometry":{"type":"Point","coordinates":[127.691244728725,26.0954556853955]},"properties":{"Name":"優美堂駐車場","Jusho":"沖縄県糸満市伊原372番地2","kouzui":"○","gake":"○","takashio":"○","jishin":"○","tsunami":"○","kaji":"○","naisui":"○","kazan":"×"}}
,{"type":"Feature","geometry":{"type":"Point","coordinates":[127.691375596957,26.0963423135346]},"properties":{"Name":"ひめゆり観光センターでいご駐車場","Jusho":"沖縄県糸満市米須1056番地","kouzui":"○","gake":"○","takashio":"○","jishin":"○","tsunami":"○","kaji":"○","naisui":"○","kazan":"×"}}
,{"type":"Feature","geometry":{"type":"Point","coordinates":[127.689715869585,26.0963662049416]},"properties":{"Name":"ひめゆり会館駐車場","Jusho":"沖縄県糸満市伊原734番地","kouzui":"○","gake":"○","takashio":"○","jishin":"○","tsunami":"○","kaji":"○","naisui":"○","kazan":"×"}}
,{"type":"Feature","geometry":{"type":"Point","coordinates":[127.686964434936,26.085257736725]},"properties":{"Name":"平和創造の森公園多目的広場","Jusho":"沖縄県糸満市字山城449番地","kouzui":"○","gake":"○","takashio":"○","jishin":"○","tsunami":"○","kaji":"○","naisui":"○","kazan":"×"}}
,{"type":"Feature","geometry":{"type":"Point","coordinates":[127.663372,26.129477]},"properties":{"Name":"第一市営住宅","Jusho":"沖縄県糸満市字糸満2276","kouzui":"×","gake":"×","takashio":"×","jishin":"×","tsunami":"○","kaji":"×","naisui":"×","kazan":"×"}}
,{"type":"Feature","geometry":{"type":"Point","coordinates":[127.78220350162,26.318520059648]},"properties":{"Name":"南桃原二丁目公園","Jusho":"沖縄県沖縄市南桃原2-5","kouzui":"○","gake":"○","takashio":"○","jishin":"○","tsunami":"○","kaji":"×","naisui":"×","kazan":"×"}}
,{"type":"Feature","geometry":{"type":"Point","coordinates":[127.79639467641,26.326720235648]},"properties":{"Name":"諸見里公園","Jusho":"沖縄県沖縄市園田3-25","kouzui":"○","gake":"×","takashio":"○","jishin":"○","tsunami":"○","kaji":"×","naisui":"×","kazan":"×"}}
,{"type":"Feature","geometry":{"type":"Point","coordinates":[127.82424598351,26.345255684425]},"properties":{"Name":"若夏公園","Jusho":"沖縄県沖縄市東2-23","kouzui":"○","gake":"○","takashio":"○","jishin":"○","tsunami":"○","kaji":"×","naisui":"×","kazan":"×"}}
,{"type":"Feature","geometry":{"type":"Point","coordinates":[127.83496484425,26.331820288855]},"properties":{"Name":"マンタ公園","Jusho":"沖縄県沖縄市海邦2-13","kouzui":"○","gake":"○","takashio":"×","jishin":"○","tsunami":"×","kaji":"×","naisui":"×","kazan":"×"}}
,{"type":"Feature","geometry":{"type":"Point","coordinates":[127.81668580307,26.354377584939]},"properties":{"Name":"松本都市緑地","Jusho":"沖縄県沖縄市松本1-10","kouzui":"○","gake":"○","takashio":"○","jishin":"○","tsunami":"○","kaji":"×","naisui":"×","kazan":"×"}}
,{"type":"Feature","geometry":{"type":"Point","coordinates":[127.81729582418,26.36592315357]},"properties":{"Name":"馬場都市緑地","Jusho":"沖縄県沖縄市知花6-41","kouzui":"○","gake":"○","takashio":"○","jishin":"○","tsunami":"○","kaji":"×","naisui":"×","kazan":"×"}}
,{"type":"Feature","geometry":{"type":"Point","coordinates":[127.80264925037,26.340342498758]},"properties":{"Name":"センター公園","Jusho":"沖縄県沖縄市嘉間良1-1","kouzui":"○","gake":"×","takashio":"○","jishin":"○","tsunami":"○","kaji":"×","naisui":"×","kazan":"×"}}
,{"type":"Feature","geometry":{"type":"Point","coordinates":[127.82205328545,26.356333504542]},"properties":{"Name":"明道公園","Jusho":"沖縄県沖縄市明道1-13","kouzui":"○","gake":"○","takashio":"○","jishin":"○","tsunami":"○","kaji":"×","naisui":"×","kazan":"×"}}
,{"type":"Feature","geometry":{"type":"Point","coordinates":[127.81956051429,26.348628732028]},"properties":{"Name":"美里公園","Jusho":"沖縄県沖縄市美原4-4","kouzui":"○","gake":"○","takashio":"○","jishin":"○","tsunami":"○","kaji":"×","naisui":"×","kazan":"×"}}
,{"type":"Feature","geometry":{"type":"Point","coordinates":[127.83484123699,26.317541591856]},"properties":{"Name":"黒潮公園","Jusho":"沖縄県沖縄市泡瀬2-34","kouzui":"○","gake":"○","takashio":"×","jishin":"○","tsunami":"×","kaji":"×","naisui":"×","kazan":"×"}}
,{"type":"Feature","geometry":{"type":"Point","coordinates":[127.82725428932,26.321657346711]},"properties":{"Name":"美東公園","Jusho":"沖縄県沖縄市高原5-20","kouzui":"○","gake":"○","takashio":"×","jishin":"○","tsunami":"×","kaji":"×","naisui":"×","kazan":"×"}}
,{"type":"Feature","geometry":{"type":"Point","coordinates":[127.812369,26.342561]},"properties":{"Name":"越来小学校（運動場）","Jusho":"沖縄県沖縄市越来1-2-2","kouzui":"○","gake":"○","takashio":"○","jishin":"○","tsunami":"○","kaji":"×","naisui":"×","kazan":"×"}}
,{"type":"Feature","geometry":{"type":"Point","coordinates":[127.800729,26.342548]},"properties":{"Name":"コザ小学校（運動場）","Jusho":"沖縄県沖縄市中央4-16-1","kouzui":"○","gake":"○","takashio":"○","jishin":"○","tsunami":"○","kaji":"×","naisui":"×","kazan":"×"}}
,{"type":"Feature","geometry":{"type":"Point","coordinates":[127.793205,26.333113]},"properties":{"Name":"中の町小学校（運動場）","Jusho":"沖縄県沖縄市上地3-4-1","kouzui":"○","gake":"○","takashio":"○","jishin":"○","tsunami":"○","kaji":"×","naisui":"×","kazan":"×"}}
,{"type":"Feature","geometry":{"type":"Point","coordinates":[127.813403,26.334965]},"properties":{"Name":"安慶田小学校（運動場）","Jusho":"沖縄県沖縄市安慶田2-18-1","kouzui":"×","gake":"○","takashio":"○","jishin":"○","tsunami":"○","kaji":"×","naisui":"×","kazan":"×"}}
,{"type":"Feature","geometry":{"type":"Point","coordinates":[127.800322,26.333372]},"properties":{"Name":"諸見小学校（運動場）","Jusho":"沖縄県沖縄市胡屋2-3-1","kouzui":"○","gake":"○","takashio":"○","jishin":"○","tsunami":"○","kaji":"×","naisui":"×","kazan":"×"}}
,{"type":"Feature","geometry":{"type":"Point","coordinates":[127.798209,26.324894]},"properties":{"Name":"島袋小学校（運動場）","Jusho":"沖縄県沖縄市久保田2-21-1","kouzui":"○","gake":"○","takashio":"○","jishin":"○","tsunami":"○","kaji":"×","naisui":"×","kazan":"×"}}
,{"type":"Feature","geometry":{"type":"Point","coordinates":[127.784247,26.3248]},"properties":{"Name":"山内小学校（運動場）","Jusho":"沖縄県沖縄市山内2-32-2","kouzui":"○","gake":"○","takashio":"○","jishin":"○","tsunami":"○","kaji":"×","naisui":"×","kazan":"×"}}
,{"type":"Feature","geometry":{"type":"Point","coordinates":[127.821084,26.37669]},