var yamagata={"type":"FeatureCollection","name":"yamagata","features":[
{"type":"Feature","geometry":{"type":"Point","coordinates":[140.36087371432,38.265205872405]},"properties":{"Name":"鈴川コミュニティセンター","Jusho":"山形県山形市山家町２-４-４","kouzui":"○","gake":"○","takashio":"×","jishin":"○","tsunami":"×","kaji":"×","naisui":"×","kazan":"○"}}
,{"type":"Feature","geometry":{"type":"Point","coordinates":[140.34383000659,38.287463719204]},"properties":{"Name":"千歳コミュニティセンター","Jusho":"山形県山形市落合町１０８７-１","kouzui":"○","gake":"○","takashio":"×","jishin":"○","tsunami":"×","kaji":"×","naisui":"×","kazan":"○"}}
,{"type":"Feature","geometry":{"type":"Point","coordinates":[140.29422862475,38.255902198352]},"properties":{"Name":"飯塚コミュニティセンター","Jusho":"山形県山形市横道７","kouzui":"○","gake":"○","takashio":"×","jishin":"○","tsunami":"×","kaji":"×","naisui":"×","kazan":"○"}}
,{"type":"Feature","geometry":{"type":"Point","coordinates":[140.29216640971,38.267233852697]},"properties":{"Name":"椹沢コミュニティセンター","Jusho":"山形県山形市金石田８-２","kouzui":"×","gake":"○","takashio":"×","jishin":"○","tsunami":"×","kaji":"×","naisui":"×","kazan":"○"}}
,{"type":"Feature","geometry":{"type":"Point","coordinates":[140.33925713253,38.311016766923]},"properties":{"Name":"出羽コミュニティセンター","Jusho":"山形県山形市大字千手堂４０４-１","kouzui":"○","gake":"○","takashio":"×","jishin":"○","tsunami":"×","kaji":"×","naisui":"×","kazan":"○"}}
,{"type":"Feature","geometry":{"type":"Point","coordinates":[140.30552992765,38.282320975204]},"properties":{"Name":"金井コミュニティセンター","Jusho":"山形県山形市大字陣場９０３","kouzui":"○","gake":"○","takashio":"×","jishin":"○","tsunami":"×","kaji":"×","naisui":"×","kazan":"○"}}
,{"type":"Feature","geometry":{"type":"Point","coordinates":[140.36899775454,38.300082293796]},"properties":{"Name":"楯山コミュニティセンター","Jusho":"山形県山形市大字風間１１８１-１","kouzui":"○","gake":"○","takashio":"×","jishin":"○","tsunami":"×","kaji":"×","naisui":"×","kazan":"○"}}
,{"type":"Feature","geometry":{"type":"Point","coordinates":[140.34048251303,38.221475494384]},"properties":{"Name":"滝山コミュニティセンター","Jusho":"山形県山形市上桜田１-１-２６","kouzui":"○","gake":"×","takashio":"×","jishin":"○","tsunami":"×","kaji":"×","naisui":"×","kazan":"○"}}
,{"type":"Feature","geometry":{"type":"Point","coordinates":[140.38157285947,38.2408338673]},"properties":{"Name":"東沢コミュニティセンター","Jusho":"山形県山形市大字妙見寺４","kouzui":"○","gake":"○","takashio":"×","jishin":"○","tsunami":"×","kaji":"×","naisui":"×","kazan":"○"}}
,{"type":"Feature","geometry":{"type":"Point","coordinates":[140.40295659572,38.291996491392]},"properties":{"Name":"高瀬コミュニティセンター","Jusho":"山形県山形市大字下東山１３６０","kouzui":"×","gake":"○","takashio":"×","jishin":"○","tsunami":"×","kaji":"×","naisui":"×","kazan":"○"}}
,{"type":"Feature","geometry":{"type":"Point","coordinates":[140.30650232838,38.307373641325]},"properties":{"Name":"大郷コミュニティセンター","Jusho":"山形県山形市大字中野５４３","kouzui":"×","gake":"○","takashio":"×","jishin":"○","tsunami":"×","kaji":"×","naisui":"×","kazan":"○"}}
,{"type":"Feature","geometry":{"type":"Point","coordinates":[140.3003181198,38.236340858177]},"properties":{"Name":"南沼原コミュニティセンター","Jusho":"山形県山形市南館西１９-１１","kouzui":"×","gake":"○","takashio":"×","jishin":"○","tsunami":"×","kaji":"×","naisui":"×","kazan":"○"}}
,{"type":"Feature","geometry":{"type":"Point","coordinates":[140.31936891545,38.325557379894]},"properties":{"Name":"明治コミュニティセンター","Jusho":"山形県山形市大字渋江９７９","kouzui":"×","gake":"○","takashio":"×","jishin":"○","tsunami":"×","kaji":"×","naisui":"×","kazan":"○"}}
,{"type":"Feature","geometry":{"type":"Point","coordinates":[140.30589370343,38.199937026031]},"properties":{"Name":"南山形コミュニティセンター","Jusho":"山形県山形市大字松原２０３-１","kouzui":"×","gake":"○","takashio":"×","jishin":"○","tsunami":"×","kaji":"×","naisui":"×","kazan":"×"}}
,{"type":"Feature","geometry":{"type":"Point","coordinates":[140.25637249973,38.269341274235]},"properties":{"Name":"大曽根コミュニティセンター","Jusho":"山形県山形市大字上反田８１１-２","kouzui":"○","gake":"○","takashio":"×","jishin":"○","tsunami":"×","kaji":"×","naisui":"×","kazan":"○"}}
,{"type":"Feature","geometry":{"type":"Point","coordinates":[140.4246708052,38.312415757941]},"properties":{"Name":"山寺コミュニティセンター","Jusho":"山形県山形市大字山寺５１７-１","kouzui":"○","gake":"×","takashio":"×","jishin":"○","tsunami":"×","kaji":"×","naisui":"×","kazan":"○"}}
,{"type":"Feature","geometry":{"type":"Point","coordinates":[140.31919493193,38.193216053731]},"properties":{"Name":"蔵王コミュニティセンター","Jusho":"山形県山形市蔵王半郷１０２８","kouzui":"○","gake":"×","takashio":"×","jishin":"○","tsunami":"×","kaji":"×","naisui":"×","kazan":"○"}}
,{"type":"Feature","geometry":{"type":"Point","coordinates":[140.27097784214,38.235582167305]},"properties":{"Name":"西山形コミュニティセンター","Jusho":"山形県山形市大字柏倉３７７６-３","kouzui":"○","gake":"○","takashio":"×","jishin":"○","tsunami":"×","kaji":"×","naisui":"×","kazan":"○"}}
,{"type":"Feature","geometry":{"type":"Point","coordinates":[140.26635407308,38.250649199305]},"properties":{"Name":"村木沢コミュニティセンター","Jusho":"山形県山形市大字村木沢１６７２-１","kouzui":"○","gake":"○","takashio":"×","jishin":"○","tsunami":"×","kaji":"×","naisui":"×","kazan":"○"}}
,{"type":"Feature","geometry":{"type":"Point","coordinates":[140.27883382865,38.21697565133]},"properties":{"Name":"本沢コミュニティセンター","Jusho":"山形県山形市大字長谷堂１０７０-１","kouzui":"○","gake":"○","takashio":"×","jishin":"○","tsunami":"×","kaji":"×","naisui":"×","kazan":"○"}}
,{"type":"Feature","geometry":{"type":"Point","coordinates":[140.35158101638,38.249413886293]},"properties":{"Name":"東部公民館及び福祉文化センター","Jusho":"山形県山形市小白川町２-３-４７","kouzui":"○","gake":"○","takashio":"×","jishin":"○","tsunami":"×","kaji":"×","naisui":"×","kazan":"○"}}
,{"type":"Feature","geometry":{"type":"Point","coordinates":[140.32100380375,38.241206492534]},"properties":{"Name":"西部公民館","Jusho":"山形県山形市篭田１-２-２３","kouzui":"○","gake":"○","takashio":"×","jishin":"○","tsunami":"×","kaji":"×","naisui":"×","kazan":"○"}}
,{"type":"Feature","geometry":{"type":"Point","coordinates":[140.34079067031,38.240404052664]},"properties":{"Name":"南部公民館","Jusho":"山形県山形市小荷駄町７-１１０","kouzui":"○","gake":"○","takashio":"×","jishin":"○","tsunami":"×","kaji":"×","naisui":"×","kazan":"○"}}
,{"type":"Feature","geometry":{"type":"Point","coordinates":[140.3411956797,38.267586616484]},"properties":{"Name":"北部公民館","Jusho":"山形県山形市宮町４-１７-１３","kouzui":"○","gake":"○","takashio":"×","jishin":"○","tsunami":"×","kaji":"×","naisui":"×","kazan":"○"}}
,{"type":"Feature","geometry":{"type":"Point","coordinates":[140.32346352401,38.268356511657]},"properties":{"Name":"江南公民館","Jusho":"山形県山形市江南１-１-２７","kouzui":"○","gake":"○","takashio":"×","jishin":"○","tsunami":"×","kaji":"×","naisui":"×","kazan":"○"}}
,{"type":"Feature","geometry":{"type":"Point","coordinates":[140.32185943353,38.254214841546]},"properties":{"Name":"霞城公民館及び福祉文化センター","Jusho":"山形県山形市城西町２-２-１５","kouzui":"○","gake":"○","takashio":"×","jishin":"○","tsunami":"×","kaji":"×","naisui":"×","kazan":"○"}}
,{"type":"Feature","geometry":{"type":"Point","coordinates":[140.31893750303,38.222635968399]},"properties":{"Name":"元木公民館","Jusho":"山形県山形市元木３-４-８","kouzui":"○","gake":"○","takashio":"×","jishin":"○","tsunami":"×","kaji":"×","naisui":"×","kazan":"○"}}
,{"type":"Feature","geometry":{"type":"Point","coordinates":[140.335954587,38.249901581009]},"properties":{"Name":"第一小学校（体育館）","Jusho":"山形県山形市本町１-５-２４","kouzui":"○","gake":"○","takashio":"×","jishin":"○","tsunami":"×","kaji":"×","naisui":"×","kazan":"○"}}
,{"type":"Feature","geometry":{"type":"Point","coordinates":[140.33540741636,38.25015434701]},"properties":{"Name":"第一小学校（グラウンド）","Jusho":"山形県山形市本町１-５-２４","kouzui":"×","gake":"×","takashio":"×","jishin":"○","tsunami":"×","kaji":"×","naisui":"×","kazan":"×"}}
,{"type":"Feature","geometry":{"type":"Point","coordinates":[140.33054325795,38.245249943983]},"properties":{"Name":"第二小学校（体育館）","Jusho":"山形県山形市香澄町３-９-３８","kouzui":"○","gake":"○","takashio":"×","jishin":"○","tsunami":"×","kaji":"×","naisui":"×","kazan":"○"}}
,{"type":"Feature","geometry":{"type":"Point","coordinates":[140.330146291,38.244984521751]},"properties":{"Name":"第二小学校（グラウンド）","Jusho":"山形県山形市香澄町３-９-３８","kouzui":"×","gake":"×","takashio":"×","jishin":"○","tsunami":"×","kaji":"×","naisui":"×","kazan":"×"}}
,{"type":"Feature","geometry":{"type":"Point","coordinates":[140.33866482102,38.262699924358]},"properties":{"Name":"第三小学校（体育館）","Jusho":"山形県山形市宮町５-７-５８","kouzui":"○","gake":"○","takashio":"×","jishin":"○","tsunami":"×","kaji":"×","naisui":"×","kazan":"○"}}
,{"type":"Feature","geometry":{"type":"Point","coordinates":[140.33786015832,38.262857875389]},"properties":{"Name":"第三小学校（グラウンド）","Jusho":"山形県山形市宮町５-７-５８","kouzui":"×","gake":"×","takashio":"×","jishin":"○","tsunami":"×","kaji":"×","naisui":"×","kazan":"×"}}
,{"type":"Feature","geometry":{"type":"Point","coordinates":[140.33657620206,38.258491985418]},"properties":{"Name":"第四小学校（体育館）","Jusho":"山形県山形市相生町４-３７","kouzui":"○","gake":"○","takashio":"×","jishin":"○","tsunami":"×","kaji":"×","naisui":"×","kazan":"○"}}
,{"type":"Feature","geometry":{"type":"Point","coordinates":[140.33687124505,38.257944387471]},"properties":{"Name":"第四小学校（グラウンド）","Jusho":"山形県山形市相生町４-３７","kouzui":"×","gake":"×","takashio":"×","jishin":"○","tsunami":"×","kaji":"×","naisui":"×","kazan":"×"}}
,{"type":"Feature","geometry":{"type":"Point","coordinates":[140.34533377036,38.247589720218]},"properties":{"Name":"第五小学校（体育館）","Jusho":"山形県山形市東原町１-１-９","kouzui":"○","gake":"○","takashio":"×","jishin":"○","tsunami":"×","kaji":"×","naisui":"×","kazan":"○"}}
,{"type":"Feature","geometry":{"type":"Point","coordinates":[140.3450172697,38.247320093605]},"properties":{"Name":"第五小学校（グラウンド）","Jusho":"山形県山形市東原町１-１-９","kouzui":"×","gake":"×","takashio":"×","jishin":"○","tsunami":"×","kaji":"×","naisui":"×","kazan":"×"}}
,{"type":"Feature","geometry":{"type":"Point","coordinates":[140.33251260497,38.237860590535]},"properties":{"Name":"第六小学校（体育館）","Jusho":"山形県山形市鉄砲町２-９-５５","kouzui":"○","gake":"○","takashio":"×","jishin":"○","tsunami":"×","kaji":"×","naisui":"×","kazan":"○"}}
,{"type":"Feature","geometry":{"type":"Point","coordinates":[140.33273791053,38.238345138183]},"properties":{"Name":"第六小学校（グラウンド）","Jusho":"山形県山形市鉄砲町２-９-５５","kouzui":"×","gake":"×","takashio":"×","jishin":"○","tsunami":"×","kaji":"×","naisui":"×","kazan":"×"}}
,{"type":"Feature","geometry":{"type":"Point","coordinates":[140.3268615297,38.26035783265]},"properties":{"Name":"第七小学校（体育館）","Jusho":"山形県山形市城北町２-９-３７","kouzui":"○","gake":"○","takashio":"×","jishin":"○","tsunami":"×","kaji":"×","naisui":"×","kazan":"○"}}
,{"type":"Feature","geometry":{"type":"Point","coordinates":[140.32771983658,38.260618986588]},"properties":{"Name":"第七小学校（グラウンド）","Jusho":"山形県山形市城北町２-９-３７","kouzui":"×","gake":"×","takashio":"×","jishin":"○","tsunami":"×","kaji":"×","naisui":"×","kazan":"×"}}
,{"type":"Feature","geometry":{"type":"Point","coordinates":[140.35355671576,38.248629465328]},"properties":{"Name":"第八小学校（体育館）","Jusho":"山形県山形市小白川町２-８-３６","kouzui":"○","gake":"○","takashio":"×","jishin":"○","tsunami":"×","kaji":"×","naisui":"×","kazan":"○"}}
,{"type":"Feature","geometry":{"type":"Point","coordinates":[140.35405560663,38.248928576903]},"properties":{"Name":"第八小学校（グラウンド）","Jusho":"山形県山形市小白川町２-８-３６","kouzui":"×","gake":"×","takashio":"×","jishin":"○","tsunami":"×","kaji":"×","naisui":"×","kazan":"×"}}
,{"type":"Feature","geometry":{"type":"Point","coordinates":[140.32958853624,38.279897944223]},"properties":{"Name":"第九小学校（体育館）","Jusho":"山形県山形市馬見ケ崎２-５-１","kouzui":"○","gake":"○","takashio":"×","jishin":"○","tsunami":"×","kaji":"×","naisui":"×","kazan":"○"}}
,{"type":"Feature","geometry":{"type":"Point","coordinates":[140.33009815595,38.280462220684]},"properties":{"Name":"第九小学校（グラウンド）","Jusho":"山形県山形市馬見ケ崎２-５-１","kouzui":"×","gake":"×","takashio":"×","jishin":"○","tsunami":"×","kaji":"×","naisui":"×","kazan":"×"}}
,{"type":"Feature","geometry":{"type":"Point","coordinates":[140.30897823996,38.25633871518]},"properties":{"Name":"第十小学校（体育館）","Jusho":"山形県山形市やよい２-６-１","kouzui":"○","gake":"○","takashio":"×","jishin":"○","tsunami":"×","kaji":"×","naisui":"×","kazan":"○"}}
,{"type":"Feature","geometry":{"type":"Point","coordinates":[140.30932692713,38.255782676138]},"properties":{"Name":"第十小学校（グラウンド）","Jusho":"山形県山形市やよい２-６-１","kouzui":"×","gake":"×","takashio":"×","jishin":"○","tsunami":"×","kaji":"×","naisui":"×","kazan":"×"}}
,{"type":"Feature","geometry":{"type":"Point","coordinates":[140.33155726713,38.225636454267]},"properties":{"Name":"南小学校（体育館）","Jusho":"山形県山形市青田２-１-１","kouzui":"○","gake":"○","takashio":"×","jishin":"○","tsunami":"×","kaji":"×","naisui":"×","kazan":"○"}}
,{"type":"Feature","geometry":{"type":"Point","coordinates":[140.33209907335,38.224987467634]},"properties":{"Name":"南小学校（グラウンド）","Jusho":"山形県山形市青田２-１-１","kouzui":"×","gake":"×","takashio":"×","jishin":"○","tsunami":"×","kaji":"×","naisui":"×","kazan":"×"}}
,{"type":"Feature","geometry":{"type":"Point","coordinates":[140.31568944129,38.266117431717]},"properties":{"Name":"西小学校（体育館）","Jusho":"山形県山形市西田３-２-１","kouzui":"○","gake":"○","takashio":"×","jishin":"○","tsunami":"×","kaji":"×","naisui":"×","kazan":"○"}}
,{"type":"Feature","geometry":{"type":"Point","coordinates":[140.31629025612,38.266374353132]},"properties":{"Name":"西小学校（グラウンド）","Jusho":"山形県山形市西田３-２-１","kouzui":"×","gake":"×","takashio":"×","jishin":"○","tsunami":"×","kaji":"×","naisui":"×","kazan":"×"}}
,{"type":"Feature","geometry":{"type":"Point","coordinates":[140.3450384275,38.273339599973]},"properties":{"Name":"東小学校（体育館）","Jusho":"山形県山形市泉町１９-３１","kouzui":"○","gake":"○","takashio":"×","jishin":"○","tsunami":"×","kaji":"×","naisui":"×","kazan":"○"}}
,{"type":"Feature","geometry":{"type":"Point","coordinates":[140.3456311957,38.273284851556]},"properties":{"Name":"東小学校（グラウンド）","Jusho":"山形県山形市泉町１９-３１","kouzui":"×","gake":"×","takashio":"×","jishin":"○","tsunami":"×","kaji":"×","naisui":"×","kazan":"×"}}
,{"type":"Feature","geometry":{"type":"Point","coordinates":[140.3577217639,38.268285134468]},"properties":{"Name":"鈴川小学校（体育館）","Jusho":"山形県山形市鈴川町３-７-１０","kouzui":"○","gake":"○","takashio":"×","jishin":"○","tsunami":"×","kaji":"×","naisui":"×","kazan":"○"}}
,{"type":"Feature","geometry":{"type":"Point","coordinates":[140.35824211245,38.267804998145]},"properties":{"Name":"鈴川小学校（グラウンド）","Jusho":"山形県山形市鈴川町３-７-１０","kouzui":"×","gake":"×","takashio":"×","jishin":"○","tsunami":"×","kaji":"×","naisui":"×","kazan":"×"}}
,{"type":"Feature","geometry":{"type":"Point","coordinates":[140.34477093739,38.285066685875]},"properties":{"Name":"千歳小学校（体育館）","Jusho":"山形県山形市落合町１３５９","kouzui":"○","gake":"○","takashio":"×","jishin":"○","tsunami":"×","kaji":"×","naisui":"×","kazan":"○"}}
,{"type":"Feature","geometry":{"type":"Point","coordinates":[140.34515717549,38.2847298263]},"properties":{"Name":"千歳小学校（グラウンド）","Jusho":"山形県山形市落合町１３５９","kouzui":"×","gake":"×","takashio":"×","jishin":"○","tsunami":"×","kaji":"×","naisui":"×","kazan":"×"}}
,{"type":"Feature","geometry":{"type":"Point","coordinates":[140.30114263804,38.278622751544]},"properties":{"Name":"金井小学校（体育館）","Jusho":"山形県山形市陣場３-７-６０","kouzui":"○","gake":"○","takashio":"×","jishin":"○","tsunami":"×","kaji":"×","naisui":"×","kazan":"○"}}
,{"type":"Feature","geometry":{"type":"Point","coordinates":[140.30225843699,38.278437462526]},"properties":{"Name":"金井小学校（グラウンド）","Jusho":"山形県山形市陣場３-７-６０","kouzui":"×","gake":"×","takashio":"×","jishin":"○","tsunami":"×","kaji":"×","naisui":"×","kazan":"×"}}
,{"type":"Feature","geometry":{"type":"Point","coordinates":[140.30357767332,38.305738086652]},"properties":{"Name":"大郷小学校（体育館）","Jusho":"山形県山形市大字中野５０６","kouzui":"×","gake":"○","takashio":"×","jishin":"○","tsunami":"×","kaji":"×","naisui":"×","kazan":"○"}}
,{"type":"Feature","geometry":{"type":"Point","coordinates":[140.30358303774,38.306348466735]},"properties":{"Name":"大郷小学校（グラウンド）","Jusho":"山形県山形市大字中野５０６","kouzui":"×","gake":"×","takashio":"×","jishin":"○","tsunami":"×","kaji":"×","naisui":"×","kazan":"×"}}
,{"type":"Feature","geometry":{"type":"Point","coordinates":[140.32102910539,38.330554875665]},"properties":{"Name":"明治小学校（体育館）","Jusho":"山形県山形市大字灰塚４５４","kouzui":"○","gake":"○","takashio":"×","jishin":"○","tsunami":"×","kaji":"×","naisui":"×","kazan":"○"}}
,{"type":"Feature","geometry":{"type":"Point","coordinates":[140.32132414838,38.330155105548]},"properties":{"Name":"明治小学校（グラウンド）","Jusho":"山形県山形市大字灰塚４５４","kouzui":"×","gake":"×","takashio":"×","jishin":"○","tsunami":"×","kaji":"×","naisui":"×","kazan":"×"}}
,{"type":"Feature","geometry":{"type":"Point","coordinates":[140.34111008171,38.312476944947]},"properties":{"Name":"出羽小学校（体育館）","Jusho":"山形県山形市大字漆山３１６９","kouzui":"○","gake":"○","takashio":"×","jishin":"○","tsunami":"×","kaji":"×","naisui":"×","kazan":"○"}}
,{"type":"Feature","geometry":{"type":"Point","coordinates":[140.34067019943,38.312228605001]},"properties":{"Name":"出羽小学校（グラウンド）","Jusho":"山形県山形市大字漆山３１６９","kouzui":"×","gake":"×","takashio":"×","jishin":"○","tsunami":"×","kaji":"×","naisui":"×","kazan":"×"}}
,{"type":"Feature","geometry":{"type":"Point","coordinates":[140.36651587116,38.302293804578]},"properties":{"Name":"楯山小学校（体育館）","Jusho":"山形県山形市大字青柳字一本木６４","kouzui":"○","gake":"○","takashio":"×","jishin":"○","tsunami":"×","kaji":"×","naisui":"×","kazan":"○"}}
,{"type":"Feature","geometry":{"type":"Point","coordinates":[140.36565756427,38.301881249336]},"properties":{"Name":"楯山小学校（グラウンド）","Jusho":"山形県山形市大字青柳字一本木６４","kouzui":"×","gake":"×","takashio":"×","jishin":"○","tsunami":"×","kaji":"×","naisui":"×","kazan":"×"}}
,{"type":"Feature","geometry":{"type":"Point","coordinates":[140.40077809661,38.295695248788]},"properties":{"Name":"高瀬小学校（体育館）","Jusho":"山形県山形市大字下東山１２６４","kouzui":"○","gake":"○","takashio":"×","jishin":"○","tsunami":"×","kaji":"×","naisui":"×","kazan":"○"}}
,{"type":"Feature","geometry":{"type":"Point","coordinates":[140.40124480097,38.295110039985]},"properties":{"Name":"高瀬小学校（グラウンド）","Jusho":"山形県山形市大字下東山１２６４","kouzui":"×","gake":"×","takashio":"×","jishin":"○","tsunami":"×","kaji":"×","naisui":"×","kazan":"×"}}
,{"type":"Feature","geometry":{"type":"Point","coordinates":[140.42663791656,38.309818873475]},"properties":{"Name":"山寺小学校・中学校（体育館）","Jusho":"山形県山形市大字山寺１６５０","kouzui":"×","gake":"×","takashio":"×","jishin":"○","tsunami":"×","kaji":"×","naisui":"×","kazan":"○"}}
,{"type":"Feature","geometry":{"type":"Point","coordinates":[140.42582788945,38.309397942385]},"properties":{"Name":"山寺小学校・中学校（グラウンド）","Jusho":"山形県山形市大字山寺１６５０","kouzui":"×","gake":"×","takashio":"×","jishin":"○","tsunami":"×","kaji":"×","naisui":"×","kazan":"×"}}
,{"type":"Feature","geometry":{"type":"Point","coordinates":[140.39459889253,38.239663026936]},"properties":{"Name":"東沢小学校（体育館）","Jusho":"山形県山形市防原町４-１５","kouzui":"×","gake":"○","takashio":"×","jishin":"○","tsunami":"×","kaji":"×","naisui":"×","kazan":"○"}}
,{"type":"Feature","geometry":{"type":"Point","coordinates":[140.39582197983,38.238984671619]},"properties":{"Name":"東沢小学校（グラウンド）","Jusho":"山形県山形市防原町４-１５","kouzui":"×","gake":"×","takashio":"×","jishin":"○","tsunami":"×","kaji":"×","naisui":"×","kazan":"×"}}
,{"type":"Feature","geometry":{"type":"Point","coordinates":[140.34523771726,38.226911075404]},"properties":{"Name":"滝山小学校（体育館）","Jusho":"山形県山形市小立４-１３-８６","kouzui":"○","gake":"×","takashio":"×","jishin":"○","tsunami":"×","kaji":"×","naisui":"×","kazan":"○"}}
,{"type":"Feature","geometry":{"type":"Point","coordinates":[140.3470026108,38.227298772148]},"properties":{"Name":"滝山小学校（グラウンド）","Jusho":"山形県山形市小立４-１３-８６","kouzui":"×","gake":"×","takashio":"×","jishin":"○","tsunami":"×","kaji":"×","naisui":"×","kazan":"×"}}
,{"type":"Feature","geometry":{"type":"Point","coordinates":[140.32055311835,38.22173533005]},"properties":{"Name":"桜田小学校（体育館）","Jusho":"山形県山形市桜田東１-１-３０","kouzui":"○","gake":"○","takashio":"×","jishin":"○","tsunami":"×","kaji":"×","naisui":"×","kazan":"○"}}
,{"type":"Feature","geometry":{"type":"Point","coordinates":[140.32133632338,38.222135697529]},"properties":{"Name":"桜田小学校（グラウンド）","Jusho":"山形県山形市桜田東１-１-３０","kouzui":"×","gake":"×","takashio":"×","jishin":"○","tsunami":"×","kaji":"×","naisui":"×","kazan":"×"}}
,{"type":"Feature","geometry":{"type":"Point","coordinates":[140.30451906714,38.23747073346]},"properties":{"Name":"南沼原小学校（体育館）","Jusho":"山形県山形市富の中１-１-４","kouzui":"○","gake":"○","takashio":"×","jishin":"○","tsunami":"×","kaji":"×","naisui":"×","kazan":"○"}}
,{"type":"Feature","geometry":{"type":"Point","coordinates":[140.30545247587,38.237533935849]},"properties":{"Name":"南沼原小学校（グラウンド）","Jusho":"山形県山形市富の中１-１-４","kouzui":"×","gake":"×","takashio":"×","jishin":"○","tsunami":"×","kaji":"×","naisui":"×","kazan":"×"}}
,{"type":"Feature","geometry":{"type":"Point","coordinates":[140.29650682888,38.259536532174]},"properties":{"Name":"宮浦小学校（体育館）","Jusho":"山形県山形市宮浦１７-３","kouzui":"○","gake":"○","takashio":"×","jishin":"○","tsunami":"×","kaji":"×","naisui":"×","kazan":"○"}}
,{"type":"Feature","geometry":{"type":"Point","coordinates":[140.29583627663,38.26014730085]},"properties":{"Name":"宮浦小学校（グラウンド）","Jusho":"山形県山形市宮浦１７-３","kouzui":"×","gake":"×","takashio":"×","jishin":"○","tsunami":"×","kaji":"×","naisui":"×","kazan":"×"}}
,{"type":"Feature","geometry":{"type":"Point","coordinates":[140.31782639286,38.206719126264]},"properties":{"Name":"蔵王第一小学校（体育館）","Jusho":"山形県山形市成沢西４-３-１７","kouzui":"○","gake":"○","takashio":"×","jishin":"○","tsunami":"×","kaji":"×","naisui":"×","kazan":"○"}}
,{"type":"Feature","geometry":{"type":"Point","coordinates":[140.31824481746,38.20716594413]},"properties":{"Name":"蔵王第一小学校（グラウンド）","Jusho":"山形県山形市成沢西４-３-１７","kouzui":"×","gake":"×","takashio":"×","jishin":"○","tsunami":"×","kaji":"×","naisui":"×","kazan":"×"}}
,{"type":"Feature","geometry":{"type":"Point","coordinates":[140.31885412586,38.177664570252]},"properties":{"Name":"蔵王第二小学校（体育館）","Jusho":"山形県山形市蔵王上野字南坂２１１６","kouzui":"○","gake":"○","takashio":"×","jishin":"○","tsunami":"×","kaji":"×","naisui":"×","kazan":"○"}}
,{"type":"Feature","geometry":{"type":"Point","coordinates":[140.31811920059,38.177356731684]},"properties":{"Name":"蔵王第二小学校（グラウンド）","Jusho":"山形県山形市蔵王上野字南坂２１１６","kouzui":"×","gake":"×","takashio":"×","jishin":"○","tsunami":"×","kaji":"×","naisui":"×","kazan":"×"}}
,{"type":"Feature","geometry":{"type":"Point","coordinates":[140.39221556177,38.170267992249]},"properties":{"Name":"蔵王第三小学校・蔵王第二中学校（体育館）","Jusho":"山形県山形市蔵王温泉字丈二田７２７","kouzui":"○","gake":"○","takashio":"×","jishin":"○","tsunami":"×","kaji":"×","naisui":"×","kazan":"○"}}
,{"type":"Feature","geometry":{"type":"Point","coordinates":[140.39298803797,38.170069774848]},"properties":{"Name":"蔵王第三小学校・蔵王第二中学校（グラウンド）","Jusho":"山形県山形市蔵王温泉字丈二田７２７","kouzui":"×","gake":"×","takashio":"×","jishin":"○","tsunami":"×","kaji":"×","naisui":"×","kazan":"×"}}
,{"type":"Feature","geometry":{"type":"Point","coordinates":[140.30750235267,38.201385859162]},"properties":{"Name":"南山形小学校（体育館）","Jusho":"山形県山形市大字松原字東河原１８８","kouzui":"×","gake":"○","takashio":"×","jishin":"○","tsunami":"×","kaji":"×","naisui":"×","kazan":"×"}}
,{"type":"Feature","geometry":{"type":"Point","coordinates":[140.30657430835,38.201069689627]},"properties":{"Name":"南山形小学校（グラウンド）","Jusho":"山形県山形市大字松原字東河原１８８","kouzui":"×","gake":"×","takashio":"×","jishin":"○","tsunami":"×","kaji":"×","naisui":"×","kazan":"×"}}
,{"type":"Feature","geometry":{"type":"Point","coordinates":[140.2873070555,38.188386084228]},"properties":{"Name":"みはらしの丘小学校（体育館）","Jusho":"山形県山形市みはらしの丘３-４","kouzui":"○","gake":"○","takashio":"×","jishin":"○","tsunami":"×","kaji":"×","naisui":"×","kazan":"○"}}
,{"type":"Feature","geometry":{"type":"Point","coordinates":[140.28768256476,38.18882458198]},"properties":{"Name":"みはらしの丘小学校（グラウンド）","Jusho":"山形県山形市みはらしの丘３-４","kouzui":"×","gake":"×","takashio":"×","jishin":"○","tsunami":"×","kaji":"×","naisui":"×","kazan":"×"}}
,{"type":"Feature","geometry":{"type":"Point","coordinates":[140.28007106539,38.216355768061]},"properties":{"Name":"本沢小学校（体育館）","Jusho":"山形県山形市大字長谷堂１１１１-１","kouzui":"○","gake":"○","takashio":"×","jishin":"○","tsunami":"×","kaji":"×","naisui":"×","kazan":"○"}}
,{"type":"Feature","geometry":{"type":"Point","coordinates":[140.27970092054,38.21706805187]},"properties":{"Name":"本沢小学校（グラウンド）","Jusho":"山形県山形市大字長谷堂１１１１-１","kouzui":"×","gake":"×","takashio":"×","jishin":"○","tsunami":"×","kaji":"×","naisui":"×","kazan":"×"}}
,{"type":"Feature","geometry":{"type":"Point","coordinates":[140.26632771165,38.236027483944]},"properties":{"Name":"西山形小学校（体育館）","Jusho":"山形県山形市大字柏倉８８８","kouzui":"○","gake":"○","takashio":"×","jishin":"○","tsunami":"×","kaji":"×","naisui":"×","kazan":"○"}}
,{"type":"Feature","geometry":{"type":"Point","coordinates":[140.26656911045,38.235264822312]},"properties":{"Name":"西山形小学校（グラウンド）","Jusho":"山形県山形市大字柏倉８８８","kouzui":"×","gake":"×","takashio":"×","jishin":"○","tsunami":"×","kaji":"×","naisui":"×","kazan":"×"}}
,{"type":"Feature","geometry":{"type":"Point","coordinates":[140.26170673799,38.252953386539]},"properties":{"Name":"村木沢小学校（体育館）","Jusho":"山形県山形市大字村木沢６０４６","kouzui":"○","gake":"○","takashio":"×","jishin":"○","tsunami":"×","kaji":"×","naisui":"×","kazan":"○"}}
,{"type":"Feature","geometry":{"type":"Point","coordinates":[140.2613526864,38.252468936257]},"properties":{"Name":"村木沢小学校（グラウンド）","Jusho":"山形県山形市大字村木沢６０４６","kouzui":"×","gake":"×","takashio":"×","jishin":"○","tsunami":"×","kaji":"×","naisui":"×","kazan":"×"}}
,{"type":"Feature","geometry":{"type":"Point","coordinates":[140.25743873199,38.269793615484]},"properties":{"Name":"大曽根小学校（体育館）","Jusho":"山形県山形市大字上反田２７８","kouzui":"○","gake":"○","takashio":"×","jishin":"○","tsunami":"×","kaji":"×","naisui":"×","kazan":"○"}}
,{"type":"Feature","geometry":{"type":"Point","coordinates":[140.25721342643,38.269161869626]},"properties":{"Name":"大曽根小学校（グラウンド）","Jusho":"山形県山形市大字上反田２７８","kouzui":"×","gake":"×","takashio":"×","jishin":"○","tsunami":"×","kaji":"×","naisui":"×","kazan":"×"}}
,{"type":"Feature","geometry":{"type":"Point","coordinates":[140.36718168851,38.241480121988]},"properties":{"Name":"第一中学校（体育館）","Jusho":"山形県山形市松波３-１-１５","kouzui":"○","gake":"○","takashio":"×","jishin":"○","tsunami":"×","kaji":"×","naisui":"×","kazan":"○"}}
,{"type":"Feature","geometry":{"type":"Point","coordinates":[140.36617317792,38.242027843998]},"properties":{"Name":"第一中学校（グラウンド）","Jusho":"山形県山形市松波３-１-１５","kouzui":"×","gake":"×","takashio":"×","jishin":"○","tsunami":"×","kaji":"×","naisui":"×","kazan":"×"}}
,{"type":"Feature","geometry":{"type":"Point","coordinates":[140.30799644423,38.262163941082]},"properties":{"Name":"第二中学校（体育館）","Jusho":"山形県山形市西崎６２","kouzui":"○","gake":"○","takashio":"×","jishin":"○","tsunami":"×","kaji":"×","naisui":"×","kazan":"○"}}
,{"type":"Feature","geometry":{"type":"Point","coordinates":[140.30851679278,38.261603734524]},"properties":{"Name":"第二中学校（グラウンド）","Jusho":"山形県山形市西崎６２","kouzui":"×","gake":"×","takashio":"×","jishin":"○","tsunami":"×","kaji":"×","naisui":"×","kazan":"×"}}
,{"type":"Feature","geometry":{"type":"Point","coordinates":[140.32158642755,38.249446147824]},"properties":{"Name":"第三中学校（体育館）","Jusho":"山形県山形市双葉町２-１-１０","kouzui":"○","gake":"○","takashio":"×","jishin":"○","tsunami":"×","kaji":"×","naisui":"×","kazan":"○"}}
,{"type":"Feature","geometry":{"type":"Point","coordinates":[140.32201558099,38.24987163942]},"properties":{"Name":"第三中学校（グラウンド）","Jusho":"山形県山形市双葉町２-１-１０","kouzui":"×","gake":"×","takashio":"×","jishin":"○","tsunami":"×","kaji":"×","naisui":"×","kazan":"×"}}
,{"type":"Feature","geometry":{"type":"Point","coordinates":[140.34952507852,38.273658180041]},"properties":{"Name":"第四中学校（体育館）","Jusho":"山形県山形市花楯２-１０-４８","kouzui":"○","gake":"○","takashio":"×","jishin":"○","tsunami":"×","kaji":"×","naisui":"×","kazan":"○"}}
,{"type":"Feature","geometry":{"type":"Point","coordinates":[140.35002396941,38.274230927724]},"properties":{"Name":"第四中学校（グラウンド）","Jusho":"山形県山形市花楯２-１０-４８","kouzui":"×","gake":"×","takashio":"×","jishin":"○","tsunami":"×","kaji":"×","naisui":"×","kazan":"×"}}
,{"type":"Feature","geometry":{"type":"Point","coordinates":[140.34328534119,38.263440107098]},"properties":{"Name":"第五中学校（体育館）","Jusho":"山形県山形市薬師町１-１４-１０","kouzui":"○","gake":"○","takashio":"×","jishin":"○","tsunami":"×","kaji":"×","naisui":"×","kazan":"○"}}
,{"type":"Feature","geometry":{"type":"Point","coordinates":[140.34296347611,38.263002058906]},"properties":{"Name":"第五中学校（グラウンド）","Jusho":"山形県山形市薬師町１-１４-１０","kouzui":"×","gake":"×","takashio":"×","jishin":"○","tsunami":"×","kaji":"×","naisui":"×","kazan":"×"}}
,{"type":"Feature","geometry":{"type":"Point","coordinates":[140.33980028149,38.236415521357]},"properties":{"Name":"第六中学校（体育館）","Jusho":"山形県山形市南原町２-３-５５","kouzui":"○","gake":"○","takashio":"×","jishin":"○","tsunami":"×","kaji":"×","naisui":"×","kazan":"○"}}
,{"type":"Feature","geometry":{"type":"Point","coordinates":[140.34056202885,38.236453443348]},"properties":{"Name":"第六中学校（グラウンド）","Jusho":"山形県山形市南原町２-３-５５","kouzui":"×","gake":"×","takashio":"×","jishin":"○","tsunami":"×","kaji":"×","naisui":"×","kazan":"×"}}
,{"type":"Feature","geometry":{"type":"Point","coordinates":[140.32720808604,38.310123013506]},"properties":{"Name":"第七中学校（体育館）","Jusho":"山形県山形市天神町２５２０","kouzui":"×","gake":"○","takashio":"×","jishin":"○","tsunami":"×","kaji":"×","naisui":"×","kazan":"○"}}
,{"type":"Feature","geometry":{"type":"Point","coordinates":[140.32676283935,38.309500037237]},"properties":{"Name":"第七中学校（グラウンド）","Jusho":"山形県山形市天神町２５２０","kouzui":"×","gake":"×","takashio":"×","jishin":"○","tsunami":"×","kaji":"×","naisui":"×","kazan":"×"}}
,{"type":"Feature","geometry":{"type":"Point","coordinates":[140.26739744817,38.249664488577]},"properties":{"Name":"第八中学校（体育館）","Jusho":"山形県山形市大字村木沢字河原田１６２０-２","kouzui":"○","gake":"○","takashio":"×","jishin":"○","tsunami":"×","kaji":"×","naisui":"×","kazan":"○"}}
,{"type":"Feature","geometry":{"type":"Point","coordinates":[140.268062636,38.249133675383]},"properties":{"Name":"第八中学校（グラウンド）","Jusho":"山形県山形市大字村木沢字河原田１６２０-２","kouzui":"×","gake":"×","takashio":"×","jishin":"○","tsunami":"×","kaji":"×","naisui":"×","kazan":"×"}}
,{"type":"Feature","geometry":{"type":"Point","coordinates":[140.29795277891,38.209830424046]},"properties":{"Name":"第九中学校（体育館）","Jusho":"山形県山形市大字津金沢字中谷地６５７","kouzui":"○","gake":"○","takashio":"×","jishin":"○","tsunami":"×","kaji":"×","naisui":"×","kazan":"○"}}
,{"type":"Feature","geometry":{"type":"Point","coordinates":[140.29723394689,38.209088563431]},"properties":{"Name":"第九中学校（グラウンド）","Jusho":"山形県山形市大字津金沢字中谷地６５７","kouzui":"×","gake":"×","takashio":"×","jishin":"○","tsunami":"×","kaji":"×","naisui":"×","kazan":"×"}}
,{"type":"Feature","geometry":{"type":"Point","coordinates":[140.30930379959,38.22735516877]},"properties":{"Name":"第十中学校（体育館）","Jusho":"山形県山形市若宮１-１０-１２","kouzui":"○","gake":"○","takashio":"×","jishin":"○","tsunami":"×","kaji":"×","naisui":"×","kazan":"○"}}
,{"type":"Feature","geometry":{"type":"Point","coordinates":[140.3099046144,38.227835572367]},"properties":{"Name":"第十中学校（グラウンド）","Jusho":"山形県山形市若宮１-１０-１２","kouzui":"×","gake":"×","takashio":"×","jishin":"○","tsunami":"×","kaji":"×","naisui":"×","kazan":"×"}}
,{"type":"Feature","geometry":{"type":"Point","coordinates":[140.30409455065,38.279749723409]},"properties":{"Name":"金井中学校（体育館）","Jusho":"山形県山形市陣場３-１２-２５","kouzui":"○","gake":"○","takashio":"×","jishin":"○","tsunami":"×","kaji":"×","naisui":"×","kazan":"○"}}
,{"type":"Feature","geometry":{"type":"Point","coordinates":[140.30305385356,38.27982131111]},"properties":{"Name":"金井中学校（グラウンド）","Jusho":"山形県山形市陣場３-１２-２５","kouzui":"×","gake":"×","takashio":"×","jishin":"○","tsunami":"×","kaji":"×","naisui":"×","kazan":"×"}}
,{"type":"Feature","geometry":{"type":"Point","coordinates":[140.38209348064,38.302722264138]},"properties":{"Name":"高楯中学校（体育館）","Jusho":"山形県山形市大字中里３８","kouzui":"○","gake":"○","takashio":"×","jishin":"○","tsunami":"×","kaji":"×","naisui":"×","kazan":"○"}}
,{"type":"Feature","geometry":{"type":"Point","coordinates":[140.38116543632,38.30293274936]},"properties":{"Name":"高楯中学校（グラウンド）","Jusho":"山形県山形市大字中里３８","kouzui":"×","gake":"×","takashio":"×","jishin":"○","tsunami":"×","kaji":"×","naisui":"×","kazan":"×"}}
,{"type":"Feature","geometry":{"type":"Point","coordinates":[140.31597967528,38.196465694804]},"properties":{"Name":"蔵王第一中学校（体育館）","Jusho":"山形県山形市蔵王南成沢３４","kouzui":"○","gake":"○","takashio":"×","jishin":"○","tsunami":"×","kaji":"×","naisui":"×","kazan":"○"}}
,{"type":"Feature","geometry":{"type":"Point","coordinates":[140.31663413428,38.197144446632]},"properties":{"Name":"蔵王第一中学校（グラウンド）","Jusho":"山形県山形市蔵王南成沢３４","kouzui":"×","gake":"×","takashio":"×","jishin":"○","tsunami":"×","kaji":"×","naisui":"×","kazan":"×"}}
,{"type":"Feature","geometry":{"type":"Point","coordinates":[140.31098159739,38.250600260316]},"properties":{"Name":"商業高等学校（体育館）","Jusho":"山形県山形市あかねケ丘１-９-１","kouzui":"○","gake":"○","takashio":"×","jishin":"○","tsunami":"×","kaji":"×","naisui":"×","kazan":"○"}}
,{"type":"Feature","geometry":{"type":"Point","coordinates":[140.3119364638,38.249534430923]},"properties":{"Name":"商業高等学校（グラウンド）","Jusho":"山形県山形市あかねケ丘１-９-１","kouzui":"×","gake":"×","takashio":"×","jishin":"○","tsunami":"×","kaji":"×","naisui":"×","kazan":"×"}}
,{"type":"Feature","geometry":{"type":"Point","coordinates":[140.23208025524,38.235977665732]},"properties":{"Name":"元双葉小学校（体育館）","Jusho":"山形県山形市大字門伝字荻の窪２８３６","kouzui":"○","gake":"○","takashio":"×","jishin":"○","tsunami":"×","kaji":"×","naisui":"×","kazan":"○"}}
,{"type":"Feature","geometry":{"type":"Point","coordinates":[140.23184958527,38.235429898143]},"properties":{"Name":"元双葉小学校（グラウンド）","Jusho":"山形県山形市大字門伝字荻の窪２８３６","kouzui":"×","gake":"×","takashio":"×","jishin":"○","tsunami":"×","kaji":"×","naisui":"×","kazan":"×"}}
,{"type":"Feature","geometry":{"type":"Point","coordinates":[140.34116886179,38.240526238971]},"properties":{"Name":"南部体育館","Jusho":"山形県山形市小荷駄町７-１１０","kouzui":"○","gake":"○","takashio":"×","jishin":"○","tsunami":"×","kaji":"×","naisui":"×","kazan":"○"}}
,{"type":"Feature","geometry":{"type":"Point","coordinates":[140.39527832999,38.169636661775]},"properties":{"Name":"蔵王体育館","Jusho":"山形県山形市蔵王温泉字上ノ代１０３","kouzui":"○","gake":"×","takashio":"×","jishin":"○","tsunami":"×","kaji":"×","naisui":"×","kazan":"○"}}
,{"type":"Feature","geometry":{"type":"Point","coordinates":[140.32274469198,38.268396522834]},"properties":{"Name":"江南体育館","Jusho":"山形県山形市江南１-１-２７","kouzui":"○","gake":"○","takashio":"×","jishin":"○","tsunami":"×","kaji":"×","naisui":"×","kazan":"○"}}
,{"type":"Feature","geometry":{"type":"Point","coordinates":[140.35159317373,38.249955396466]},"properties":{"Name":"福祉体育館","Jusho":"山形県山形市小白川町２-３-３３","kouzui":"○","gake":"○","takashio":"×","jishin":"○","tsunami":"×","kaji":"×","naisui":"×","kazan":"○"}}
,{"type":"Feature","geometry":{"type":"Point","coordinates":[140.34657765537,38.257903153296]},"properties":{"Name":"山形東高等学校（体育館）","Jusho":"山形県山形市緑町１-５-８７","kouzui":"○","gake":"○","takashio":"×","jishin":"○","tsunami":"×","kaji":"×","naisui":"×","kazan":"○"}}
,{"type":"Feature","geometry":{"type":"Point","coordinates":[140.3456925264,38.25841705332]},"properties":{"Name":"山形東高等学校（グラウンド）","Jusho":"山形県山形市緑町１-５-８７","kouzui":"×","gake":"×","takashio":"×","jishin":"○","tsunami":"×","kaji":"×","naisui":"×","kazan":"×"}}
,{"type":"Feature","geometry":{"type":"Point","coordinates":[140.32845535132,38.237569587304]},"properties":{"Name":"山形西高等学校（体育館）","Jusho":"山形県山形市鉄砲町１-１５-６４","kouzui":"○","gake":"○","takashio":"×","jishin":"○","tsunami":"×","kaji":"×","naisui":"×","kazan":"○"}}
,{"type":"Feature","geometry":{"type":"Point","coordinates":[140.32777407023,38.237131383156]},"properties":{"Name":"山形西高等学校（グラウンド）","Jusho":"山形県山形市鉄砲町１-１５-６４","kouzui":"×","gake":"×","takashio":"×","jishin":"○","tsunami":"×","kaji":"×","naisui":"×","kazan":"×"}}
,{"type":"Feature","geometry":{"type":"Point","coordinates":[140.34709724284,38.240917877417]},"properties":{"Name":"山形南高等学校（体育館）","Jusho":"山形県山形市東原町４-６-１６","kouzui":"○","gake":"○","takashio":"×","jishin":"○","tsunami":"×","kaji":"×","naisui":"×","kazan":"○"}}
,{"type":"Feature","geometry":{"type":"Point","coordinates":[140.34781071044,38.24150773628]},"properties":{"Name":"山形南高等学校（グラウンド）","Jusho":"山形県山形市東原町４-６-１６","kouzui":"×","gake":"×","takashio":"×","jishin":"○","tsunami":"×","kaji":"×","naisui":"×","kazan":"×"}}
,{"type":"Feature","geometry":{"type":"Point","coordinates":[140.34949614151,38.254548578908]},"properties":{"Name":"山形北高等学校（体育館）","Jusho":"山形県山形市緑町２-２-７","kouzui":"○","gake":"○","takashio":"×","jishin":"○","tsunami":"×","kaji":"×","naisui":"×","kazan":"○"}}
,{"type":"Feature","geometry":{"type":"Point","coordinates":[140.3496731673,38.254089414452]},"properties":{"Name":"山形北高等学校（グラウンド）","Jusho":"山形県山形市緑町２-２-７","kouzui":"×","gake":"×","takashio":"×","jishin":"○","tsunami":"×","kaji":"×","naisui":"×","kazan":"×"}}
,{"type":"Feature","geometry":{"type":"Point","coordinates":[140.33523511847,38.237666315448]},"properties":{"Name":"山形中央高等学校（体育館）","Jusho":"山形県山形市鉄砲町２-１０-７３","kouzui":"○","gake":"○","takashio":"×","jishin":"○","tsunami":"×","kaji":"×","naisui":"×","kazan":"○"}}
,{"type":"Feature","geometry":{"type":"Point","coordinates":[140.33476304969,38.236924738639]},"properties":{"Name":"山形中央高等学校（グラウンド）","Jusho":"山形県山形市鉄砲町２-１０-７３","kouzui":"×","gake":"×","takashio":"×","jishin":"○","tsunami":"×","kaji":"×","naisui":"×","kazan":"×"}}
,{"type":"Feature","geometry":{"type":"Point","coordinates":[140.34881963825,38.245658326672]},"properties":{"Name":"山形大学（体育館）","Jusho":"山形県山形市小白川町１-４-１２","kouzui":"○","gake":"○","takashio":"×","jishin":"○","tsunami":"×","kaji":"×","naisui":"×","kazan":"○"}}
,{"type":"Feature","geometry":{"type":"Point","coordinates":[140.35007491207,38.2447272433]},"properties":{"Name":"山形大学（グラウンド）","Jusho":"山形県山形市小白川町１-４-１２","kouzui":"×","gake":"×","takashio":"×","jishin":"○","tsunami":"×","kaji":"×","naisui":"×","kazan":"×"}}
,{"type":"Feature","geometry":{"type":"Point","coordinates":[140.35942353715,38.24097423752]},"properties":{"Name":"山形大学附属小学校（体育館）","Jusho":"山形県山形市松波２-７-２","kouzui":"○","gake":"○","takashio":"×","jishin":"○","tsunami":"×","kaji":"×","naisui":"×","kazan":"○"}}
,{"type":"Feature","geometry":{"type":"Point","coordinates":[140.35950400342,38.240165281068]},"properties":{"Name":"山形大学附属小学校（グラウンド）","Jusho":"山形県山形市松波２-７-２","kouzui":"×","gake":"×","takashio":"×","jishin":"○","tsunami":"×","kaji":"×","naisui":"×","kazan":"×"}}
,{"type":"Feature","geometry":{"type":"Point","coordinates":[140.36019371054,38.240312088007]},"properties":{"Name":"山形大学附属中学校（体育館）","Jusho":"山形県山形市松波２-７-３","kouzui":"○","gake":"○","takashio":"×","jishin":"○","tsunami":"×","kaji":"×","naisui":"×","kazan":"○"}}
,{"type":"Feature","geometry":{"type":"Point","coordinates":[140.36100910208,38.239734859534]},"properties":{"Name":"山形大学附属中学校（グラウンド）","Jusho":"山形県山形市松波２-７-３","kouzui":"×","gake":"×","takashio":"×","jishin":"○","tsunami":"×","kaji":"×","naisui":"×","kazan":"×"}}
,{"type":"Feature","geometry":{"type":"Point","coordinates":[140.33345396861,38.245491477434]},"properties":{"Name":"第二公園","Jusho":"山形県山形市十日町４-６７４１-１","kouzui":"×","gake":"×","takashio":"×","jishin":"○","tsunami":"×","kaji":"×","naisui":"×","kazan":"×"}}
,{"type":"Feature","geometry":{"type":"Point","coordinates":[140.34654567539,38.261953371091]},"properties":{"Name":"薬師公園","Jusho":"山形県山形市薬師町２-６１６","kouzui":"×","gake":"×","takashio":"×","jishin":"○","tsunami":"×","kaji":"×","naisui":"×","kazan":"×"}}
,{"type":"Feature","geometry":{"type":"Point","coordinates":[140.3483347088,38.26075502577]},"properties":{"Name":"馬畔公園","Jusho":"山形県山形市薬師町２-３３４８","kouzui":"×","gake":"×","takashio":"×","jishin":"○","tsunami":"×","kaji":"×","naisui":"×","kazan":"×"}}
,{"type":"Feature","geometry":{"type":"Point","coordinates":[140.33760721253,38.270818018608]},"properties":{"Name":"両所宮公園","Jusho":"山形県山形市宮町３-８-２","kouzui":"×","gake":"×","takashio":"×","jishin":"○","tsunami":"×","kaji":"×","naisui":"×","kazan":"×"}}
,{"type":"Feature","geometry":{"type":"Point","coordinates":[140.33522812093,38.264869007476]},"properties":{"Name":"宮町公園","Jusho":"山形県山形市宮町１-３０３４","kouzui":"×","gake":"×","takashio":"×","jishin":"○","tsunami":"×","kaji":"×","naisui":"×","kazan":"×"}}
,{"type":"Feature","geometry":{"type":"Point","coordinates":[140.34493539937,38.24580478328]},"properties":{"Name":"もみじ公園","Jusho":"山形県山形市東原町２-２４０-３５","kouzui":"×","gake":"×","takashio":"×","jishin":"○","tsunami":"×","kaji":"×","naisui":"×","kazan":"×"}}
,{"type":"Feature","geometry":{"type":"Point","coordinates":[140.32787408371,38.25537378119]},"properties":{"Name":"霞城公園","Jusho":"山形県山形市霞城町３","kouzui":"×","gake":"×","takashio":"×","jishin":"○","tsunami":"×","kaji":"○","naisui":"×","kazan":"×"}}
,{"type":"Feature","geometry":{"type":"Point","coordinates":[140.36445476521,38.244840952398]},"properties":{"Name":"あけぼの公園","Jusho":"山形県山形市小白川町５-１０-１","kouzui":"×","gake":"×","takashio":"×","jishin":"○","tsunami":"×","kaji":"×","naisui":"×","kazan":"×"}}
,{"type":"Feature","geometry":{"type":"Point","coordinates":[140.35152195569,38.251934905656]},"properties":{"Name":"緑町公園","Jusho":"山形県山形市緑町４-１６-２","kouzui":"×","gake":"×","takashio":"×","jishin":"○","tsunami":"×","kaji":"×","naisui":"×","kazan":"×"}}
,{"type":"Feature","geometry":{"type":"Point","coordinates":[140.35288788991,38.246078347023]},"properties":{"Name":"あこや公園","Jusho":"山形県山形市小白川町１-７-１","kouzui":"×","gake":"×","takashio":"×","jishin":"○","tsunami":"×","kaji":"×","naisui":"×","kazan":"×"}}
,{"type":"Feature","geometry":{"type":"Point","coordinates":[140.3444917242,38.275278335573]},"properties":{"Name":"いずみ公園","Jusho":"山形県山形市泉町９-７","kouzui":"×","gake":"×","takashio":"×","jishin":"○","tsunami":"×","kaji":"×","naisui":"×","kazan":"×"}}
,{"type":"Feature","geometry":{"type":"Point","coordinates":[140.3458461988,38.271445520267]},"properties":{"Name":"いずみひばり公園","Jusho":"山形県山形市泉町２４-５","kouzui":"×","gake":"×","takashio":"×","jishin":"○","tsunami":"×","kaji":"×","naisui":"×","kazan":"×"}}
,{"type":"Feature","geometry":{"type":"Point","coordinates":[140.34094605614,38.294634006901]},"properties":{"Name":"長町熊野公園","Jusho":"山形県山形市長町３-１３-３","kouzui":"×","gake":"×","takashio":"×","jishin":"○","tsunami":"×","kaji":"×","naisui":"×","kazan":"×"}}
,{"type":"Feature","geometry":{"type":"Point","coordinates":[140.32836644736,38.269053398709]},"properties":{"Name":"天狗橋公園","Jusho":"山形県山形市北町２-１３","kouzui":"×","gake":"×","takashio":"×","jishin":"○","tsunami":"×","kaji":"×","naisui":"×","kazan":"×"}}
,{"type":"Feature","geometry":{"type":"Point","coordinates":[140.33225753932,38.267904205381]},"properties":{"Name":"北町公園","Jusho":"山形県山形市北町１-２３","kouzui":"×","gake":"×","takashio":"×","jishin":"○","tsunami":"×","kaji":"×","naisui":"×","kazan":"×"}}
,{"type":"Feature","geometry":{"type":"Point","coordinates":[140.33206412975,38.272200145754]},"properties":{"Name":"柳橋公園","Jusho":"山形県山形市北町４-１-２","kouzui":"×","gake":"×","takashio":"×","jishin":"○","tsunami":"×","kaji":"×","naisui":"×","kazan":"×"}}
,{"type":"Feature","geometry":{"type":"Point","coordinates":[140.32707952869,38.273499785062]},"properties":{"Name":"西柳公園","Jusho":"山形県山形市北町３-１０-１２","kouzui":"×","gake":"×","takashio":"×","jishin":"○","tsunami":"×","kaji":"×","naisui":"×","kazan":"×"}}
,{"type":"Feature","geometry":{"type":"Point","coordinates":[140.32855109935,38.267722252756]},"properties":{"Name":"皆川公園","Jusho":"山形県山形市北山形２-６-１","kouzui":"×","gake":"×","takashio":"×","jishin":"○","tsunami":"×","kaji":"×","naisui":"×","kazan":"×"}}
,{"type":"Feature","geometry":{"type":"Point","coordinates":[140.32789169637,38.268274236752]},"properties":{"Name":"安堵橋公園","Jusho":"山形県山形市北町２-８","kouzui":"×","gake":"×","takashio":"×","jishin":"○","tsunami":"×","kaji":"×","naisui":"×","kazan":"×"}}
,{"type":"Feature","geometry":{"type":"Point","coordinates":[140.34077337705,38.270811648628]},"properties":{"Name":"新銅町公園","Jusho":"山形県山形市銅町２-１０-８","kouzui":"×","gake":"×","takashio":"×","jishin":"○","tsunami":"×","kaji":"×","naisui":"×","kazan":"×"}}
,{"type":"Feature","geometry":{"type":"Point","coordinates":[140.35628306404,38.244975561826]},"properties":{"Name":"こだま公園","Jusho":"山形県山形市小白川町４-２８-１","kouzui":"×","gake":"×","takashio":"×","jishin":"○","tsunami":"×","kaji":"×","naisui":"×","kazan":"×"}}
,{"type":"Feature","geometry":{"type":"Point","coordinates":[140.35477251994,38.244285198815]},"properties":{"Name":"小白川南公園","Jusho":"山形県山形市小白川町４-２５-１","kouzui":"×","gake":"×","takashio":"×","jishin":"○","tsunami":"×","kaji":"×","naisui":"×","kazan":"×"}}
,{"type":"Feature","geometry":{"type":"Point","coordinates":[140.31805163129,38.244942190797]},"properties":{"Name":"上町公園","Jusho":"山形県山形市上町２-４-３","kouzui":"×","gake":"×","takashio":"×","jishin":"○","tsunami":"×","kaji":"×","naisui":"×","kazan":"×"}}
,{"type":"Feature","geometry":{"type":"Point","coordinates":[140.31945484139,38.253853025831]},"properties":{"Name":"白鳩公園","Jusho":"山形県山形市春日町６３-１","kouzui":"×","gake":"×","takashio":"×","jishin":"○","tsunami":"×","kaji":"×","naisui":"×","kazan":"×"}}
,{"type":"Feature","geometry":{"type":"Point","coordinates":[140.35437627553,38.265116890849]},"properties":{"Name":"神明公園","Jusho":"山形県山形市印役町２-８７３-６","kouzui":"×","gake":"×","takashio":"×","jishin":"○","tsunami":"×","kaji":"×","naisui":"×","kazan":"×"}}
,{"type":"Feature","geometry":{"type":"Point","coordinates":[140.32284135093,38.244524957063]},"properties":{"Name":"五日町公園","Jusho":"山形県山形市五日町１８-１８","kouzui":"×","gake":"×","takashio":"×","jishin":"○","tsunami":"×","kaji":"×","naisui":"×","kazan":"×"}}
,{"type":"Feature","geometry":{"type":"Point","coordinates":[140.32128102755,38.247493633961]},"properties":{"Name":"双葉公園","Jusho":"山形県山形市双葉町２-３２-８","kouzui":"×","gake":"×","takashio":"×","jishin":"○","tsunami":"×","kaji":"×","naisui":"×","kazan":"×"}}
,{"type":"Feature","geometry":{"type":"Point","coordinates":[140.31937973953,38.252201689445]},"properties":{"Name":"春日公園","Jusho":"山形県山形市春日町４７-１１","kouzui":"×","gake":"×","takashio":"×","jishin":"○","tsunami":"×","kaji":"×","naisui":"×","kazan":"×"}}
,{"type":"Feature","geometry":{"type":"Point","coordinates":[140.32346617512,38.264637224408]},"properties":{"Name":"西部南公園","Jusho":"山形県山形市下条町２-６-１","kouzui":"×","gake":"×","takashio":"×","jishin":"○","tsunami":"×","kaji":"×","naisui":"×","kazan":"×"}}
,{"type":"Feature","geometry":{"type":"Point","coordinates":[140.34214130365,38.273144816332]},"properties":{"Name":"あかしや公園","Jusho":"山形県山形市銅町２-１０-８","kouzui":"×","gake":"×","takashio":"×","jishin":"○","tsunami":"×","kaji":"×","naisui":"×","kazan":"×"}}
,{"type":"Feature","geometry":{"type":"Point","coordinates":[140.32727818782,38.260956905148]},"properties":{"Name":"みつばち公園","Jusho":"山形県山形市城北町２-４８０","kouzui":"×","gake":"×","takashio":"×","jishin":"○","tsunami":"×","kaji":"×","naisui":"×","kazan":"×"}}
,{"type":"Feature","geometry":{"type":"Point","coordinates":[140.35031160526,38.239980959137]},"properties":{"Name":"名取公園","Jusho":"山形県山形市あこや町１-１４-１","kouzui":"×","gake":"×","takashio":"×","jishin":"○","tsunami":"×","kaji":"×","naisui":"×","kazan":"×"}}
,{"type":"Feature","geometry":{"type":"Point","coordinates":[140.36857761462,38.246111747465]},"properties":{"Name":"かじか公園","Jusho":"山形県山形市小白川町５-１９-９","kouzui":"×","gake":"×","takashio":"×","jishin":"○","tsunami":"×","kaji":"×","naisui":"×","kazan":"×"}}
,{"type":"Feature","geometry":{"type":"Point","coordinates":[140.35151020676,38.243844978333]},"properties":{"Name":"千歳が丘公園","Jusho":"山形県山形市小白川町１-１４-１","kouzui":"×","gake":"×","takashio":"×","jishin":"○","tsunami":"×","kaji":"×","naisui":"×","kazan":"×"}}
,{"type":"Feature","geometry":{"type":"Point","coordinates":[140.32344559337,38.251969862578]},"properties":{"Name":"城南公園","Jusho":"山形県山形市城南町３-１５１","kouzui":"×","gake":"×","takashio":"×","jishin":"○","tsunami":"×","kaji":"×","naisui":"×","kazan":"×"}}
,{"type":"Feature","geometry":{"type":"Point","coordinates":[140.35609617134,38.248250348864]},"properties":{"Name":"天満公園","Jusho":"山形県山形市小白川町３-３-２６","kouzui":"×","gake":"×","takashio":"×","jishin":"○","tsunami":"×","kaji":"×","naisui":"×","kazan":"×"}}
,{"type":"Feature","geometry":{"type":"Point","coordinates":[140.32700885892,38.231593615743]},"properties":{"Name":"みなみ公園","Jusho":"山形県山形市南一番町８-１","kouzui":"×","gake":"×","takashio":"×","jishin":"○","tsunami":"×","kaji":"×","naisui":"×","kazan":"×"}}
,{"type":"Feature","geometry":{"type":"Point","coordinates":[140.32137444697,38.267742910549]},"properties":{"Name":"西部北公園","Jusho":"山形県山形市下条町３-１７","kouzui":"×","gake":"×","takashio":"×","jishin":"○","tsunami":"×","kaji":"×","naisui":"×","kazan":"×"}}
,{"type":"Feature","geometry":{"type":"Point","coordinates":[140.34930245396,38.269520094745]},"properties":{"Name":"花楯公園","Jusho":"山形県山形市花楯１-２１９","kouzui":"×","gake":"×","takashio":"×","jishin":"○","tsunami":"×","kaji":"×","naisui":"×","kazan":"×"}}
,{"type":"Feature","geometry":{"type":"Point","coordinates":[140.32527135004,38.238651958499]},"properties":{"Name":"末広町公園","Jusho":"山形県山形市末広町５","kouzui":"×","gake":"×","takashio":"×","jishin":"○","tsunami":"×","kaji":"×","naisui":"×","kazan":"×"}}
,{"type":"Feature","geometry":{"type":"Point","coordinates":[140.35592674035,38.242598776921]},"properties":{"Name":"姫公園","Jusho":"山形県山形市あこや町３-３９-７","kouzui":"×","gake":"×","takashio":"×","jishin":"○","tsunami":"×","kaji":"×","naisui":"×","kazan":"×"}}
,{"type":"Feature","geometry":{"type":"Point","coordinates":[140.3544634649,38.239888231869]},"properties":{"Name":"太郎公園","Jusho":"山形県山形市あこや町３-４６-５","kouzui":"×","gake":"×","takashio":"×","jishin":"○","tsunami":"×","kaji":"×","naisui":"×","kazan":"×"}}
,{"type":"Feature","geometry":{"type":"Point","coordinates":[140.33745578035,38.236443279292]},"properties":{"Name":"寿町公園","Jusho":"山形県山形市寿町１０８-５","kouzui":"×","gake":"×","takashio":"×","jishin":"○","tsunami":"×","kaji":"×","naisui":"×","kazan":"×"}}
,{"type":"Feature","geometry":{"type":"Point","coordinates":[140.3187633303,38.26631643261]},"properties":{"Name":"行西公園","Jusho":"山形県山形市西田４-１６-１","kouzui":"×","gake":"×","takashio":"×","jishin":"○","tsunami":"×","kaji":"×","naisui":"×","kazan":"×"}}
,{"type":"Feature","geometry":{"type":"Point","coordinates":[140.30731718909,38.19788233929]},"properties":{"Name":"南山形公園","Jusho":"山形県山形市南松原２-４-４","kouzui":"×","gake":"×","takashio":"×","jishin":"○","tsunami":"×","kaji":"×","naisui":"×","kazan":"×"}}
,{"type":"Feature","geometry":{"type":"Point","coordinates":[140.36023632725,38.244396933647]},"properties":{"Name":"十二柳公園","Jusho":"山形県山形市小白川町４-８９","kouzui":"×","gake":"×","takashio":"×","jishin":"○","tsunami":"×","kaji":"×","naisui":"×","kazan":"×"}}
,{"type":"Feature","geometry":{"type":"Point","coordinates":[140.36083904575,38.246943021672]},"properties":{"Name":"小白川地蔵公園","Jusho":"山形県山形市小白川町３-９-１","kouzui":"×","gake":"×","takashio":"×","jishin":"○","tsunami":"×","kaji":"×","naisui":"×","kazan":"×"}}
,{"type":"Feature","geometry":{"type":"Point","coordinates":[140.33872234397,38.283825997454]},"properties":{"Name":"上河原公園","Jusho":"山形県山形市長町１-２３１１","kouzui":"×","gake":"×","takashio":"×","jishin":"○","tsunami":"×","kaji":"×","naisui":"×","kazan":"×"}}
,{"type":"Feature","geometry":{"type":"Point","coordinates":[140.3334968238,38.268741789328]},"properties":{"Name":"なかよし公園","Jusho":"山形県山形市宮町２-３０３８","kouzui":"×","gake":"×","takashio":"×","jishin":"○","tsunami":"×","kaji":"×","naisui":"×","kazan":"×"}}
,{"type":"Feature","geometry":{"type":"Point","coordinates":[140.33000019656,38.249026796717]},"properties":{"Name":"駅前公園","Jusho":"山形県山形市香澄町１-１２-１","kouzui":"×","gake":"×","takashio":"×","jishin":"○","tsunami":"×","kaji":"×","naisui":"×","kazan":"×"}}
,{"type":"Feature","geometry":{"type":"Point","coordinates":[140.32869417045,38.247206701394]},"properties":{"Name":"かすみ公園","Jusho":"山形県山形市幸町４-１","kouzui":"×","gake":"×","takashio":"×","jishin":"○","tsunami":"×","kaji":"×","naisui":"×","kazan":"×"}}
,{"type":"Feature","geometry":{"type":"Point","coordinates":[140.31986660936,38.269398719814]},"properties":{"Name":"清水町公園","Jusho":"山形県山形市江南１-４３３","kouzui":"×","gake":"×","takashio":"×","jishin":"○","tsunami":"×","kaji":"×","naisui":"×","kazan":"×"}}
,{"type":"Feature","geometry":{"type":"Point","coordinates":[140.31825664783,38.257916119215]},"properties":{"Name":"螢ケ丘公園","Jusho":"山形県山形市城西町３-４９","kouzui":"×","gake":"×","takashio":"×","jishin":"○","tsunami":"×","kaji":"×","naisui":"×","kazan":"×"}}
,{"type":"Feature","geometry":{"type":"Point","coordinates":[140.33275324775,38.250994783023]},"properties":{"Name":"さくら木公園","Jusho":"山形県山形市木の実町７-１２","kouzui":"×","gake":"×","takashio":"×","jishin":"○","tsunami":"×","kaji":"×","naisui":"×","kazan":"×"}}
,{"type":"Feature","geometry":{"type":"Point","coordinates":[140.36444720195,38.243547737774]},"properties":{"Name":"おおはぐろ公園","Jusho":"山形県山形市あさひ町１００-１","kouzui":"×","gake":"×","takashio":"×","jishin":"○","tsunami":"×","kaji":"×","naisui":"×","kazan":"×"}}
,{"type":"Feature","geometry":{"type":"Point","coordinates":[140.32112011986,38.262872320393]},"properties":{"Name":"つきやま公園","Jusho":"山形県山形市下条町２-４０","kouzui":"×","gake":"×","takashio":"×","jishin":"○","tsunami":"×","kaji":"×","naisui":"×","kazan":"×"}}
,{"type":"Feature","geometry":{"type":"Point","coordinates":[140.33925751661,38.281371607194]},"properties":{"Name":"刈田公園","Jusho":"山形県山形市千歳１-２６４９","kouzui":"×","gake":"×","takashio":"×","jishin":"○","tsunami":"×","kaji":"×","naisui":"×","kazan":"×"}}
,{"type":"Feature","geometry":{"type":"Point","coordinates":[140.33587376256,38.233182463426]},"properties":{"Name":"荒楯中央公園","Jusho":"山形県山形市荒楯町１-６-１","kouzui":"×","gake":"×","takashio":"×","jishin":"○","tsunami":"×","kaji":"×","naisui":"×","kazan":"×"}}
,{"type":"Feature","geometry":{"type":"Point","coordinates":[140.31108271633,38.248472614721]},"properties":{"Name":"あかねヶ丘公園","Jusho":"山形県山形市あかねケ丘１-１４-１","kouzui":"×","gake":"×","takashio":"×","jishin":"○","tsunami":"×","kaji":"×","naisui":"×","kazan":"×"}}
,{"type":"Feature","geometry":{"type":"Point","coordinates":[140.36019972052,38.291655175072]},"properties":{"Name":"流通東公園","Jusho":"山形県山形市流通センター４-２-５","kouzui":"×","gake":"×","takashio":"×","jishin":"○","tsunami":"×","kaji":"×","naisui":"×","kazan":"×"}}
,{"type":"Feature","geometry":{"type":"Point","coordinates":[140.35303916827,38.294702945055]},"properties":{"Name":"流通西公園","Jusho":"山形県山形市下柳２４","kouzui":"×","gake":"×","takashio":"×","jishin":"○","tsunami":"×","kaji":"×","naisui":"×","kazan":"×"}}
,{"type":"Feature","geometry":{"type":"Point","coordinates":[140.35487192618,38.289145205901]},"properties":{"Name":"流通南公園","Jusho":"山形県山形市流通センター２-２-１","kouzui":"×","gake":"×","takashio":"×","jishin":"○","tsunami":"×","kaji":"×","naisui":"×","kazan":"×"}}
,{"type":"Feature","geometry":{"type":"Point","coordinates":[140.33658939448,38.239791955096]},"properties":{"Name":"つくし公園","Jusho":"山形県山形市あずま町２３-２","kouzui":"×","gake":"×","takashio":"×","jishin":"○","tsunami":"×","kaji":"×","naisui":"×","kazan":"×"}}
,{"type":"Feature","geometry":{"type":"Point","coordinates":[140.33602681624,38.218562080432]},"properties":{"Name":"さくら公園","Jusho":"山形県山形市中桜田２-８-１","kouzui":"×","gake":"×","takashio":"×","jishin":"○","tsunami":"×","kaji":"×","naisui":"×","kazan":"×"}}
,{"type":"Feature","geometry":{"type":"Point","coordinates":[140.31633161724,38.250830797895]},"properties":{"Name":"久保田公園","Jusho":"山形県山形市久保田２-３-１","kouzui":"×","gake":"×","takashio":"×","jishin":"○","tsunami":"×","kaji":"×","naisui":"×","kazan":"×"}}
,{"type":"Feature","geometry":{"type":"Point","coordinates":[140.31260679143,38.259431135635]},"properties":{"Name":"砂塚公園","Jusho":"山形県山形市城西町５-４９-１","kouzui":"×","gake":"×","takashio":"×","jishin":"○","tsunami":"×","kaji":"×","naisui":"×","kazan":"×"}}
,{"type":"Feature","geometry":{"type":"Point","coordinates":[140.36437505893,38.238326351621]},"properties":{"Name":"かもしか公園","Jusho":"山形県山形市松波４-４","kouzui":"×","gake":"×","takashio":"×","jishin":"○","tsunami":"×","kaji":"×","naisui":"×","kazan":"×"}}
,{"type":"Feature","geometry":{"type":"Point","coordinates":[140.31948593831,38.268338495057]},"properties":{"Name":"西田公園","Jusho":"山形県山形市西田４-２６-１","kouzui":"×","gake":"×","takashio":"×","jishin":"○","tsunami":"×","kaji":"×","naisui":"×","kazan":"×"}}
,{"type":"Feature","geometry":{"type":"Point","coordinates":[140.31755138291,38.238241862195]},"properties":{"Name":"篭田中央公園","Jusho":"山形県山形市篭田３-４-１","kouzui":"×","gake":"×","takashio":"×","jishin":"○","tsunami":"×","kaji":"×","naisui":"×","kazan":"×"}}
,{"type":"Feature","geometry":{"type":"Point","coordinates":[140.33155575334,38.232696166895]},"properties":{"Name":"荒楯西公園","Jusho":"山形県山形市荒楯町１-１６-１","kouzui":"×","gake":"×","takashio":"×","jishin":"○","tsunami":"×","kaji":"×","naisui":"×","kazan":"×"}}
,{"type":"Feature","geometry":{"type":"Point","coordinates":[140.34301683246,38.233098580922]},"properties":{"Name":"南原中央公園","Jusho":"山形県山形市南原町３-１２","kouzui":"×","gake":"×","takashio":"×","jishin":"○","tsunami":"×","kaji":"×","naisui":"×","kazan":"×"}}
,{"type":"Feature","geometry":{"type":"Point","coordinates":[140.34136113581,38.247447883604]},"properties":{"Name":"小姓町公園","Jusho":"山形県山形市小姓町３９-１４","kouzui":"×","gake":"×","takashio":"×","jishin":"○","tsunami":"×","kaji":"×","naisui":"×","kazan":"×"}}
,{"type":"Feature","geometry":{"type":"Point","coordinates":[140.35900640109,38.241626080753]},"properties":{"Name":"松波公園","Jusho":"山形県山形市松波２-４-１","kouzui":"×","gake":"×","takashio":"×","jishin":"○","tsunami":"×","kaji":"×","naisui":"×","kazan":"×"}}
,{"type":"Feature","geometry":{"type":"Point","coordinates":[140.33352422049,38.226442097195]},"properties":{"Name":"若松公園","Jusho":"山形県山形市青田２-１２","kouzui":"×","gake":"×","takashio":"×","jishin":"○","tsunami":"×","kaji":"×","naisui":"×","kazan":"×"}}
,{"type":"Feature","geometry":{"type":"Point","coordinates":[140.31416467465,38.24205927097]},"properties":{"Name":"上町南公園","Jusho":"山形県山形市上町５-３-１","kouzui":"×","gake":"×","takashio":"×","jishin":"○","tsunami":"×","kaji":"×","naisui":"×","kazan":"×"}}
,{"type":"Feature","geometry":{"type":"Point","coordinates":[140.32209502482,38.230109331931]},"properties":{"Name":"八丁路公園","Jusho":"山形県山形市南栄町３-１１-１","kouzui":"×","gake":"×","takashio":"×","jishin":"○","tsunami":"×","kaji":"×","naisui":"×","kazan":"×"}}
,{"type":"Feature","geometry":{"type":"Point","coordinates":[140.34157887139,38.239925728728]},"properties":{"Name":"小荷駄町公園","Jusho":"山形県山形市小荷駄町１０","kouzui":"×","gake":"×","takashio":"×","jishin":"○","tsunami":"×","kaji":"×","naisui":"×","kazan":"×"}}
,{"type":"Feature","geometry":{"type":"Point","coordinates":[140.2807132165,38.265913604003]},"properties":{"Name":"西原公園","Jusho":"山形県山形市西原２-４-１","kouzui":"×","gake":"×","takashio":"×","jishin":"○","tsunami":"×","kaji":"×","naisui":"×","kazan":"×"}}
,{"type":"Feature","geometry":{"type":"Point","coordinates":[140.32726258306,38.220448954544]},"properties":{"Name":"南ヶ丘公園","Jusho":"山形県山形市青田南１３３-９５","kouzui":"×","gake":"×","takashio":"×","jishin":"○","tsunami":"×","kaji":"×","naisui":"×","kazan":"×"}}
,{"type":"Feature","geometry":{"type":"Point","coordinates":[140.31437323315,38.206869824237]},"properties":{"Name":"睦公園","Jusho":"山形県山形市蔵王成沢字久保田４９９-７４","kouzui":"×","gake":"×","takashio":"×","jishin":"○","tsunami":"×","kaji":"×","naisui":"×","kazan":"×"}}
,{"type":"Feature","geometry":{"type":"Point","coordinates":[140.32939617251,38.223440310784]},"properties":{"Name":"迎田公園","Jusho":"山形県山形市青田４-１４","kouzui":"×","gake":"×","takashio":"×","jishin":"○","tsunami":"×","kaji":"×","naisui":"×","kazan":"×"}}
,{"type":"Feature","geometry":{"type":"Point","coordinates":[140.31525679626,38.246263876618]},"properties":{"Name":"久保田花園公園","Jusho":"山形県山形市久保田３-９-１","kouzui":"×","gake":"×","takashio":"×","jishin":"○","tsunami":"×","kaji":"×","naisui":"×","kazan":"×"}}
,{"type":"Feature","geometry":{"type":"Point","coordinates":[140.32135878279,38.239784459002]},"properties":{"Name":"篭田東公園","Jusho":"山形県山形市篭田１-８-１","kouzui":"×","gake":"×","takashio":"×","jishin":"○","tsunami":"×","kaji":"×","naisui":"×","kazan":"×"}}
,{"type":"Feature","geometry":{"type":"Point","coordinates":[140.33644875866,38.229694568747]},"properties":{"Name":"鳥居ヶ丘公園","Jusho":"山形県山形市鳥居ケ丘１２５５","kouzui":"×","gake":"×","takashio":"×","jishin":"○","tsunami":"×","kaji":"×","naisui":"×","kazan":"×"}}
,{"type":"Feature","geometry":{"type":"Point","coordinates":[140.320172747,38.260530147873]},"properties":{"Name":"しらとり公園","Jusho":"山形県山形市城西町４-１９","kouzui":"×","gake":"×","takashio":"×","jishin":"○","tsunami":"×","kaji":"×","naisui":"×","kazan":"×"}}
,{"type":"Feature","geometry":{"type":"Point","coordinates":[140.31571937519,38.277103023208]},"properties":{"Name":"江俣西公園","Jusho":"山形県山形市江俣４-１１","kouzui":"×","gake":"×","takashio":"×","jishin":"○","tsunami":"×","kaji":"×","naisui":"×","kazan":"×"}}
,{"type":"Feature","geometry":{"type":"Point","coordinates":[140.33693221223,38.293102680674]},"properties":{"Name":"西浦公園","Jusho":"山形県山形市長町４-２５３２","kouzui":"×","gake":"×","takashio":"×","jishin":"○","tsunami":"×","kaji":"×","naisui":"×","kazan":"×"}}
,{"type":"Feature","geometry":{"type":"Point","coordinates":[140.30916507935,38.241902387899]},"properties":{"Name":"ひまわり公園","Jusho":"山形県山形市あかねケ丘３-１１-１","kouzui":"×","gake":"×","takashio":"×","jishin":"○","tsunami":"×","kaji":"×","naisui":"×","kazan":"×"}}
,{"type":"Feature","geometry":{"type":"Point","coordinates":[140.3169412446,38.229751000503]},"properties":{"Name":"吉原公園","Jusho":"山形県山形市吉原１-２５","kouzui":"×","gake":"×","takashio":"×","jishin":"○","tsunami":"×","kaji":"×","naisui":"×","kazan":"×"}}
,{"type":"Feature","geometry":{"type":"Point","coordinates":[140.34496540074,38.229275117984]},"properties":{"Name":"戸神公園","Jusho":"山形県山形市小立３-５-１","kouzui":"×","gake":"×","takashio":"×","jishin":"○","tsunami":"×","kaji":"×","naisui":"×","kazan":"×"}}
,{"type":"Feature","geometry":{"type":"Point","coordinates":[140.28368505438,38.256960276754]},"properties":{"Name":"飯塚公園","Jusho":"山形県山形市飯塚町２００６","kouzui":"×","gake":"×","takashio":"×","jishin":"○","tsunami":"×","kaji":"×","naisui":"×","kazan":"×"}}
,{"type":"Feature","geometry":{"type":"Point","coordinates":[140.3385461043,38.232971344634]},"properties":{"Name":"松見公園","Jusho":"山形県山形市松見町１９-１","kouzui":"×","gake":"×","takashio":"×","jishin":"○","tsunami":"×","kaji":"×","naisui":"×","kazan":"×"}}
,{"type":"Feature","geometry":{"type":"Point","coordinates":[140.32300786303,38.278327325178]},"properties":{"Name":"江俣東公園","Jusho":"山形県山形市江俣２-８","kouzui":"×","gake":"×","takashio":"×","jishin":"○","tsunami":"×","kaji":"×","naisui":"×","kazan":"×"}}
,{"type":"Feature","geometry":{"type":"Point","coordinates":[140.33955501146,38.224202092997]},"properties":{"Name":"東青田公園","Jusho":"山形県山形市東青田２-１２","kouzui":"×","gake":"×","takashio":"×","jishin":"○","tsunami":"×","kaji":"×","naisui":"×","kazan":"×"}}
,{"type":"Feature","geometry":{"type":"Point","coordinates":[140.32455214525,38.226261557344]},"properties":{"Name":"ひようたん公園","Jusho":"山形県山形市元木１-６-１","kouzui":"×","gake":"×","takashio":"×","jishin":"○","tsunami":"×","kaji":"×","naisui":"×","kazan":"×"}}
,{"type":"Feature","geometry":{"type":"Point","coordinates":[140.34306586323,38.267290051941]},"properties":{"Name":"円応寺町公園","Jusho":"山形県山形市円応寺町１６","kouzui":"×","gake":"×","takashio":"×","jishin":"○","tsunami":"×","kaji":"×","naisui":"×","kazan":"×"}}
,{"type":"Feature","geometry":{"type":"Point","coordinates":[140.31070089777,38.251576484047]},"properties":{"Name":"あかねヶ丘北公園","Jusho":"山形県山形市あかねケ丘１-４-１","kouzui":"×","gake":"×","takashio":"×","jishin":"○","tsunami":"×","kaji":"×","naisui":"×","kazan":"×"}}
,{"type":"Feature","geometry":{"type":"Point","coordinates":[140.3208521449,38.213084791067]},"properties":{"Name":"飯田西の前公園","Jusho":"山形県山形市飯田４-１７２９","kouzui":"×","gake":"×","takashio":"×","jishin":"○","tsunami":"×","kaji":"×","naisui":"×","kazan":"×"}}
,{"type":"Feature","geometry":{"type":"Point","coordinates":[140.33228378404,38.219687207061]},"properties":{"Name":"大峰公園","Jusho":"山形県山形市中桜田１-５","kouzui":"×","gake":"×","takashio":"×","jishin":"○","tsunami":"×","kaji":"×","naisui":"×","kazan":"×"}}
,{"type":"Feature","geometry":{"type":"Point","coordinates":[140.31432036639,38.269742805639]},"properties":{"Name":"西田かえで公園","Jusho":"山形県山形市西田５-１２-３","kouzui":"×","gake":"×","takashio":"×","jishin":"○","tsunami":"×","kaji":"×","naisui":"×","kazan":"×"}}
,{"type":"Feature","geometry":{"type":"Point","coordinates":[140.31625996011,38.260686366822]},"properties":{"Name":"あさひ公園","Jusho":"山形県山形市城西町５-４９-２","kouzui":"×","gake":"×","takashio":"×","jishin":"○","tsunami":"×","kaji":"×","naisui":"×","kazan":"×"}}
,{"type":"Feature","geometry":{"type":"Point","coordinates":[140.34284881898,38.323945646193]},"properties":{"Name":"漆山さくら公園","Jusho":"山形県山形市大字漆山字下川原３３８８","kouzui":"×","gake":"×","takashio":"×","jishin":"○","tsunami":"×","kaji":"×","naisui":"×","kazan":"×"}}
,{"type":"Feature","geometry":{"type":"Point","coordinates":[140.3195479251,38.242486930672]},"properties":{"Name":"篭田北公園","Jusho":"山形県山形市上町１-１２-１","kouzui":"×","gake":"×","takashio":"×","jishin":"○","tsunami":"×","kaji":"×","naisui":"×","kazan":"×"}}
,{"type":"Feature","geometry":{"type":"Point","coordinates":[140.33999113205,38.228654856285]},"properties":{"Name":"小立公園","Jusho":"山形県山形市小立１-５-１","kouzui":"×","gake":"×","takashio":"×","jishin":"○","tsunami":"×","kaji":"×","naisui":"×","kazan":"×"}}
,{"type":"Feature","geometry":{"type":"Point","coordinates":[140.37265754941,38.240149430171]},"properties":{"Name":"こまくさ公園","Jusho":"山形県山形市東山形２-５-１","kouzui":"×","gake":"×","takashio":"×","jishin":"○","tsunami":"×","kaji":"×","naisui":"×","kazan":"×"}}
,{"type":"Feature","geometry":{"type":"Point","coordinates":[140.31958003864,38.275909746683]},"properties":{"Name":"江俣中央公園","Jusho":"山形県山形市江俣３-７","kouzui":"×","gake":"×","takashio":"×","jishin":"○","tsunami":"×","kaji":"×","naisui":"×","kazan":"×"}}
,{"type":"Feature","geometry":{"type":"Point","coordinates":[140.33808678251,38.220546156433]},"properties":{"Name":"謡光公園","Jusho":"山形県山形市東青田３-１０","kouzui":"×","gake":"×","takashio":"×","jishin":"○","tsunami":"×","kaji":"×","naisui":"×","kazan":"×"}}
,{"type":"Feature","geometry":{"type":"Point","coordinates":[140.35810889309,38.269029200802]},"properties":{"Name":"やんべ公園","Jusho":"山形県山形市鈴川町３-１０７-２","kouzui":"×","gake":"×","takashio":"×","jishin":"○","tsunami":"×","kaji":"×","naisui":"×","kazan":"×"}}
,{"type":"Feature","geometry":{"type":"Point","coordinates":[140.35603571198,38.267426569394]},"properties":{"Name":"がにがわ公園","Jusho":"山形県山形市鈴川町２-６-５","kouzui":"×","gake":"×","takashio":"×","jishin":"○","tsunami":"×","kaji":"×","naisui":"×","kazan":"×"}}
,{"type":"Feature","geometry":{"type":"Point","coordinates":[140.33563765356,38.222308238869]},"properties":{"Name":"柳田公園","Jusho":"山形県山形市東青田４-７","kouzui":"×","gake":"×","takashio":"×","jishin":"○","tsunami":"×","kaji":"×","naisui":"×","kazan":"×"}}
,{"type":"Feature","geometry":{"type":"Point","coordinates":[140.3064206046,38.280390844981]},"properties":{"Name":"陣場瀬波公園","Jusho":"山形県山形市瀬波２-９-６","kouzui":"×","gake":"×","takashio":"×","jishin":"○","tsunami":"×","kaji":"×","naisui":"×","kazan":"×"}}
,{"type":"Feature","geometry":{"type":"Point","coordinates":[140.31428393374,38.264798359561]},"properties":{"Name":"西田中央公園","Jusho":"山形県山形市西田２-１９","kouzui":"×","gake":"×","takashio":"×","jishin":"○","tsunami":"×","kaji":"×","naisui":"×","kazan":"×"}}
,{"type":"Feature","geometry":{"type":"Point","coordinates":[140.35351362288,38.236978303635]},"properties":{"Name":"松山公園","Jusho":"山形県山形市松山３-８-１","kouzui":"×","gake":"×","takashio":"×","jishin":"○","tsunami":"×","kaji":"×","naisui":"×","kazan":"×"}}
,{"type":"Feature","geometry":{"type":"Point","coordinates":[140.2889864368,38.244953344028]},"properties":{"Name":"よつば公園","Jusho":"山形県山形市大字沼木字高野内４３３-１０２","kouzui":"×","gake":"×","takashio":"×","jishin":"○","tsunami":"×","kaji":"×","naisui":"×","kazan":"×"}}
,{"type":"Feature","geometry":{"type":"Point","coordinates":[140.32863705129,38.27757911247]},"properties":{"Name":"桧葉の木公園","Jusho":"山形県山形市桧町３-１０-１","kouzui":"×","gake":"×","takashio":"×","jishin":"○","tsunami":"×","kaji":"×","naisui":"×","kazan":"×"}}
,{"type":"Feature","geometry":{"type":"Point","coordinates":[140.31568745096,38.272557025948]},"properties":{"Name":"南江俣公園","Jusho":"山形県山形市江南３-１８-４","kouzui":"×","gake":"×","takashio":"×","jishin":"○","tsunami":"×","kaji":"×","naisui":"×","kazan":"×"}}
,{"type":"Feature","geometry":{"type":"Point","coordinates":[140.34584507965,38.239319593462]},"properties":{"Name":"きたうら公園","Jusho":"山形県山形市南原町１-１１７０","kouzui":"×","gake":"×","takashio":"×","jishin":"○","tsunami":"×","kaji":"×","naisui":"×","kazan":"×"}}
,{"type":"Feature","geometry":{"type":"Point","coordinates":[140.35867098687,38.238828505886]},"properties":{"Name":"べにばな公園","Jusho":"山形県山形市松波１-１３","kouzui":"×","gake":"×","takashio":"×","jishin":"○","tsunami":"×","kaji":"×","naisui":"×","kazan":"×"}}
,{"type":"Feature","geometry":{"type":"Point","coordinates":[140.34917256639,38.236749543693]},"properties":{"Name":"前田公園","Jusho":"山形県山形市前田町８-１","kouzui":"×","gake":"×","takashio":"×","jishin":"○","tsunami":"×","kaji":"×","naisui":"×","kazan":"×"}}
,{"type":"Feature","geometry":{"type":"Point","coordinates":[140.37052430249,38.24231537823]},"properties":{"Name":"ひぐらし公園","Jusho":"山形県山形市東山形１-３-１","kouzui":"×","gake":"×","takashio":"×","jishin":"○","tsunami":"×","kaji":"×","naisui":"×","kazan":"×"}}
,{"type":"Feature","geometry":{"type":"Point","coordinates":[140.34042427178,38.266916092817]},"properties":{"Name":"宮町観音堂公園","Jusho":"山形県山形市宮町４-１６-１","kouzui":"×","gake":"×","takashio":"×","jishin":"○","tsunami":"×","kaji":"×","naisui":"×","kazan":"×"}}
,{"type":"Feature","geometry":{"type":"Point","coordinates":[140.31325258259,38.22107320857]},"properties":{"Name":"坂巻公園","Jusho":"山形県山形市桜田西３-３","kouzui":"×","gake":"×","takashio":"×","jishin":"○","tsunami":"×","kaji":"×","naisui":"×","kazan":"×"}}
,{"type":"Feature","geometry":{"type":"Point","coordinates":[140.31880131549,38.219860225298]},"properties":{"Name":"本面公園","Jusho":"山形県山形市桜田西２-２","kouzui":"×","gake":"×","takashio":"×","jishin":"○","tsunami":"×","kaji":"×","naisui":"×","kazan":"×"}}
,{"type":"Feature","geometry":{"type":"Point","coordinates":[140.32656726008,38.219138430207]},"properties":{"Name":"樋口公園","Jusho":"山形県山形市桜田東４-４","kouzui":"×","gake":"×","takashio":"×","jishin":"○","tsunami":"×","kaji":"×","naisui":"×","kazan":"×"}}
,{"type":"Feature","geometry":{"type":"Point","coordinates":[140.33470017617,38.215582909684]},"properties":{"Name":"うえのやま公園","Jusho":"山形県山形市中桜田３-４","kouzui":"×","gake":"×","takashio":"×","jishin":"○","tsunami":"×","kaji":"×","naisui":"×","kazan":"×"}}
,{"type":"Feature","geometry":{"type":"Point","coordinates":[140.32901341171,38.215995708096]},"properties":{"Name":"みずかみ第二公園","Jusho":"山形県山形市飯田２-４","kouzui":"×","gake":"×","takashio":"×","jishin":"○","tsunami":"×","kaji":"×","naisui":"×","kazan":"×"}}
,{"type":"Feature","geometry":{"type":"Point","coordinates":[140.3269119215,38.211327386689]},"properties":{"Name":"飯田公園","Jusho":"山形県山形市飯田５-１７６４","kouzui":"×","gake":"×","takashio":"×","jishin":"○","tsunami":"×","kaji":"×","naisui":"×","kazan":"×"}}
,{"type":"Feature","geometry":{"type":"Point","coordinates":[140.32174161831,38.220916429767]},"properties":{"Name":"広面公園","Jusho":"山形県山形市桜田東１-５","kouzui":"×","gake":"×","takashio":"×","jishin":"○","tsunami":"×","kaji":"×","naisui":"×","kazan":"×"}}
,{"type":"Feature","geometry":{"type":"Point","coordinates":[140.31701520505,38.222471089501]},"properties":{"Name":"中ノ目公園","Jusho":"山形県山形市元木３-６","kouzui":"×","gake":"×","takashio":"×","jishin":"○","tsunami":"×","kaji":"×","naisui":"×","kazan":"×"}}
,{"type":"Feature","geometry":{"type":"Point","coordinates":[140.34158795434,38.26217941013]},"properties":{"Name":"ふれあい公園","Jusho":"山形県山形市薬師町１-１１-１","kouzui":"×","gake":"×","takashio":"×","jishin":"○","tsunami":"×","kaji":"×","naisui":"×","kazan":"×"}}
,{"type":"Feature","geometry":{"type":"Point","coordinates":[140.32041688451,38.210813981844]},"properties":{"Name":"飯田西の前第２公園","Jusho":"山形県山形市飯田西５-１７３０","kouzui":"×","gake":"×","takashio":"×","jishin":"○","tsunami":"×","kaji":"×","naisui":"×","kazan":"×"}}
,{"type":"Feature","geometry":{"type":"Point","coordinates":[140.30858054311,38.202529299208]},"properties":{"Name":"しんなん南公園","Jusho":"山形県山形市蔵王成沢字向久保田２２２７-２","kouzui":"×","gake":"×","takashio":"×","jishin":"○","tsunami":"×","kaji":"×","naisui":"×","kazan":"×"}}
,{"type":"Feature","geometry":{"type":"Point","coordinates":[140.31698658617,38.217261045298]},"properties":{"Name":"四ッ堀公園","Jusho":"山形県山形市桜田西４-６","kouzui":"×","gake":"×","takashio":"×","jishin":"○","tsunami":"×","kaji":"×","naisui":"×","kazan":"×"}}
,{"type":"Feature","geometry":{"type":"Point","coordinates":[140.32133630442,38.224884287112]},"properties":{"Name":"元木２号公園","Jusho":"山形県山形市元木２-６-１","kouzui":"×","gake":"×","takashio":"×","jishin":"○","tsunami":"×","kaji":"×","naisui":"×","kazan":"×"}}
,{"type":"Feature","geometry":{"type":"Point","coordinates":[140.32833079459,38.282552624472]},"properties":{"Name":"沖西公園","Jusho":"山形県山形市馬見ケ崎２-１４","kouzui":"×","gake":"×","takashio":"×","jishin":"○","tsunami":"×","kaji":"×","naisui":"×","kazan":"×"}}
,{"type":"Feature","geometry":{"type":"Point","coordinates":[140.32669969458,38.284719183475]},"properties":{"Name":"樋越公園","Jusho":"山形県山形市馬見ケ崎４-１１","kouzui":"×","gake":"×","takashio":"×","jishin":"○","tsunami":"×","kaji":"×","naisui":"×","kazan":"×"}}
,{"type":"Feature","geometry":{"type":"Point","coordinates":[140.33259512059,38.27962437164]},"properties":{"Name":"土樋東公園","Jusho":"山形県山形市馬見ケ崎１-４","kouzui":"×","gake":"×","takashio":"×","jishin":"○","tsunami":"×","kaji":"×","naisui":"×","kazan":"×"}}
,{"type":"Feature","geometry":{"type":"Point","coordinates":[140.32656932599,38.280637621505]},"properties":{"Name":"土樋西公園","Jusho":"山形県山形市馬見ケ崎３-６","kouzui":"×","gake":"×","takashio":"×","jishin":"○","tsunami":"×","kaji":"×","naisui":"×","kazan":"×"}}
,{"type":"Feature","geometry":{"type":"Point","coordinates":[140.34754008202,38.228799868532]},"properties":{"Name":"平清水公園","Jusho":"山形県山形市平清水２-４-１","kouzui":"×","gake":"×","takashio":"×","jishin":"○","tsunami":"×","kaji":"×","naisui":"×","kazan":"×"}}
,{"type":"Feature","geometry":{"type":"Point","coordinates":[140.34987342632,38.227134804561]},"properties":{"Name":"福ノ神公園","Jusho":"山形県山形市小立４-１８０-１","kouzui":"×","gake":"×","takashio":"×","jishin":"○","tsunami":"×","kaji":"×","naisui":"×","kazan":"×"}}
,{"type":"Feature","geometry":{"type":"Point","coordinates":[140.30728410911,38.27674427213]},"properties":{"Name":"陣場公園","Jusho":"山形県山形市陣場２-４","kouzui":"×","gake":"×","takashio":"×","jishin":"○","tsunami":"×","kaji":"×","naisui":"×","kazan":"×"}}
,{"type":"Feature","geometry":{"type":"Point","coordinates":[140.30940482249,38.274941589435]},"properties":{"Name":"ほなみ公園","Jusho":"山形県山形市陣場南４","kouzui":"×","gake":"×","takashio":"×","jishin":"○","tsunami":"×","kaji":"×","naisui":"×","kazan":"×"}}
,{"type":"Feature","geometry":{"type":"Point","coordinates":[140.31169393772,38.197633242777]},"properties":{"Name":"蔵王美原公園","Jusho":"山形県山形市蔵王松ケ丘１-１-１７","kouzui":"×","gake":"×","takashio":"×","jishin":"○","tsunami":"×","kaji":"×","naisui":"×","kazan":"×"}}
,{"type":"Feature","geometry":{"type":"Point","coordinates":[140.29550151115,38.239158956875]},"properties":{"Name":"松栄公園","Jusho":"山形県山形市松栄１-３-７","kouzui":"×","gake":"×","takashio":"×","jishin":"○","tsunami":"×","kaji":"×","naisui":"×","kazan":"×"}}
,{"type":"Feature","geometry":{"type":"Point","coordinates":[140.35080293362,38.249529110676]},"properties":{"Name":"小白川公園","Jusho":"山形県山形市小白川町２-８６０-４","kouzui":"×","gake":"×","takashio":"×","jishin":"○","tsunami":"×","kaji":"×","naisui":"×","kazan":"×"}}
,{"type":"Feature","geometry":{"type":"Point","coordinates":[140.3090868366,38.239819924536]},"properties":{"Name":"高堂公園","Jusho":"山形県山形市高堂１-５８","kouzui":"×","gake":"×","takashio":"×","jishin":"○","tsunami":"×","kaji":"×","naisui":"×","kazan":"×"}}
,{"type":"Feature","geometry":{"type":"Point","coordinates":[140.29967213227,38.236595808767]},"properties":{"Name":"南沼原中央公園","Jusho":"山形県山形市南館西１８-１","kouzui":"×","gake":"×","takashio":"×","jishin":"○","tsunami":"×","kaji":"×","naisui":"×","kazan":"×"}}
,{"type":"Feature","geometry":{"type":"Point","coordinates":[140.31255836735,38.194850949241]},"properties":{"Name":"蔵王松ヶ丘公園","Jusho":"山形県山形市蔵王松ケ丘１-２-７","kouzui":"×","gake":"×","takashio":"×","jishin":"○","tsunami":"×","kaji":"×","naisui":"×","kazan":"×"}}
,{"type":"Feature","geometry":{"type":"Point","coordinates":[140.30657488272,38.335185952254]},"properties":{"Name":"中野目団地公園","Jusho":"山形県山形市大字中野目字赤坂１１７９-５","kouzui":"×","gake":"×","takashio":"×","jishin":"○","tsunami":"×","kaji":"×","naisui":"×","kazan":"×"}}
,{"type":"Feature","geometry":{"type":"Point","coordinates":[140.36936501004,38.275105794412]},"properties":{"Name":"高原中央公園","Jusho":"山形県山形市高原町字滝ノ沢２３９-２４１","kouzui":"×","gake":"×","takashio":"×","jishin":"○","tsunami":"×","kaji":"×","naisui":"×","kazan":"×"}}
,{"type":"Feature","geometry":{"type":"Point","coordinates":[140.31759687435,38.228485580456]},"properties":{"Name":"白山北公園","Jusho":"山形県山形市白山１-７-５","kouzui":"×","gake":"×","takashio":"×","jishin":"○","tsunami":"×","kaji":"×","naisui":"×","kazan":"×"}}
,{"type":"Feature","geometry":{"type":"Point","coordinates":[140.31674147671,38.225765128615]},"properties":{"Name":"白山南公園","Jusho":"山形県山形市白山２-５-３","kouzui":"×","gake":"×","takashio":"×","jishin":"○","tsunami":"×","kaji":"×","naisui":"×","kazan":"×"}}
,{"type":"Feature","geometry":{"type":"Point","coordinates":[140.32667033234,38.252588912295]},"properties":{"Name":"南追手前広場公園","Jusho":"山形県山形市城南町２-１５４","kouzui":"×","gake":"×","takashio":"×","jishin":"○","tsunami":"×","kaji":"×","naisui":"×","kazan":"×"}}
,{"type":"Feature","geometry":{"type":"Point","coordinates":[140.32318003154,38.247268242735]},"properties":{"Name":"三の丸稲荷口東公園","Jusho":"山形県山形市双葉町１-５０７","kouzui":"×","gake":"×","takashio":"×","jishin":"○","tsunami":"×","kaji":"×","naisui":"×","kazan":"×"}}
,{"type":"Feature","geometry":{"type":"Point","coordinates":[140.36650502179,38.262781675725]},"properties":{"Name":"鈴川公園","Jusho":"山形県山形市上山家町字沼の辺８０３","kouzui":"×","gake":"×","takashio":"×","jishin":"○","tsunami":"×","kaji":"×","naisui":"×","kazan":"×"}}
,{"type":"Feature","geometry":{"type":"Point","coordinates":[140.31298175279,38.213952207022]},"properties":{"Name":"いわざき公園","Jusho":"山形県山形市桜田南５-１","kouzui":"×","gake":"×","takashio":"×","jishin":"○","tsunami":"×","kaji":"×","naisui":"×","kazan":"×"}}
,{"type":"Feature","geometry":{"type":"Point","coordinates":[140.31438799886,38.209339903961]},"properties":{"Name":"もとだて公園","Jusho":"山形県山形市成沢西２-１０-１","kouzui":"×","gake":"×","takashio":"×","jishin":"○","tsunami":"×","kaji":"×","naisui":"×","kazan":"×"}}
,{"type":"Feature","geometry":{"type":"Point","coordinates":[140.32017904625,38.208546173886]},"properties":{"Name":"町浦公園","Jusho":"山形県山形市成沢西５-４-１４、４-１５","kouzui":"×","gake":"×","takashio":"×","jishin":"○","tsunami":"×","kaji":"×","naisui":"×","kazan":"×"}}
,{"type":"Feature","geometry":{"type":"Point","coordinates":[140.31063669402,38.230930319534]},"properties":{"Name":"吉原西公園","Jusho":"山形県山形市吉原２-２-１","kouzui":"×","gake":"×","takashio":"×","jishin":"○","tsunami":"×","kaji":"×","naisui":"×","kazan":"×"}}
,{"type":"Feature","geometry":{"type":"Point","coordinates":[140.30590248098,38.231287235379]},"properties":{"Name":"富の中公園","Jusho":"山形県山形市富の中４-６-１１","kouzui":"×","gake":"×","takashio":"×","jishin":"○","tsunami":"×","kaji":"×","naisui":"×","kazan":"×"}}
,{"type":"Feature","geometry":{"type":"Point","coordinates":[140.30624494925,38.23008079236]},"properties":{"Name":"二ッ塚公園","Jusho":"山形県山形市吉原３-９-１","kouzui":"×","gake":"×","takashio":"×","jishin":"○","tsunami":"×","kaji":"×","naisui":"×","kazan":"×"}}
,{"type":"Feature","geometry":{"type":"Point","coordinates":[140.31093745536,38.228832621479]},"properties":{"Name":"柳原公園","Jusho":"山形県山形市吉原２-１６-１","kouzui":"×","gake":"×","takashio":"×","jishin":"○","tsunami":"×","kaji":"×","naisui":"×","kazan":"×"}}
,{"type":"Feature","geometry":{"type":"Point","coordinates":[140.31473465253,38.228504869323]},"properties":{"Name":"穴田公園","Jusho":"山形県山形市吉原１-１１-１４","kouzui":"×","gake":"×","takashio":"×","jishin":"○","tsunami":"×","kaji":"×","naisui":"×","kazan":"×"}}
,{"type":"Feature","geometry":{"type":"Point","coordinates":[140.3145160991,38.225427621125]},"properties":{"Name":"三つ江公園","Jusho":"山形県山形市若宮２-４-１","kouzui":"×","gake":"×","takashio":"×","jishin":"○","tsunami":"×","kaji":"×","naisui":"×","kazan":"×"}}
,{"type":"Feature","geometry":{"type":"Point","coordinates":[140.29278680853,38.193696367395]},"properties":{"Name":"蔵王みはらしの丘２号公園","Jusho":"山形県山形市みはらしの丘１-８４","kouzui":"×","gake":"×","takashio":"×","jishin":"○","tsunami":"×","kaji":"×","naisui":"×","kazan":"×"}}
,{"type":"Feature","geometry":{"type":"Point","coordinates":[140.33488605722,38.281404218996]},"properties":{"Name":"沖東公園","Jusho":"山形県山形市馬見ケ崎１-１９","kouzui":"×","gake":"×","takashio":"×","jishin":"○","tsunami":"×","kaji":"×","naisui":"×","kazan":"×"}}
,{"type":"Feature","geometry":{"type":"Point","coordinates":[140.31572603204,38.211581941181]},"properties":{"Name":"西成沢公園","Jusho":"山形県山形市成沢西１-３-３","kouzui":"×","gake":"×","takashio":"×","jishin":"○","tsunami":"×","kaji":"×","naisui":"×","kazan":"×"}}
,{"type":"Feature","geometry":{"type":"Point","coordinates":[140.32849871137,38.251670240609]},"properties":{"Name":"城南橋公園","Jusho":"山形県山形市城南町２-１５０","kouzui":"×","gake":"×","takashio":"×","jishin":"○","tsunami":"×","kaji":"×","naisui":"×","kazan":"×"}}
,{"type":"Feature","geometry":{"type":"Point","coordinates":[140.31543087431,38.207916187064]},"properties":{"Name":"くぼた緑地","Jusho":"山形県山形市成沢西３-６-５","kouzui":"×","gake":"×","takashio":"×","jishin":"○","tsunami":"×","kaji":"×","naisui":"×","kazan":"×"}}
,{"type":"Feature","geometry":{"type":"Point","coordinates":[140.34394349958,38.224775256113]},"properties":{"Name":"青田沼公園","Jusho":"山形県山形市上桜田１-４-１","kouzui":"×","gake":"×","takashio":"×","jishin":"○","tsunami":"×","kaji":"×","naisui":"×","kazan":"×"}}
,{"type":"Feature","geometry":{"type":"Point","coordinates":[140.34589671172,38.223087314198]},"properties":{"Name":"月山公園","Jusho":"山形県山形市上桜田２-６-２５","kouzui":"×","gake":"×","takashio":"×","jishin":"○","tsunami":"×","kaji":"×","naisui":"×","kazan":"×"}}
,{"type":"Feature","geometry":{"type":"Point","coordinates":[140.31002780985,38.222335471313]},"properties":{"Name":"杜の公園","Jusho":"山形県山形市吉原南９０７-２５","kouzui":"×","gake":"×","takashio":"×","jishin":"○","tsunami":"×","kaji":"×","naisui":"×","kazan":"×"}}
,{"type":"Feature","geometry":{"type":"Point","coordinates":[140.30904069314,38.225437874325]},"properties":{"Name":"若宮公園","Jusho":"山形県山形市若宮２-１８-１","kouzui":"×","gake":"×","takashio":"×","jishin":"○","tsunami":"×","kaji":"×","naisui":"×","kazan":"×"}}
,{"type":"Feature","geometry":{"type":"Point","coordinates":[140.34077587144,38.220123499971]},"properties":{"Name":"芸工大前公園","Jusho":"山形県山形市上桜田４-５-１","kouzui":"×","gake":"×","takashio":"×","jishin":"○","tsunami":"×","kaji":"×","naisui":"×","kazan":"×"}}
,{"type":"Feature","geometry":{"type":"Point","coordinates":[140.29332056811,38.191746427491]},"properties":{"Name":"蔵王みはらしの丘３号公園","Jusho":"山形県山形市みはらしの丘２-４７","kouzui":"×","gake":"×","takashio":"×","jishin":"○","tsunami":"×","kaji":"×","naisui":"×","kazan":"×"}}
,{"type":"Feature","geometry":{"type":"Point","coordinates":[140.32189825756,38.290057590254]},"properties":{"Name":"本屋敷公園","Jusho":"山形県山形市嶋北３-８-１","kouzui":"×","gake":"×","takashio":"×","jishin":"○","tsunami":"×","kaji":"×","naisui":"×","kazan":"×"}}
,{"type":"Feature","geometry":{"type":"Point","coordinates":[140.32230759961,38.286422421208]},"properties":{"Name":"河原田公園","Jusho":"山形県山形市嶋北１-１２-６","kouzui":"×","gake":"×","takashio":"×","jishin":"○","tsunami":"×","kaji":"×","naisui":"×","kazan":"×"}}
,{"type":"Feature","geometry":{"type":"Point","coordinates":[140.31821849724,38.280846754204]},"properties":{"Name":"梅野木前公園","Jusho":"山形県山形市嶋南３-１２-１","kouzui":"×","gake":"×","takashio":"×","jishin":"○","tsunami":"×","kaji":"×","naisui":"×","kazan":"×"}}
,{"type":"Feature","geometry":{"type":"Point","coordinates":[140.31685388602,38.232943898235]},"properties":{"Name":"深町公園","Jusho":"山形県山形市深町２-６７-４","kouzui":"×","gake":"×","takashio":"×","jishin":"○","tsunami":"×","kaji":"×","naisui":"×","kazan":"×"}}
,{"type":"Feature","geometry":{"type":"Point","coordinates":[140.320556769,38.284309838533]},"properties":{"Name":"嶋公園","Jusho":"山形県山形市嶋北２-２-２","kouzui":"×","gake":"×","takashio":"×","jishin":"○","tsunami":"×","kaji":"×","naisui":"×","kazan":"×"}}
,{"type":"Feature","geometry":{"type":"Point","coordinates":[140.28930261054,38.195424368054]},"properties":{"Name":"蔵王みはらしの丘１号公園","Jusho":"山形県山形市みはらしの丘１-１１９","kouzui":"×","gake":"×","takashio":"×","jishin":"○","tsunami":"×","kaji":"×","naisui":"×","kazan":"×"}}
,{"type":"Feature","geometry":{"type":"Point","coordinates":[140.28577818789,38.188282232774]},"properties":{"Name":"蔵王みはらしの丘４号公園","Jusho":"山形県山形市みはらしの丘３-６２","kouzui":"×","gake":"×","takashio":"×","jishin":"○","tsunami":"×","kaji":"×","naisui":"×","kazan":"×"}}
,{"type":"Feature","geometry":{"type":"Point","coordinates":[140.33258809961,38.214625396109]},"properties":{"Name":"みずかみ第一公園","Jusho":"山形県山形市飯田３-２６４１","kouzui":"×","gake":"×","takashio":"×","jishin":"○","tsunami":"×","kaji":"×","naisui":"×","kazan":"×"}}
,{"type":"Feature","geometry":{"type":"Point","coordinates":[140.30226840887,38.205329021433]},"properties":{"Name":"蔵王駅西公園","Jusho":"山形県山形市大字松原地内","kouzui":"×","gake":"×","takashio":"×","jishin":"○","tsunami":"×","kaji":"×","naisui":"×","kazan":"×"}}
,{"type":"Feature","geometry":{"type":"Point","coordinates":[140.28664185919,38.246520359851]},"properties":{"Name":"沼木緑地","Jusho":"山形県山形市大字沼木字下河原１０５６-１","kouzui":"×","gake":"×","takashio":"×","jishin":"○","tsunami":"×","kaji":"×","naisui":"×","kazan":"×"}}
,{"type":"Feature","geometry":{"type":"Point","coordinates":[140.34894957457,38.312684398661]},"properties":{"Name":"漆山石田公園","Jusho":"山形県山形市大字漆山地内","kouzui":"×","gake":"×","takashio":"×","jishin":"○","tsunami":"×","kaji":"×","naisui":"×","kazan":"×"}}
,{"type":"Feature","geometry":{"type":"Point","coordinates":[140.34565269392,38.264162050641]},"properties":{"Name":"球技場","Jusho":"山形県山形市薬師町２-２２-７２","kouzui":"×","gake":"×","takashio":"×","jishin":"○","tsunami":"×","kaji":"×","naisui":"×","kazan":"×"}}
,{"type":"Feature","geometry":{"type":"Point","coordinates":[140.28859556162,38.232370204979]},"properties":{"Name":"鋳物町運動広場","Jusho":"山形県山形市鋳物町２４","kouzui":"×","gake":"×","takashio":"×","jishin":"○","tsunami":"×","kaji":"×","naisui":"×","kazan":"×"}}
,{"type":"Feature","geometry":{"type":"Point","coordinates":[140.28768580952,38.246841010623]},"properties":{"Name":"西部運動広場","Jusho":"山形県山形市大字沼木字新田９４８","kouzui":"×","gake":"×","takashio":"×","jishin":"○","tsunami":"×","kaji":"×","naisui":"×","kazan":"×"}}
,{"type":"Feature","geometry":{"type":"Point","coordinates":[140.37707756031,38.312711793115]},"properties":{"Name":"立谷川運動広場","Jusho":"山形県山形市立谷川２-９５９","kouzui":"×","gake":"×","takashio":"×","jishin":"○","tsunami":"×","kaji":"×","naisui":"×","kazan":"×"}}
,{"type":"Feature","geometry":{"type":"Point","coordinates":[140.35376149165,38.289292573193]},"properties":{"Name":"流通センター野球場","Jusho":"山形県山形市流通センター２-１","kouzui":"×","gake":"×","takashio":"×","jishin":"○","tsunami":"×","kaji":"×","naisui":"×","kazan":"×"}}
,{"type":"Feature","geometry":{"type":"Point","coordinates":[140.28569804855,38.242311706903]},"properties":{"Name":"山形広域クリーンセンター運動場","Jusho":"山形県山形市大字沼木字高野内４８６-３","kouzui":"×","gake":"×","takashio":"×","jishin":"○","tsunami":"×","kaji":"×","naisui":"×","kazan":"×"}}
,{"type":"Feature","geometry":{"type":"Point","coordinates":[140.39518857886,38.161621489607]},"properties":{"Name":"蔵王ロープウェイ蔵王山麓駅","Jusho":"山形県山形市蔵王温泉字三度川２２９-３","kouzui":"○","gake":"×","takashio":"×","jishin":"×","tsunami":"×","kaji":"×","naisui":"×","kazan":"○"}}
,{"type":"Feature","geometry":{"type":"Point","coordinates":[140.41003728798,38.151759405168]},"properties":{"Name":"蔵王ロープウェイ山麓線樹氷高原駅","Jusho":"山形県山形市蔵王温泉字横倉外５　国有林２３６林班","kouzui":"○","gake":"×","takashio":"×","jishin":"×","tsunami":"×","kaji":"×","naisui":"×","kazan":"○"}}
,{"type":"Feature","geometry":{"type":"Point","coordinates":[140.4106381028,38.151615977505]},"properties":{"Name":"蔵王ロープウェイ山頂線樹氷高原駅","Jusho":"山形県山形市蔵王温泉字横倉外５　国有林２３６林班","kouzui":"○","gake":"×","takashio":"×","jishin":"○","tsunami":"×","kaji":"×","naisui":"×","kazan":"○"}}
,{"type":"Feature","geometry":{"type":"Point","coordinates":[140.43107653548,38.154720701512]},"properties":{"Name":"蔵王ロープウェイ地蔵山頂駅","Jusho":"山形県山形市蔵王温泉字横倉外５　国有林２３６林班","kouzui":"○","gake":"×","takashio":"×","jishin":"○","tsunami":"×","kaji":"×","naisui":"×","kazan":"×"}}
,{"type":"Feature","geometry":{"type":"Point","coordinates":[140.34750963141,38.261558962589]},"properties":{"Name":"薬師公園周辺","Jusho":"山形県山形市薬師町２-６１６","kouzui":"×","gake":"×","takashio":"×","jishin":"○","tsunami":"×","kaji":"○","naisui":"×","kazan":"×"}}
,{"type":"Feature","geometry":{"type":"Point","coordinates":[140.31925986278,38.284252487241]},"properties":{"Name":"嶋遺跡公園","Jusho":"山形県山形市嶋北２-３-１","kouzui":"×","gake":"×","takashio":"×","jishin":"○","tsunami":"×","kaji":"×","naisui":"×","kazan":"×"}}
,{"type":"Feature","geometry":{"type":"Point","coordinates":[140.31555540746,38.255435263682]},"properties":{"Name":"清住公園","Jusho":"山形県山形市清住町１-３５-１","kouzui":"×","gake":"×","takashio":"×","jishin":"○","tsunami":"×","kaji":"×","naisui":"×","kazan":"×"}}
,{"type":"Feature","geometry":{"type":"Point","coordinates":[140.3471619068,38.258920391103]},"properties":{"Name":"山形工業高等学校（体育館）","Jusho":"山形県山形市緑町１-５-１２","kouzui":"○","gake":"○","takashio":"×","jishin":"○","tsunami":"×","kaji":"×","naisui":"×","kazan":"○"}}
,{"type":"Feature","geometry":{"type":"Point","coordinates":[140.28949895412,38.18847378567]},"properties":{"Name":"蔵王みはらしの丘公園","Jusho":"山形県山形市みはらしの丘２-１１５","kouzui":"×","gake":"×","takashio":"×","jishin":"○","tsunami":"×","kaji":"×","naisui":"×","kazan":"×"}}
,{"type":"Feature","geometry":{"type":"Point","coordinates":[140.34736138284,38.258195484082]},"properties":{"Name":"山形工業高等学校（グラウンド）","Jusho":"山形県山形市緑町１-５-１２","kouzui":"×","gake":"×","takashio":"×","jishin":"○","tsunami":"×","kaji":"×","naisui":"×","kazan":"×"}}
,{"type":"Feature","geometry":{"type":"Point","coordinates":[140.32463019307,38.236397654063]},"properties":{"Name":"美畑公園","Jusho":"山形県山形市美畑町６１-２","kouzui":"×","gake":"×","takashio":"×","jishin":"○","tsunami":"×","kaji":"×","naisui":"×","kazan":"×"}}
,{"type":"Feature","geometry":{"type":"Point","coordinates":[140.289096,38.180819]},"properties":{"Name":"蔵王みはらしの丘６号公園","Jusho":"山形県山形市みはらしの丘４-４５","kouzui":"×","gake":"×","takashio":"×","jishin":"○","tsunami":"×","kaji":"×","naisui":"×","kazan":"×"}}
,{"type":"Feature","geometry":{"type":"Point","coordinates":[140.334796,38.26246]},"properties":{"Name":"宮町南公園","Jusho":"山形県山形市宮町一丁目１１２-２９番","kouzui":"×","gake":"×","takashio":"×","jishin":"○","tsunami":"×","kaji":"×","naisui":"×","kazan":"×"}}
,{"type":"Feature","geometry":{"type":"Point","coordinates":[140.10668542435,37.912299209878]},"properties":{"Name":"興譲小学校","Jusho":"山形県米沢市丸の内2-1-58","kouzui":"○","gake":"○","takashio":"×","jishin":"○","tsunami":"×","kaji":"×","naisui":"×","kazan":"○"}}
,{"type":"Feature","geometry":{"type":"Point","coordinates":[140.12820841976,37.90256841602]},"properties":{"Name":"東部小学校","Jusho":"山形県米沢市東1-6-102","kouzui":"○","gake":"○","takashio":"×","jishin":"○","tsunami":"×","kaji":"×","naisui":"×","kazan":"○"}}
,{"type":"Feature","geometry":{"type":"Point","coordinates":[140.08939110456,37.915181175751]},"properties":{"Name":"西部小学校","Jusho":"山形県米沢市直江町5-34","kouzui":"○","gake":"○","takashio":"×","jishin":"○","tsunami":"×","kaji":"×","naisui":"×","kazan":"○"}}
,{"type":"Feature","geometry":{"type":"Point","coordinates":[140.10973737028,37.904144587703]},"properties":{"Name":"南部小学校","Jusho":"山形県米沢市門東町1-2-31","kouzui":"○","gake":"○","takashio":"×","jishin":"○","tsunami":"×","kaji":"×","naisui":"×","kazan":"○"}}
,{"type":"Feature","geometry":{"type":"Point","coordinates":[140.10811994369,37.9219048162]},"properties":{"Name":"北部小学校","Jusho":"山形県米沢市中央7-4-33","kouzui":"×","gake":"○","takashio":"×","jishin":"○","tsunami":"×","kaji":"×","naisui":"×","kazan":"○"}}
,{"type":"Feature","geometry":{"type":"Point","coordinates":[140.09397021457,37.904838171984]},"properties":{"Name":"愛宕小学校","Jusho":"山形県米沢市御廟3-10-1","kouzui":"○","gake":"○","takashio":"×","jishin":"○","tsunami":"×","kaji":"×","naisui":"×","kazan":"○"}}
,{"type":"Feature","geometry":{"type":"Point","coordinates":[140.16291782745,37.902295683704]},"properties":{"Name":"万世小学校","Jusho":"山形県米沢市八幡原5-3、948-4","kouzui":"○","gake":"○","takashio":"×","jishin":"○","tsunami":"×","kaji":"×","naisui":"×","kazan":"○"}}
,{"type":"Feature","geometry":{"type":"Point","coordinates":[140.06951959613,37.947838397145]},"properties":{"Name":"広幡小学校","Jusho":"山形県米沢市広幡町上小菅1、396","kouzui":"○","gake":"○","takashio":"×","jishin":"○","tsunami":"×","kaji":"×","naisui":"×","kazan":"○"}}
,{"type":"Feature","geometry":{"type":"Point","coordinates":[140.09233150769,37.962434118493]},"properties":{"Name":"六郷小学校","Jusho":"山形県米沢市六郷町一漆40-1","kouzui":"×","gake":"○","takashio":"×","jishin":"○","tsunami":"×","kaji":"×","naisui":"×","kazan":"○"}}
,{"type":"Feature","geometry":{"type":"Point","coordinates":[140.09939218387,37.934540511409]},"properties":{"Name":"塩井小学校","Jusho":"山形県米沢市塩井町塩野3、760","kouzui":"×","gake":"○","takashio":"×","jishin":"○","tsunami":"×","kaji":"×","naisui":"×","kazan":"○"}}
,{"type":"Feature","geometry":{"type":"Point","coordinates":[140.12156612905,37.958965589926]},"properties":{"Name":"窪田小学校","Jusho":"山形県米沢市窪田町窪田655-3","kouzui":"×","gake":"○","takashio":"×","jishin":"○","tsunami":"×","kaji":"×","naisui":"×","kazan":"○"}}
,{"type":"Feature","geometry":{"type":"Point","coordinates":[140.0504317164,37.888833379956]},"properties":{"Name":"三沢東部小学校","Jusho":"山形県米沢市大字簗沢3、401","kouzui":"○","gake":"○","takashio":"×","jishin":"○","tsunami":"×","kaji":"×","naisui":"×","kazan":"○"}}
,{"type":"Feature","geometry":{"type":"Point","coordinates":[140.02221131611,37.898945729589]},"properties":{"Name":"三沢西部小学校","Jusho":"山形県米沢市大字口田沢2、361-1","kouzui":"○","gake":"○","takashio":"×","jishin":"○","tsunami":"×","kaji":"×","naisui":"×","kazan":"○"}}
,{"type":"Feature","geometry":{"type":"Point","coordinates":[140.14880645875,37.864613895009]},"properties":{"Name":"元　関根小学校","Jusho":"山形県米沢市大字関根13、541","kouzui":"○","gake":"○","takashio":"×","jishin":"○","tsunami":"×","kaji":"×","naisui":"×","kazan":"○"}}
,{"type":"Feature","geometry":{"type":"Point","coordinates":[140.1478453137,37.927923653612]},"properties":{"Name":"上郷小学校","Jusho":"山形県米沢市大字竹井1、383","kouzui":"○","gake":"○","takashio":"×","jishin":"○","tsunami":"×","kaji":"×","naisui":"×","kazan":"○"}}
,{"type":"Feature","geometry":{"type":"Point","coordinates":[140.10625206708,37.872090433343]},"properties":{"Name":"南原小学校","Jusho":"山形県米沢市大字南原笹野町2、984","kouzui":"○","gake":"○","takashio":"×","jishin":"○","tsunami":"×","kaji":"×","naisui":"×","kazan":"○"}}
,{"type":"Feature","geometry":{"type":"Point","coordinates":[140.09004578637,37.847564806087]},"properties":{"Name":"元　関小学校","Jusho":"山形県米沢市大字立石2、565","kouzui":"○","gake":"○","takashio":"×","jishin":"○","tsunami":"×","kaji":"×","naisui":"×","kazan":"○"}}
,{"type":"Feature","geometry":{"type":"Point","coordinates":[140.12691510346,37.889019343053]},"properties":{"Name":"松川小学校","Jusho":"山形県米沢市通町4-10-15","kouzui":"×","gake":"○","takashio":"×","jishin":"○","tsunami":"×","kaji":"×","naisui":"×","kazan":"○"}}
,{"type":"Feature","geometry":{"type":"Point","coordinates":[140.12030150198,37.912297155037]},"properties":{"Name":"第一中学校","Jusho":"山形県米沢市駅前4-3-51","kouzui":"○","gake":"○","takashio":"×","jishin":"○","tsunami":"×","kaji":"×","naisui":"×","kazan":"○"}}
,{"type":"Feature","geometry":{"type":"Point","coordinates":[140.09951080571,37.903227598155]},"properties":{"Name":"第二中学校","Jusho":"山形県米沢市林泉寺2-2-5","kouzui":"○","gake":"○","takashio":"×","jishin":"○","tsunami":"×","kaji":"×","naisui":"×","kazan":"○"}}
,{"type":"Feature","geometry":{"type":"Point","coordinates":[140.07480899174,37.913843089714]},"properties":{"Name":"第三中学校","Jusho":"山形県米沢市舘山2-4-58","kouzui":"○","gake":"○","takashio":"×","jishin":"○","tsunami":"×","kaji":"×","naisui":"×","kazan":"○"}}
,{"type":"Feature","geometry":{"type":"Point","coordinates":[140.11633683857,37.930504759668]},"properties":{"Name":"第四中学校","Jusho":"山形県米沢市春日4-2-69","kouzui":"○","gake":"○","takashio":"×","jishin":"○","tsunami":"×","kaji":"×","naisui":"×","kazan":"○"}}
,{"type":"Feature","geometry":{"type":"Point","coordinates":[140.13799925245,37.886808260318]},"properties":{"Name":"第五中学校","Jusho":"山形県米沢市東大通1-1-82","kouzui":"○","gake":"○","takashio":"×","jishin":"○","tsunami":"×","kaji":"×","naisui":"×","kazan":"○"}}
,{"type":"Feature","geometry":{"type":"Point","coordinates":[140.09238796547,37.947989471435]},"properties":{"Name":"第六中学校","Jusho":"山形県米沢市六郷町西藤泉160","kouzui":"○","gake":"○","takashio":"×","jishin":"○","tsunami":"×","kaji":"×","naisui":"×","kazan":"○"}}
,{"type":"Feature","geometry":{"type":"Point","coordinates":[140.14676139728,37.921257914311]},"properties":{"Name":"第七中学校","Jusho":"山形県米沢市大字川井108-3","kouzui":"○","gake":"○","takashio":"×","jishin":"○","tsunami":"×","kaji":"×","naisui":"×","kazan":"○"}}
,{"type":"Feature","geometry":{"type":"Point","coordinates":[140.10288118783,37.871281515078]},"properties":{"Name":"元 南原中学校屋内運動場","Jusho":"山形県米沢市大字李山2、139","kouzui":"○","gake":"○","takashio":"×","jishin":"○","tsunami":"×","kaji":"×","naisui":"×","kazan":"○"}}
,{"type":"Feature","geometry":{"type":"Point","coordinates":[140.27425745179,37.814592373368]},"properties":{"Name":"板谷集会所","Jusho":"山形県米沢市大字板谷315","kouzui":"○","gake":"○","takashio":"×","jishin":"○","tsunami":"×","kaji":"×","naisui":"×","kazan":"×"}}
,{"type":"Feature","geometry":{"type":"Point","coordinates":[140.108841,37.885284]},"properties":{"Name":"山形県立米沢興譲館高校","Jusho":"山形県米沢市大字笹野1、101","kouzui":"○","gake":"○","takashio":"×","jishin":"○","tsunami":"×","kaji":"×","naisui":"×","kazan":"○"}}
,{"type":"Feature","geometry":{"type":"Point","coordinates":[140.105108,37.912389]},"properties":{"Name":"山形県立米沢東高校","Jusho":"山形県米沢市丸の内2-5-63","kouzui":"○","gake":"○","takashio":"×","jishin":"○","tsunami":"×","kaji":"×","naisui":"×","kazan":"○"}}
,{"type":"Feature","geometry":{"type":"Point","coordinates":[140.144908,37.916909]},"properties":{"Name":"山形県立米沢工業高校","Jusho":"山形県米沢市大字川井300","kouzui":"×","gake":"○","takashio":"×","jishin":"○","tsunami":"×","kaji":"×","naisui":"×","kazan":"○"}}
,{"type":"Feature","geometry":{"type":"Point","coordinates":[140.113622,37.901915]},"properties":{"Name":"山形県立米沢商業高校","Jusho":"山形県米沢市本町3-1-12","kouzui":"○","gake":"○","takashio":"×","jishin":"○","tsunami":"×","kaji":"×","naisui":"×","kazan":"○"}}
,{"type":"Feature","geometry":{"type":"Point","coordinates":[140.110211,37.907349]},"properties":{"Name":"九里学園高校","Jusho":"山形県米沢市門東町1-1-72","kouzui":"○","gake":"○","takashio":"×","jishin":"○","tsunami":"×","kaji":"×","naisui":"×","kazan":"○"}}
,{"type":"Feature","geometry":{"type":"Point","coordinates":[140.105321,37.922298]},"properties":{"Name":"米沢中央高校","Jusho":"山形県米沢市中央7-5-70-4","kouzui":"○","gake":"○","takashio":"×","jishin":"○","tsunami":"×","kaji":"×","naisui":"×","kazan":"○"}}
,{"type":"Feature","geometry":{"type":"Point","coordinates":[140.104273,37.899867]},"properties":{"Name":"国立大学法人山形大学工学部","Jusho":"山形県米沢市城南4-3-16","kouzui":"○","gake":"○","takashio":"×","jishin":"○","tsunami":"×","kaji":"×","naisui":"×","kazan":"○"}}
,{"type":"Feature","geometry":{"type":"Point","coordinates":[140.123355,37.89134]},"properties":{"Name":"山形県立米沢女子短期大学","Jusho":"山形県米沢市通町6-15-1","kouzui":"×","gake":"○","takashio":"×","jishin":"○","tsunami":"×","kaji":"×","naisui":"×","kazan":"○"}}
,{"type":"Feature","geometry":{"type":"Point","coordinates":[140.109088,37.892936]},"properties":{"Name":"山形県立米沢養護学校","Jusho":"山形県米沢市太田町4-1-102","kouzui":"○","gake":"○","takashio":"×","jishin":"○","tsunami":"×","kaji":"×","naisui":"×","kazan":"○"}}
,{"type":"Feature","geometry":{"type":"Point","coordinates":[140.12572011561,37.911010993205]},