var yamanashi={"type":"FeatureCollection","name":"yamanashi","features":[
{"type":"Feature","geometry":{"type":"Point","coordinates":[138.57607353632,35.652217662514]},"properties":{"Name":"甲府市総合市民会館駐車場","Jusho":"山梨県甲府市青沼3-5-44","kouzui":"×","gake":"○","takashio":"×","jishin":"○","tsunami":"×","kaji":"○","naisui":"○","kazan":"×"}}
,{"type":"Feature","geometry":{"type":"Point","coordinates":[138.58314959541,35.651483260688]},"properties":{"Name":"東小学校グラウンド","Jusho":"山梨県甲府市朝気1-14-1","kouzui":"×","gake":"○","takashio":"×","jishin":"○","tsunami":"×","kaji":"○","naisui":"○","kazan":"×"}}
,{"type":"Feature","geometry":{"type":"Point","coordinates":[138.58334831157,35.643063493631]},"properties":{"Name":"青葉スポーツ広場グラウンド","Jusho":"山梨県甲府市青葉町19-1","kouzui":"×","gake":"○","takashio":"×","jishin":"○","tsunami":"×","kaji":"○","naisui":"○","kazan":"×"}}
,{"type":"Feature","geometry":{"type":"Point","coordinates":[138.583757,35.6502494]},"properties":{"Name":"イーストモールバリオ駐車場","Jusho":"山梨県甲府市朝気3-1-12","kouzui":"×","gake":"○","takashio":"×","jishin":"○","tsunami":"×","kaji":"○","naisui":"○","kazan":"×"}}
,{"type":"Feature","geometry":{"type":"Point","coordinates":[138.59002083095,35.662838830966]},"properties":{"Name":"里垣小学校グラウンド","Jusho":"山梨県甲府市善光寺2-7-1","kouzui":"○","gake":"○","takashio":"×","jishin":"○","tsunami":"×","kaji":"○","naisui":"○","kazan":"×"}}
,{"type":"Feature","geometry":{"type":"Point","coordinates":[138.58579861382,35.663169015223]},"properties":{"Name":"東中学校グラウンド","Jusho":"山梨県甲府市東光寺2-8-1","kouzui":"×","gake":"○","takashio":"×","jishin":"○","tsunami":"×","kaji":"○","naisui":"×","kazan":"×"}}
,{"type":"Feature","geometry":{"type":"Point","coordinates":[138.59731976394,35.655796589686]},"properties":{"Name":"甲府東高等学校グラウンド","Jusho":"山梨県甲府市酒折1-17-1","kouzui":"×","gake":"○","takashio":"×","jishin":"○","tsunami":"×","kaji":"○","naisui":"○","kazan":"×"}}
,{"type":"Feature","geometry":{"type":"Point","coordinates":[138.60256749161,35.656853103996]},"properties":{"Name":"山梨学院大学第３駐車場","Jusho":"山梨県甲府市酒折2-4-5","kouzui":"×","gake":"○","takashio":"×","jishin":"○","tsunami":"×","kaji":"○","naisui":"○","kazan":"×"}}
,{"type":"Feature","geometry":{"type":"Point","coordinates":[138.62243623625,35.656328653145]},"properties":{"Name":"甲運小学校グラウンド","Jusho":"山梨県甲府市川田町65-2","kouzui":"○","gake":"○","takashio":"×","jishin":"○","tsunami":"×","kaji":"○","naisui":"○","kazan":"×"}}
,{"type":"Feature","geometry":{"type":"Point","coordinates":[138.62539652964,35.652959810101]},"properties":{"Name":"県立青少年センター駐車場・グラウンド","Jusho":"山梨県甲府市川田町517","kouzui":"○","gake":"○","takashio":"×","jishin":"○","tsunami":"×","kaji":"○","naisui":"○","kazan":"×"}}
,{"type":"Feature","geometry":{"type":"Point","coordinates":[138.61303707745,35.652951634934]},"properties":{"Name":"東部市民センター駐車場","Jusho":"山梨県甲府市和戸町955-1","kouzui":"○","gake":"○","takashio":"×","jishin":"○","tsunami":"×","kaji":"○","naisui":"○","kazan":"×"}}
,{"type":"Feature","geometry":{"type":"Point","coordinates":[138.59287113353,35.650460750975]},"properties":{"Name":"甲斐清和高等学校里吉グラウンド","Jusho":"山梨県甲府市里吉2-7","kouzui":"×","gake":"○","takashio":"×","jishin":"○","tsunami":"×","kaji":"○","naisui":"○","kazan":"×"}}
,{"type":"Feature","geometry":{"type":"Point","coordinates":[138.60290104667,35.645641151142]},"properties":{"Name":"玉諸小学校グラウンド","Jusho":"山梨県甲府市上阿原町491","kouzui":"×","gake":"○","takashio":"×","jishin":"○","tsunami":"×","kaji":"○","naisui":"○","kazan":"×"}}
,{"type":"Feature","geometry":{"type":"Point","coordinates":[138.61300654,35.64351531]},"properties":{"Name":"玉諸公園","Jusho":"山梨県甲府市向町568","kouzui":"×","gake":"○","takashio":"×","jishin":"○","tsunami":"×","kaji":"○","naisui":"○","kazan":"×"}}
,{"type":"Feature","geometry":{"type":"Point","coordinates":[138.61204511318,35.644663037337]},"properties":{"Name":"老人ホーム敷地（へいりん荘）空地","Jusho":"山梨県甲府市向町568","kouzui":"×","gake":"○","takashio":"×","jishin":"○","tsunami":"×","kaji":"○","naisui":"○","kazan":"×"}}
,{"type":"Feature","geometry":{"type":"Point","coordinates":[138.587304,35.6419738]},"properties":{"Name":"山梨県自治会館駐車場","Jusho":"山梨県甲府市蓬沢1-15-35","kouzui":"×","gake":"○","takashio":"×","jishin":"○","tsunami":"×","kaji":"○","naisui":"○","kazan":"×"}}
,{"type":"Feature","geometry":{"type":"Point","coordinates":[138.58078208453,35.655020459367]},"properties":{"Name":"善誘館小学校グラウンド","Jusho":"山梨県甲府市朝気1-2-52","kouzui":"×","gake":"○","takashio":"×","jishin":"○","tsunami":"×","kaji":"○","naisui":"○","kazan":"×"}}
,{"type":"Feature","geometry":{"type":"Point","coordinates":[138.58171057025,35.659797151695]},"properties":{"Name":"市立図書館駐車場","Jusho":"山梨県甲府市城東1-12-33","kouzui":"○","gake":"○","takashio":"×","jishin":"○","tsunami":"×","kaji":"○","naisui":"○","kazan":"×"}}
,{"type":"Feature","geometry":{"type":"Point","coordinates":[138.58053663821,35.65942759517]},"properties":{"Name":"教育研修所駐車場ゲートボール場","Jusho":"山梨県甲府市城東1-12-28","kouzui":"○","gake":"○","takashio":"×","jishin":"○","tsunami":"×","kaji":"○","naisui":"○","kazan":"×"}}
,{"type":"Feature","geometry":{"type":"Point","coordinates":[138.58348706813,35.658407683019]},"properties":{"Name":"オギノ城東店駐車場","Jusho":"山梨県甲府市城東4-3-17","kouzui":"×","gake":"○","takashio":"×","jishin":"○","tsunami":"×","kaji":"○","naisui":"○","kazan":"×"}}
,{"type":"Feature","geometry":{"type":"Point","coordinates":[138.55458875266,35.663598079542]},"properties":{"Name":"西中学校グラウンド","Jusho":"山梨県甲府市飯田5-13-1","kouzui":"○","gake":"○","takashio":"×","jishin":"○","tsunami":"×","kaji":"○","naisui":"○","kazan":"×"}}
,{"type":"Feature","geometry":{"type":"Point","coordinates":[138.55668906168,35.66322789485]},"properties":{"Name":"県立大学（飯田）グラウンド","Jusho":"山梨県甲府市飯田5-11-1","kouzui":"×","gake":"○","takashio":"×","jishin":"○","tsunami":"×","kaji":"○","naisui":"○","kazan":"×"}}
,{"type":"Feature","geometry":{"type":"Point","coordinates":[138.5550470516,35.662644369416]},"properties":{"Name":"県営飯田野球場グラウンド","Jusho":"山梨県甲府市飯田5-12","kouzui":"○","gake":"○","takashio":"×","jishin":"○","tsunami":"×","kaji":"○","naisui":"○","kazan":"×"}}
,{"type":"Feature","geometry":{"type":"Point","coordinates":[138.56031644378,35.662916594695]},"properties":{"Name":"甲府市役所西庁舎（旧穴切小学校グラウンド）","Jusho":"山梨県甲府市宝2-8-19","kouzui":"×","gake":"○","takashio":"×","jishin":"○","tsunami":"×","kaji":"○","naisui":"○","kazan":"×"}}
,{"type":"Feature","geometry":{"type":"Point","coordinates":[138.56433744,35.66792566]},"properties":{"Name":"ＪＡパーキング協同駐車場","Jusho":"山梨県甲府市宝1-1","kouzui":"×","gake":"○","takashio":"×","jishin":"○","tsunami":"×","kaji":"○","naisui":"○","kazan":"×"}}
,{"type":"Feature","geometry":{"type":"Point","coordinates":[138.5613354,35.65830468]},"properties":{"Name":"YCC県民文化ホール駐車場","Jusho":"山梨県甲府市寿町26-1","kouzui":"×","gake":"○","takashio":"×","jishin":"○","tsunami":"×","kaji":"○","naisui":"○","kazan":"×"}}
,{"type":"Feature","geometry":{"type":"Point","coordinates":[138.55708895332,35.652611643195]},"properties":{"Name":"石田小学校グラウンド","Jusho":"山梨県甲府市上石田3-6-31","kouzui":"×","gake":"○","takashio":"×","jishin":"○","tsunami":"×","kaji":"○","naisui":"○","kazan":"×"}}
,{"type":"Feature","geometry":{"type":"Point","coordinates":[138.55580094069,35.648828235618]},"properties":{"Name":"南西中学校グラウンド","Jusho":"山梨県甲府市上石田4-10-8","kouzui":"×","gake":"○","takashio":"×","jishin":"○","tsunami":"×","kaji":"○","naisui":"○","kazan":"×"}}
,{"type":"Feature","geometry":{"type":"Point","coordinates":[138.56552051,35.64875885]},"properties":{"Name":"荒川緑地（千秋橋上流右岸）","Jusho":"山梨県甲府市高畑1","kouzui":"×","gake":"○","takashio":"×","jishin":"○","tsunami":"×","kaji":"○","naisui":"×","kazan":"×"}}
,{"type":"Feature","geometry":{"type":"Point","coordinates":[138.55519443449,35.651561595916]},"properties":{"Name":"南西第一公園","Jusho":"山梨県甲府市上石田3-15","kouzui":"×","gake":"○","takashio":"×","jishin":"○","tsunami":"×","kaji":"○","naisui":"○","kazan":"×"}}
,{"type":"Feature","geometry":{"type":"Point","coordinates":[138.55407833,35.64787543]},"properties":{"Name":"南西第三公園","Jusho":"山梨県甲府市下石田2-8","kouzui":"×","gake":"○","takashio":"×","jishin":"○","tsunami":"×","kaji":"○","naisui":"○","kazan":"×"}}
,{"type":"Feature","geometry":{"type":"Point","coordinates":[138.55125633,35.64902798]},"properties":{"Name":"南西第四公園","Jusho":"山梨県甲府市下石田2-3","kouzui":"×","gake":"○","takashio":"×","jishin":"○","tsunami":"×","kaji":"○","naisui":"○","kazan":"×"}}
,{"type":"Feature","geometry":{"type":"Point","coordinates":[138.54050640448,35.676849245335]},"properties":{"Name":"荒川緑地（音羽橋下流右岸）","Jusho":"山梨県甲府市荒川1","kouzui":"×","gake":"○","takashio":"×","jishin":"○","tsunami":"×","kaji":"○","naisui":"×","kazan":"×"}}
,{"type":"Feature","geometry":{"type":"Point","coordinates":[138.54169859743,35.666255456774]},"properties":{"Name":"池田小学校グラウンド","Jusho":"山梨県甲府市長松寺町7-1","kouzui":"○","gake":"○","takashio":"×","jishin":"○","tsunami":"×","kaji":"○","naisui":"○","kazan":"×"}}
,{"type":"Feature","geometry":{"type":"Point","coordinates":[138.54705310617,35.666508178957]},"properties":{"Name":"甲府城西高等学校グラウンド","Jusho":"山梨県甲府市下飯田1-9-1","kouzui":"○","gake":"○","takashio":"×","jishin":"○","tsunami":"×","kaji":"○","naisui":"○","kazan":"×"}}
,{"type":"Feature","geometry":{"type":"Point","coordinates":[138.54956781318,35.660815766854]},"properties":{"Name":"甲府西高等学校グラウンド","Jusho":"山梨県甲府市下飯田4-1-1","kouzui":"×","gake":"○","takashio":"×","jishin":"○","tsunami":"×","kaji":"○","naisui":"○","kazan":"×"}}
,{"type":"Feature","geometry":{"type":"Point","coordinates":[138.53880430512,35.667203152959]},"properties":{"Name":"東海甲府高等学校グラウンド","Jusho":"山梨県甲府市金竹町1-1","kouzui":"○","gake":"○","takashio":"×","jishin":"○","tsunami":"×","kaji":"○","naisui":"○","kazan":"×"}}
,{"type":"Feature","geometry":{"type":"Point","coordinates":[138.54670877509,35.671083988222]},"properties":{"Name":"県立大学（池田）グラウンド","Jusho":"山梨県甲府市池田1-6-1","kouzui":"○","gake":"○","takashio":"×","jishin":"○","tsunami":"×","kaji":"○","naisui":"○","kazan":"×"}}
,{"type":"Feature","geometry":{"type":"Point","coordinates":[138.54036678464,35.664911809085]},"properties":{"Name":"西部市民センター駐車場","Jusho":"山梨県甲府市長松寺町12-30","kouzui":"○","gake":"○","takashio":"×","jishin":"○","tsunami":"×","kaji":"○","naisui":"○","kazan":"×"}}
,{"type":"Feature","geometry":{"type":"Point","coordinates":[138.5476784569,35.668993146814]},"properties":{"Name":"下飯田防災拠点","Jusho":"山梨県下飯田1-434-8外","kouzui":"×","gake":"○","takashio":"×","jishin":"○","tsunami":"×","kaji":"○","naisui":"×","kazan":"×"}}
,{"type":"Feature","geometry":{"type":"Point","coordinates":[138.5391092084,35.662550513876]},"properties":{"Name":"新田小学校グラウンド","Jusho":"山梨県甲府市新田町12-28","kouzui":"×","gake":"○","takashio":"×","jishin":"○","tsunami":"×","kaji":"○","naisui":"○","kazan":"×"}}
,{"type":"Feature","geometry":{"type":"Point","coordinates":[138.53608447325,35.665594369669]},"properties":{"Name":"池田公園","Jusho":"山梨県甲府市中村町10","kouzui":"○","gake":"○","takashio":"×","jishin":"○","tsunami":"×","kaji":"○","naisui":"○","kazan":"×"}}
,{"type":"Feature","geometry":{"type":"Point","coordinates":[138.533397,35.6643451]},"properties":{"Name":"貢川団地　8号館東側空地","Jusho":"山梨県甲府市下河原町3","kouzui":"×","gake":"○","takashio":"×","jishin":"○","tsunami":"×","kaji":"○","naisui":"○","kazan":"×"}}
,{"type":"Feature","geometry":{"type":"Point","coordinates":[138.53266115959,35.665194802706]},"properties":{"Name":"貢川団地　4号館南側空地","Jusho":"山梨県甲府市下河原町3","kouzui":"×","gake":"○","takashio":"×","jishin":"○","tsunami":"×","kaji":"○","naisui":"○","kazan":"×"}}
,{"type":"Feature","geometry":{"type":"Point","coordinates":[138.53401031073,35.666103493972]},"properties":{"Name":"貢川団地　37号館東側空地","Jusho":"山梨県甲府市下河原町3","kouzui":"×","gake":"○","takashio":"×","jishin":"○","tsunami":"×","kaji":"○","naisui":"○","kazan":"×"}}
,{"type":"Feature","geometry":{"type":"Point","coordinates":[138.53290255842,35.666088240248]},"properties":{"Name":"貢川団地　29号館南側空地","Jusho":"山梨県甲府市下河原町3","kouzui":"×","gake":"○","takashio":"×","jishin":"○","tsunami":"×","kaji":"○","naisui":"○","kazan":"×"}}
,{"type":"Feature","geometry":{"type":"Point","coordinates":[138.54133221028,35.657190254057]},"properties":{"Name":"八幡神社境内","Jusho":"山梨県甲府市富竹3-4","kouzui":"×","gake":"○","takashio":"×","jishin":"○","tsunami":"×","kaji":"○","naisui":"○","kazan":"×"}}
,{"type":"Feature","geometry":{"type":"Point","coordinates":[138.54000003613,35.653685409899]},"properties":{"Name":"笠屋神社境内","Jusho":"山梨県甲府市徳行5-1","kouzui":"×","gake":"○","takashio":"×","jishin":"○","tsunami":"×","kaji":"○","naisui":"○","kazan":"×"}}
,{"type":"Feature","geometry":{"type":"Point","coordinates":[138.53673943657,35.655477430516]},"properties":{"Name":"富竹中学校グラウンド","Jusho":"山梨県甲府市富竹4-5-8","kouzui":"×","gake":"○","takashio":"×","jishin":"○","tsunami":"×","kaji":"○","naisui":"○","kazan":"×"}}
,{"type":"Feature","geometry":{"type":"Point","coordinates":[138.54205452057,35.647523509218]},"properties":{"Name":"貢川福祉センター駐車場","Jusho":"山梨県甲府市徳行3-12-1","kouzui":"×","gake":"○","takashio":"×","jishin":"○","tsunami":"×","kaji":"○","naisui":"○","kazan":"×"}}
,{"type":"Feature","geometry":{"type":"Point","coordinates":[138.54884748751,35.654493203413]},"properties":{"Name":"貢川小学校グラウンド","Jusho":"山梨県甲府市貢川本町8-1","kouzui":"×","gake":"○","takashio":"×","jishin":"○","tsunami":"×","kaji":"○","naisui":"○","kazan":"×"}}
,{"type":"Feature","geometry":{"type":"Point","coordinates":[138.53826280283,35.660388038639]},"properties":{"Name":"県立美術館広場","Jusho":"山梨県甲府市貢川1-4-27","kouzui":"×","gake":"○","takashio":"×","jishin":"○","tsunami":"×","kaji":"○","naisui":"○","kazan":"×"}}
,{"type":"Feature","geometry":{"type":"Point","coordinates":[138.55120805971,35.653670253551]},"properties":{"Name":"南西第二公園","Jusho":"山梨県甲府市貢川本町14","kouzui":"×","gake":"○","takashio":"×","jishin":"○","tsunami":"×","kaji":"○","naisui":"○","kazan":"×"}}
,{"type":"Feature","geometry":{"type":"Point","coordinates":[138.54482691462,35.65547789326]},"properties":{"Name":"オギノ貢川店駐車場","Jusho":"山梨県甲府市徳行1--2-18","kouzui":"×","gake":"○","takashio":"×","jishin":"○","tsunami":"×","kaji":"○","naisui":"○","kazan":"×"}}
,{"type":"Feature","geometry":{"type":"Point","coordinates":[138.57519420752,35.648886605951]},"properties":{"Name":"湯田小学校グラウンド","Jusho":"山梨県甲府市湯田1-8-1","kouzui":"×","gake":"○","takashio":"×","jishin":"○","tsunami":"×","kaji":"○","naisui":"○","kazan":"×"}}
,{"type":"Feature","geometry":{"type":"Point","coordinates":[138.56749058031,35.64507428756]},"properties":{"Name":"伊勢小学校グラウンド","Jusho":"山梨県甲府市伊勢2-16-1","kouzui":"×","gake":"○","takashio":"×","jishin":"○","tsunami":"×","kaji":"○","naisui":"○","kazan":"×"}}
,{"type":"Feature","geometry":{"type":"Point","coordinates":[138.56643869315,35.650617197839]},"properties":{"Name":"荒川緑地（千秋橋上流左岸）","Jusho":"山梨県甲府市伊勢1","kouzui":"×","gake":"○","takashio":"×","jishin":"○","tsunami":"×","kaji":"○","naisui":"×","kazan":"×"}}
,{"type":"Feature","geometry":{"type":"Point","coordinates":[138.56395416844,35.639571220474]},"properties":{"Name":"荒川緑地（新平和橋下流左岸）","Jusho":"山梨県甲府市伊勢4","kouzui":"×","gake":"○","takashio":"×","jishin":"○","tsunami":"×","kaji":"○","naisui":"×","kazan":"×"}}
,{"type":"Feature","geometry":{"type":"Point","coordinates":[138.57516123687,35.643415719477]},"properties":{"Name":"南中学校グラウンド","Jusho":"山梨県甲府市湯田2-21-24","kouzui":"×","gake":"○","takashio":"×","jishin":"○","tsunami":"×","kaji":"○","naisui":"○","kazan":"×"}}
,{"type":"Feature","geometry":{"type":"Point","coordinates":[138.58426235449,35.638675076315]},"properties":{"Name":"住吉区画整理3号公園","Jusho":"山梨県甲府市住吉4-3036","kouzui":"×","gake":"○","takashio":"×","jishin":"○","tsunami":"×","kaji":"○","naisui":"○","kazan":"×"}}
,{"type":"Feature","geometry":{"type":"Point","coordinates":[138.55805553573,35.640689575197]},"properties":{"Name":"国母小学校グラウンド","Jusho":"山梨県甲府市国母4-1-10","kouzui":"×","gake":"○","takashio":"×","jishin":"○","tsunami":"×","kaji":"○","naisui":"○","kazan":"×"}}
,{"type":"Feature","geometry":{"type":"Point","coordinates":[138.55478922167,35.637245025671]},"properties":{"Name":"南西部市民センター駐車場","Jusho":"山梨県甲府市国母6-4-2","kouzui":"×","gake":"○","takashio":"×","jishin":"○","tsunami":"×","kaji":"○","naisui":"○","kazan":"×"}}
,{"type":"Feature","geometry":{"type":"Point","coordinates":[138.55742795131,35.63546410415]},"properties":{"Name":"地方卸売市場駐車場","Jusho":"山梨県甲府市国母6-5-1","kouzui":"×","gake":"○","takashio":"×","jishin":"○","tsunami":"×","kaji":"○","naisui":"○","kazan":"×"}}
,{"type":"Feature","geometry":{"type":"Point","coordinates":[138.56508294,35.64620365]},"properties":{"Name":"荒川緑地（千秋橋下流右岸）","Jusho":"山梨県甲府市高畑3","kouzui":"×","gake":"○","takashio":"×","jishin":"○","tsunami":"×","kaji":"○","naisui":"×","kazan":"×"}}
,{"type":"Feature","geometry":{"type":"Point","coordinates":[138.55222108,35.63276073]},"properties":{"Name":"国母南公園","Jusho":"山梨県甲府市国母8-32","kouzui":"×","gake":"○","takashio":"×","jishin":"○","tsunami":"×","kaji":"○","naisui":"○","kazan":"×"}}
,{"type":"Feature","geometry":{"type":"Point","coordinates":[138.55604698741,35.629558700919]},"properties":{"Name":"上条中学校グラウンド","Jusho":"山梨県甲府市古上条町95","kouzui":"×","gake":"○","takashio":"×","jishin":"○","tsunami":"×","kaji":"○","naisui":"○","kazan":"×"}}
,{"type":"Feature","geometry":{"type":"Point","coordinates":[138.56581078463,35.628565625231]},"properties":{"Name":"大国小学校グラウンド","Jusho":"山梨県甲府市後屋町150","kouzui":"×","gake":"○","takashio":"×","jishin":"○","tsunami":"×","kaji":"○","naisui":"○","kazan":"×"}}
,{"type":"Feature","geometry":{"type":"Point","coordinates":[138.550476,35.625347]},"properties":{"Name":"オギノ国母店駐車場","Jusho":"山梨県甲府市大里町5016","kouzui":"×","gake":"○","takashio":"×","jishin":"○","tsunami":"×","kaji":"○","naisui":"○","kazan":"×"}}
,{"type":"Feature","geometry":{"type":"Point","coordinates":[138.57490779642,35.626042176102]},"properties":{"Name":"甲府商業高等学校グラウンド","Jusho":"山梨県甲府市上今井町300","kouzui":"×","gake":"○","takashio":"×","jishin":"○","tsunami":"×","kaji":"○","naisui":"○","kazan":"×"}}
,{"type":"Feature","geometry":{"type":"Point","coordinates":[138.57411411676,35.630344472246]},"properties":{"Name":"甲府南高等学校グラウンド","Jusho":"山梨県甲府市中小河原町222","kouzui":"×","gake":"○","takashio":"×","jishin":"○","tsunami":"×","kaji":"○","naisui":"○","kazan":"×"}}
,{"type":"Feature","geometry":{"type":"Point","coordinates":[138.57867078542,35.626183560575]},"properties":{"Name":"山城小学校グラウンド","Jusho":"山梨県甲府市上今井町474-2","kouzui":"×","gake":"○","takashio":"×","jishin":"○","tsunami":"×","kaji":"○","naisui":"○","kazan":"×"}}
,{"type":"Feature","geometry":{"type":"Point","coordinates":[138.5800228418,35.613685582481]},"properties":{"Name":"南部市民センター駐車場","Jusho":"山梨県甲府市下今井町15","kouzui":"×","gake":"○","takashio":"×","jishin":"○","tsunami":"×","kaji":"○","naisui":"○","kazan":"×"}}
,{"type":"Feature","geometry":{"type":"Point","coordinates":[138.58696822314,35.621674615477]},"properties":{"Name":"小瀬スポーツ公園","Jusho":"山梨県甲府市小瀬町840","kouzui":"×","gake":"○","takashio":"×","jishin":"○","tsunami":"×","kaji":"○","naisui":"○","kazan":"×"}}
,{"type":"Feature","geometry":{"type":"Point","coordinates":[138.57600084913,35.608879273766]},"properties":{"Name":"甲府商科専門学校グラウンド","Jusho":"山梨県甲府市西下条町1020","kouzui":"×","gake":"○","takashio":"×","jishin":"○","tsunami":"×","kaji":"○","naisui":"○","kazan":"×"}}
,{"type":"Feature","geometry":{"type":"Point","coordinates":[138.56585990367,35.614089956731]},"properties":{"Name":"大里小学校グラウンド","Jusho":"山梨県甲府市大里町3785-2","kouzui":"×","gake":"○","takashio":"×","jishin":"○","tsunami":"×","kaji":"○","naisui":"○","kazan":"×"}}
,{"type":"Feature","geometry":{"type":"Point","coordinates":[138.56905202006,35.618469525697]},"properties":{"Name":"城南中学校グラウンド","Jusho":"山梨県甲府市大里町2590-1","kouzui":"×","gake":"○","takashio":"×","jishin":"○","tsunami":"×","kaji":"○","naisui":"○","kazan":"×"}}
,{"type":"Feature","geometry":{"type":"Point","coordinates":[138.56055067085,35.610516467688]},"properties":{"Name":"堀之内南公園","Jusho":"山梨県甲府市堀之内町961","kouzui":"×","gake":"○","takashio":"×","jishin":"○","tsunami":"×","kaji":"○","naisui":"○","kazan":"×"}}
,{"type":"Feature","geometry":{"type":"Point","coordinates":[138.5644588606,35.601749544484]},"properties":{"Name":"アイメッセ山梨軒下・駐車場","Jusho":"山梨県甲府市大津町2192-8","kouzui":"×","gake":"○","takashio":"×","jishin":"○","tsunami":"×","kaji":"○","naisui":"○","kazan":"×"}}
,{"type":"Feature","geometry":{"type":"Point","coordinates":[138.561365772,35.597689565816]},"properties":{"Name":"甲府市浄化センターグラウンド","Jusho":"山梨県甲府市大津町1645","kouzui":"×","gake":"○","takashio":"×","jishin":"○","tsunami":"×","kaji":"○","naisui":"○","kazan":"×"}}
,{"type":"Feature","geometry":{"type":"Point","coordinates":[138.58344655766,35.577133227178]},"properties":{"Name":"中道南小学校グラウンド","Jusho":"山梨県甲府市下向山町4366","kouzui":"○","gake":"○","takashio":"×","jishin":"○","tsunami":"×","kaji":"○","naisui":"○","kazan":"×"}}
,{"type":"Feature","geometry":{"type":"Point","coordinates":[138.587705522309,35.602898369747]},"properties":{"Name":"中道北小学校グラウンド","Jusho":"山梨県甲府市上曽根町3368-36","kouzui":"×","gake":"○","takashio":"×","jishin":"○","tsunami":"×","kaji":"○","naisui":"○","kazan":"×"}}
,{"type":"Feature","geometry":{"type":"Point","coordinates":[138.57557766922,35.594407008283]},"properties":{"Name":"笛南中学校グラウンド","Jusho":"山梨県甲府市下曽根町270","kouzui":"×","gake":"○","takashio":"×","jishin":"○","tsunami":"×","kaji":"○","naisui":"○","kazan":"×"}}
,{"type":"Feature","geometry":{"type":"Point","coordinates":[138.58861066975,35.586309909271]},"properties":{"Name":"中道スポーツ広場グラウンド","Jusho":"山梨県甲府市下向山町946","kouzui":"○","gake":"○","takashio":"×","jishin":"○","tsunami":"×","kaji":"○","naisui":"○","kazan":"×"}}
,{"type":"Feature","geometry":{"type":"Point","coordinates":[138.60991254,35.5307945]},"properties":{"Name":"上九一色出張所駐車場","Jusho":"山梨県甲府市古関町1158","kouzui":"○","gake":"○","takashio":"×","jishin":"○","tsunami":"×","kaji":"○","naisui":"○","kazan":"×"}}
,{"type":"Feature","geometry":{"type":"Point","coordinates":[138.55555018582,35.679223458739]},"properties":{"Name":"北中学校グラウンド","Jusho":"山梨県甲府市大和町4-35","kouzui":"○","gake":"○","takashio":"×","jishin":"○","tsunami":"×","kaji":"○","naisui":"○","kazan":"×"}}
,{"type":"Feature","geometry":{"type":"Point","coordinates":[138.56404686305,35.677304168445]},"properties":{"Name":"甲府第一高等学校グラウンド","Jusho":"山梨県甲府市美咲2-13-44","kouzui":"○","gake":"○","takashio":"×","jishin":"○","tsunami":"×","kaji":"○","naisui":"○","kazan":"×"}}
,{"type":"Feature","geometry":{"type":"Point","coordinates":[138.5656881,35.6798166]},"properties":{"Name":"北新小学校グラウンド","Jusho":"山梨県甲府市北新1-5-1","kouzui":"○","gake":"○","takashio":"×","jishin":"○","tsunami":"×","kaji":"○","naisui":"○","kazan":"×"}}
,{"type":"Feature","geometry":{"type":"Point","coordinates":[138.56658479453,35.678905336264]},"properties":{"Name":"附属小中学校グラウンド","Jusho":"山梨県甲府市北新1-4-1","kouzui":"○","gake":"○","takashio":"×","jishin":"○","tsunami":"×","kaji":"○","naisui":"○","kazan":"×"}}
,{"type":"Feature","geometry":{"type":"Point","coordinates":[138.56629365968,35.678387662531]},"properties":{"Name":"附属小中学校テニスコート","Jusho":"山梨県甲府市北新1-4-2","kouzui":"○","gake":"○","takashio":"×","jishin":"○","tsunami":"×","kaji":"○","naisui":"○","kazan":"×"}}
,{"type":"Feature","geometry":{"type":"Point","coordinates":[138.55754005566,35.683810180097]},"properties":{"Name":"緑が丘スポーツ公園","Jusho":"山梨県甲府市緑が丘2-8-2","kouzui":"○","gake":"○","takashio":"×","jishin":"○","tsunami":"×","kaji":"○","naisui":"○","kazan":"×"}}
,{"type":"Feature","geometry":{"type":"Point","coordinates":[138.5763370945,35.677639874853]},"properties":{"Name":"山梨大学グラウンド（東）","Jusho":"山梨県甲府市大手2-1","kouzui":"○","gake":"○","takashio":"×","jishin":"○","tsunami":"×","kaji":"○","naisui":"○","kazan":"×"}}
,{"type":"Feature","geometry":{"type":"Point","coordinates":[138.57770888692,35.678818066356]},"properties":{"Name":"山梨大学グラウンド（北）","Jusho":"山梨県甲府市大手2-2","kouzui":"○","gake":"○","takashio":"×","jishin":"○","tsunami":"×","kaji":"○","naisui":"○","kazan":"×"}}
,{"type":"Feature","geometry":{"type":"Point","coordinates":[138.57426896756,35.686752723695]},"properties":{"Name":"相川小学校グラウンド","Jusho":"山梨県甲府市古府中町1501","kouzui":"○","gake":"○","takashio":"×","jishin":"○","tsunami":"×","kaji":"○","naisui":"○","kazan":"×"}}
,{"type":"Feature","geometry":{"type":"Point","coordinates":[138.57903200762,35.681727513739]},"properties":{"Name":"北東中学校グラウンド","Jusho":"山梨県甲府市大手2-4-18","kouzui":"○","gake":"○","takashio":"×","jishin":"○","tsunami":"×","kaji":"○","naisui":"○","kazan":"×"}}
,{"type":"Feature","geometry":{"type":"Point","coordinates":[138.57694229717,35.686347517984]},"properties":{"Name":"武田神社境内","Jusho":"山梨県甲府市古府中町2611","kouzui":"○","gake":"○","takashio":"×","jishin":"○","tsunami":"×","kaji":"○","naisui":"○","kazan":"×"}}
,{"type":"Feature","geometry":{"type":"Point","coordinates":[138.56180833561,35.690846432783]},"properties":{"Name":"和田堀公園","Jusho":"山梨県甲府市和田町2968","kouzui":"○","gake":"×","takashio":"×","jishin":"○","tsunami":"×","kaji":"○","naisui":"○","kazan":"×"}}
,{"type":"Feature","geometry":{"type":"Point","coordinates":[138.54122362928,35.680434452729]},"properties":{"Name":"千塚小学校グラウンド","Jusho":"山梨県甲府市千塚1-2-16","kouzui":"○","gake":"○","takashio":"×","jishin":"○","tsunami":"×","kaji":"○","naisui":"○","kazan":"×"}}
,{"type":"Feature","geometry":{"type":"Point","coordinates":[138.54084436282,35.676936397687]},"properties":{"Name":"荒川緑地（音羽橋下流左岸）","Jusho":"山梨県甲府市音羽町1","kouzui":"×","gake":"○","takashio":"×","jishin":"○","tsunami":"×","kaji":"○","naisui":"×","kazan":"×"}}
,{"type":"Feature","geometry":{"type":"Point","coordinates":[138.55006275014,35.68027132921]},"properties":{"Name":"北部市民センター駐車場","Jusho":"山梨県甲府市湯村3-5-20","kouzui":"○","gake":"○","takashio":"×","jishin":"○","tsunami":"×","kaji":"○","naisui":"○","kazan":"×"}}
,{"type":"Feature","geometry":{"type":"Point","coordinates":[138.54228076739,35.684529914795]},"properties":{"Name":"千塚公園","Jusho":"山梨県甲府市千塚3-4","kouzui":"○","gake":"○","takashio":"×","jishin":"○","tsunami":"×","kaji":"○","naisui":"○","kazan":"×"}}
,{"type":"Feature","geometry":{"type":"Point","coordinates":[138.54364343638,35.690226124926]},"properties":{"Name":"羽黒小学校グラウンド","Jusho":"山梨県甲府市羽黒町527","kouzui":"○","gake":"○","takashio":"×","jishin":"○","tsunami":"×","kaji":"○","naisui":"○","kazan":"×"}}
,{"type":"Feature","geometry":{"type":"Point","coordinates":[138.52968619655,35.691240293161]},"properties":{"Name":"北西中学校グラウンド","Jusho":"山梨県甲府市山宮町538","kouzui":"○","gake":"○","takashio":"×","jishin":"○","tsunami":"×","kaji":"○","naisui":"○","kazan":"×"}}
,{"type":"Feature","geometry":{"type":"Point","coordinates":[138.5525678808,35.712947085875]},"properties":{"Name":"千代田小学校グラウンド","Jusho":"山梨県甲府市下帯那町3034-2","kouzui":"○","gake":"○","takashio":"×","jishin":"○","tsunami":"×","kaji":"○","naisui":"○","kazan":"×"}}
,{"type":"Feature","geometry":{"type":"Point","coordinates":[138.56534417657,35.738290820433]},"properties":{"Name":"県営グリーンライン駐車場","Jusho":"山梨県甲府市平瀬町3221","kouzui":"○","gake":"○","takashio":"×","jishin":"○","tsunami":"×","kaji":"○","naisui":"○","kazan":"×"}}
,{"type":"Feature","geometry":{"type":"Point","coordinates":[138.58714221896,35.804466980054]},"properties":{"Name":"黒平小学校跡地","Jusho":"山梨県甲府市黒平町485-1(地番）","kouzui":"○","gake":"○","takashio":"×","jishin":"○","tsunami":"×","kaji":"○","naisui":"○","kazan":"×"}}
,{"type":"Feature","geometry":{"type":"Point","coordinates":[138.57662643305,35.663339854193]},"properties":{"Name":"富士川悠遊館グラウンド","Jusho":"山梨県甲府市中央3-3-1","kouzui":"○","gake":"○","takashio":"×","jishin":"○","tsunami":"×","kaji":"○","naisui":"○","kazan":"×"}}
,{"type":"Feature","geometry":{"type":"Point","coordinates":[138.56058764887,35.672000517689]},"properties":{"Name":"朝日小学校グラウンド","Jusho":"山梨県甲府市塩部1-4-1","kouzui":"○","gake":"○","takashio":"×","jishin":"○","tsunami":"×","kaji":"○","naisui":"○","kazan":"×"}}
,{"type":"Feature","geometry":{"type":"Point","coordinates":[138.56002438577,35.671185564063]},"properties":{"Name":"甲府工業高等学校グラウンド","Jusho":"山梨県甲府市塩部2-7-1","kouzui":"○","gake":"○","takashio":"×","jishin":"○","tsunami":"×","kaji":"○","naisui":"○","kazan":"×"}}
,{"type":"Feature","geometry":{"type":"Point","coordinates":[138.55724290204,35.670231926545]},"properties":{"Name":"駿台甲府高等学校グラウンド","Jusho":"山梨県甲府市塩部2-8-1","kouzui":"○","gake":"○","takashio":"×","jishin":"○","tsunami":"×","kaji":"○","naisui":"○","kazan":"×"}}
,{"type":"Feature","geometry":{"type":"Point","coordinates":[138.56936032448,35.671915187907]},"properties":{"Name":"新紺屋小学校グラウンド","Jusho":"山梨県甲府市武田1-3-34","kouzui":"○","gake":"○","takashio":"×","jishin":"○","tsunami":"×","kaji":"○","naisui":"○","kazan":"×"}}
,{"type":"Feature","geometry":{"type":"Point","coordinates":[138.57074166502,35.667629864873]},"properties":{"Name":"歴史公園","Jusho":"山梨県甲府市北口2-","kouzui":"○","gake":"○","takashio":"×","jishin":"○","tsunami":"×","kaji":"○","naisui":"○","kazan":"×"}}
,{"type":"Feature","geometry":{"type":"Point","coordinates":[138.54133221028,35.657190254057]},"properties":{"Name":"八幡神社境内","Jusho":"山梨県甲府市宮前町194","kouzui":"○","gake":"○","takashio":"×","jishin":"○","tsunami":"×","kaji":"○","naisui":"○","kazan":"×"}}
,{"type":"Feature","geometry":{"type":"Point","coordinates":[138.56761940925,35.655284153184]},"properties":{"Name":"甲府市役所南庁舎グラウンド","Jusho":"山梨県甲府市相生2-17-1","kouzui":"×","gake":"○","takashio":"×","jishin":"○","tsunami":"×","kaji":"○","naisui":"○","kazan":"×"}}
,{"type":"Feature","geometry":{"type":"Point","coordinates":[138.56154641458,35.657475299662]},"properties":{"Name":"寿宝第一公園","Jusho":"山梨県甲府市寿町26","kouzui":"×","gake":"○","takashio":"×","jishin":"○","tsunami":"×","kaji":"○","naisui":"○","kazan":"×"}}
,{"type":"Feature","geometry":{"type":"Point","coordinates":[138.56655333007,35.66625330906]},"properties":{"Name":"ダイタ駅前第一・第二駐車場","Jusho":"山梨県甲府市丸の内2-5","kouzui":"×","gake":"○","takashio":"×","jishin":"○","tsunami":"×","kaji":"○","naisui":"○","kazan":"×"}}
,{"type":"Feature","geometry":{"type":"Point","coordinates":[138.56333590406,35.660929663178]},"properties":{"Name":"中央部市民センター駐車場","Jusho":"山梨県甲府市丸の内3-26-16","kouzui":"×","gake":"○","takashio":"×","jishin":"○","tsunami":"×","kaji":"○","naisui":"○","kazan":"×"}}
,{"type":"Feature","geometry":{"type":"Point","coordinates":[138.56786103777,35.66001207133]},"properties":{"Name":"中央公園","Jusho":"山梨県甲府市中央1-11","kouzui":"×","gake":"○","takashio":"×","jishin":"○","tsunami":"×","kaji":"○","naisui":"○","kazan":"×"}}
,{"type":"Feature","geometry":{"type":"Point","coordinates":[138.56502371655,35.662827903628]},"properties":{"Name":"舞鶴小学校グラウンド","Jusho":"山梨県甲府市丸の内2-35-5","kouzui":"×","gake":"○","takashio":"×","jishin":"○","tsunami":"×","kaji":"○","naisui":"○","kazan":"×"}}
,{"type":"Feature","geometry":{"type":"Point","coordinates":[138.79617174484,35.491236898126]},"properties":{"Name":"市民会館","Jusho":"山梨県富士吉田市緑ヶ丘2-5-23","kouzui":"×","gake":"×","takashio":"×","jishin":"○","tsunami":"×","kaji":"○","naisui":"×","kazan":"○"}}
,{"type":"Feature","geometry":{"type":"Point","coordinates":[138.79409379,35.49391739]},"properties":{"Name":"下吉田第二小学校","Jusho":"山梨県富士吉田市緑ヶ丘2-8-2","kouzui":"○","gake":"○","takashio":"×","jishin":"○","tsunami":"×","kaji":"○","naisui":"×","kazan":"○"}}
,{"type":"Feature","geometry":{"type":"Point","coordinates":[138.79599988348,35.495666839573]},"properties":{"Name":"下吉田中学校","Jusho":"山梨県富士吉田市新町4-12-27","kouzui":"○","gake":"○","takashio":"×","jishin":"○","tsunami":"×","kaji":"○","naisui":"×","kazan":"○"}}
,{"type":"Feature","geometry":{"type":"Point","coordinates":[138.8027191,35.4955068]},"properties":{"Name":"下吉田第一小学校","Jusho":"山梨県富士吉田市新町1-8-1","kouzui":"○","gake":"○","takashio":"×","jishin":"○","tsunami":"×","kaji":"○","naisui":"×","kazan":"○"}}
,{"type":"Feature","geometry":{"type":"Point","coordinates":[138.80087395343,35.494852935504]},"properties":{"Name":"第一保育園","Jusho":"山梨県富士吉田市新町1-2-1","kouzui":"×","gake":"×","takashio":"×","jishin":"○","tsunami":"×","kaji":"○","naisui":"×","kazan":"○"}}
,{"type":"Feature","geometry":{"type":"Point","coordinates":[138.80535520162,35.489626210902]},"properties":{"Name":"中央会館","Jusho":"山梨県富士吉田市下吉田2-21-39","kouzui":"○","gake":"○","takashio":"×","jishin":"○","tsunami":"×","kaji":"○","naisui":"×","kazan":"○"}}
,{"type":"Feature","geometry":{"type":"Point","coordinates":[138.80622774888,35.489106399215]},"properties":{"Name":"天神社","Jusho":"山梨県富士吉田市下吉田2-29-37","kouzui":"×","gake":"×","takashio":"×","jishin":"○","tsunami":"×","kaji":"○","naisui":"×","kazan":"○"}}
,{"type":"Feature","geometry":{"type":"Point","coordinates":[138.80646669281,35.485058220639]},"properties":{"Name":"県立吉田高等学校","Jusho":"山梨県富士吉田市下吉田6-17-1","kouzui":"○","gake":"○","takashio":"×","jishin":"○","tsunami":"×","kaji":"○","naisui":"×","kazan":"○"}}
,{"type":"Feature","geometry":{"type":"Point","coordinates":[138.81411996,35.48733232]},"properties":{"Name":"第三保育園","Jusho":"山梨県富士吉田市下吉田東2-14-21","kouzui":"×","gake":"×","takashio":"×","jishin":"○","tsunami":"×","kaji":"○","naisui":"×","kazan":"○"}}
,{"type":"Feature","geometry":{"type":"Point","coordinates":[138.81238398526,35.492390081154]},"properties":{"Name":"東町会館","Jusho":"山梨県富士吉田市下吉田8-24-28","kouzui":"○","gake":"○","takashio":"×","jishin":"○","tsunami":"×","kaji":"○","naisui":"×","kazan":"○"}}
,{"type":"Feature","geometry":{"type":"Point","coordinates":[138.81355685619,35.496272737837]},"properties":{"Name":"下吉田東小学校","Jusho":"山梨県富士吉田市下吉田9-21-1","kouzui":"○","gake":"○","takashio":"×","jishin":"○","tsunami":"×","kaji":"○","naisui":"×","kazan":"○"}}
,{"type":"Feature","geometry":{"type":"Point","coordinates":[138.811888,35.4993179]},"properties":{"Name":"富士見町会館","Jusho":"山梨県富士吉田市富士見3-2-8","kouzui":"○","gake":"○","takashio":"×","jishin":"○","tsunami":"×","kaji":"○","naisui":"×","kazan":"○"}}
,{"type":"Feature","geometry":{"type":"Point","coordinates":[138.7972976,35.4992599]},"properties":{"Name":"浅間町会館","Jusho":"山梨県富士吉田市浅間1-6-5","kouzui":"○","gake":"○","takashio":"×","jishin":"○","tsunami":"×","kaji":"○","naisui":"×","kazan":"○"}}
,{"type":"Feature","geometry":{"type":"Point","coordinates":[138.7956366,35.4864244]},"properties":{"Name":"松尾神社","Jusho":"山梨県富士吉田市松山2-10-18","kouzui":"×","gake":"×","takashio":"×","jishin":"○","tsunami":"×","kaji":"○","naisui":"×","kazan":"○"}}
,{"type":"Feature","geometry":{"type":"Point","coordinates":[138.7921525,35.4867543]},"properties":{"Name":"第四保育園","Jusho":"山梨県富士吉田市松山4-11-27","kouzui":"×","gake":"×","takashio":"×","jishin":"○","tsunami":"×","kaji":"○","naisui":"×","kazan":"○"}}
,{"type":"Feature","geometry":{"type":"Point","coordinates":[138.79719914569,35.483033347553]},"properties":{"Name":"金鳥居市民公園","Jusho":"山梨県富士吉田市上吉田2-6-1","kouzui":"×","gake":"×","takashio":"×","jishin":"○","tsunami":"×","kaji":"○","naisui":"×","kazan":"○"}}
,{"type":"Feature","geometry":{"type":"Point","coordinates":[138.78446485521,35.484694355284]},"properties":{"Name":"吉田西小学校","Jusho":"山梨県富士吉田市新西原3-7-1","kouzui":"○","gake":"○","takashio":"×","jishin":"○","tsunami":"×","kaji":"○","naisui":"×","kazan":"○"}}
,{"type":"Feature","geometry":{"type":"Point","coordinates":[138.78998180542,35.482215437004]},"properties":{"Name":"県立富士北稜高等学校","Jusho":"山梨県富士吉田市新西原1-23-1","kouzui":"○","gake":"○","takashio":"×","jishin":"○","tsunami":"×","kaji":"○","naisui":"×","kazan":"○"}}
,{"type":"Feature","geometry":{"type":"Point","coordinates":[138.800241,35.4838866]},"properties":{"Name":"第六保育園","Jusho":"山梨県富士吉田市中曽根1-10-1","kouzui":"×","gake":"×","takashio":"×","jishin":"○","tsunami":"×","kaji":"○","naisui":"×","kazan":"○"}}
,{"type":"Feature","geometry":{"type":"Point","coordinates":[138.79981034695,35.48069704488]},"properties":{"Name":"吉田中学校","Jusho":"山梨県富士吉田市上吉田1-3-6","kouzui":"○","gake":"○","takashio":"×","jishin":"○","tsunami":"×","kaji":"○","naisui":"×","kazan":"○"}}
,{"type":"Feature","geometry":{"type":"Point","coordinates":[138.78725984507,35.479158076825]},"properties":{"Name":"西原南公園","Jusho":"山梨県富士吉田市新西原2-13","kouzui":"×","gake":"×","takashio":"×","jishin":"○","tsunami":"×","kaji":"○","naisui":"×","kazan":"○"}}
,{"type":"Feature","geometry":{"type":"Point","coordinates":[138.79368477973,35.47871693572]},"properties":{"Name":"上吉田コミュニティセンター","Jusho":"山梨県富士吉田市上吉田4-9-11","kouzui":"○","gake":"○","takashio":"×","jishin":"○","tsunami":"×","kaji":"○","naisui":"×","kazan":"○"}}
,{"type":"Feature","geometry":{"type":"Point","coordinates":[138.79804020148,35.477490596023]},"properties":{"Name":"吉田小学校","Jusho":"山梨県富士吉田市上吉田5-1-1","kouzui":"○","gake":"○","takashio":"×","jishin":"○","tsunami":"×","kaji":"○","naisui":"×","kazan":"○"}}
,{"type":"Feature","geometry":{"type":"Point","coordinates":[138.7924219,35.470756]},"properties":{"Name":"北口本宮冨士浅間神社","Jusho":"山梨県富士吉田市上吉田5558","kouzui":"×","gake":"×","takashio":"×","jishin":"○","tsunami":"×","kaji":"○","naisui":"×","kazan":"○"}}
,{"type":"Feature","geometry":{"type":"Point","coordinates":[138.80535004959,35.477123629883]},"properties":{"Name":"県立ひばりが丘高等学校","Jusho":"山梨県富士吉田市上吉田東4-3-1","kouzui":"○","gake":"○","takashio":"×","jishin":"○","tsunami":"×","kaji":"○","naisui":"×","kazan":"○"}}
,{"type":"Feature","geometry":{"type":"Point","coordinates":[138.7985458,35.469431]},"properties":{"Name":"新屋会館","Jusho":"山梨県富士吉田市新屋173-1","kouzui":"○","gake":"○","takashio":"×","jishin":"○","tsunami":"×","kaji":"○","naisui":"×","kazan":"○"}}
,{"type":"Feature","geometry":{"type":"Point","coordinates":[138.7968117,35.4659415]},"properties":{"Name":"第五保育園","Jusho":"山梨県富士吉田市新屋1236","kouzui":"×","gake":"×","takashio":"×","jishin":"○","tsunami":"×","kaji":"○","naisui":"×","kazan":"○"}}
,{"type":"Feature","geometry":{"type":"Point","coordinates":[138.81906401982,35.484155569316]},"properties":{"Name":"大明見小室浅間神社","Jusho":"山梨県富士吉田市大明見2-1-1","kouzui":"×","gake":"×","takashio":"×","jishin":"○","tsunami":"×","kaji":"○","naisui":"×","kazan":"○"}}
,{"type":"Feature","geometry":{"type":"Point","coordinates":[138.82233556623,35.486675951873]},"properties":{"Name":"第二保育園","Jusho":"山梨県富士吉田市大明見1-17-7","kouzui":"×","gake":"×","takashio":"×","jishin":"○","tsunami":"×","kaji":"○","naisui":"×","kazan":"○"}}
,{"type":"Feature","geometry":{"type":"Point","coordinates":[138.82027457546,35.488024413296]},"properties":{"Name":"大明見会館","Jusho":"山梨県富士吉田市大明見5-1-18","kouzui":"○","gake":"○","takashio":"×","jishin":"○","tsunami":"×","kaji":"○","naisui":"×","kazan":"○"}}
,{"type":"Feature","geometry":{"type":"Point","coordinates":[138.8208152,35.4920619]},"properties":{"Name":"明見中学校","Jusho":"山梨県富士吉田市小明見1-4-14","kouzui":"○","gake":"○","takashio":"×","jishin":"○","tsunami":"×","kaji":"○","naisui":"×","kazan":"○"}}
,{"type":"Feature","geometry":{"type":"Point","coordinates":[138.8219517,35.4926202]},"properties":{"Name":"明見小学校","Jusho":"山梨県富士吉田市小明見1-4-6","kouzui":"○","gake":"○","takashio":"×","jishin":"○","tsunami":"×","kaji":"○","naisui":"×","kazan":"○"}}
,{"type":"Feature","geometry":{"type":"Point","coordinates":[138.82547796678,35.49522458991]},"properties":{"Name":"小明見会館","Jusho":"山梨県富士吉田市小明見4-5-28","kouzui":"○","gake":"○","takashio":"×","jishin":"○","tsunami":"×","kaji":"○","naisui":"×","kazan":"○"}}
,{"type":"Feature","geometry":{"type":"Point","coordinates":[138.83027675269,35.496291414001]},"properties":{"Name":"向原富士浅間神社","Jusho":"山梨県富士吉田市向原1-21-11","kouzui":"×","gake":"×","takashio":"×","jishin":"○","tsunami":"×","kaji":"○","naisui":"×","kazan":"○"}}
,{"type":"Feature","geometry":{"type":"Point","coordinates":[138.8328374,35.4948584]},"properties":{"Name":"向原会館","Jusho":"山梨県富士吉田市向原2-1-5","kouzui":"○","gake":"○","takashio":"×","jishin":"○","tsunami":"×","kaji":"○","naisui":"×","kazan":"○"}}
,{"type":"Feature","geometry":{"type":"Point","coordinates":[138.8279523,35.5071936]},"properties":{"Name":"富士見台中学校","Jusho":"山梨県富士吉田市上暮地1-6-1","kouzui":"○","gake":"○","takashio":"×","jishin":"○","tsunami":"×","kaji":"○","naisui":"×","kazan":"○"}}
,{"type":"Feature","geometry":{"type":"Point","coordinates":[138.8288302,35.5090813]},"properties":{"Name":"富士小学校","Jusho":"山梨県富士吉田市上暮地1-22-1","kouzui":"○","gake":"○","takashio":"×","jishin":"○","tsunami":"×","kaji":"○","naisui":"×","kazan":"○"}}
,{"type":"Feature","geometry":{"type":"Point","coordinates":[138.8290581,35.5135936]},"properties":{"Name":"寿町会館","Jusho":"山梨県富士吉田市上暮地4-7-18","kouzui":"○","gake":"○","takashio":"×","jishin":"○","tsunami":"×","kaji":"○","naisui":"×","kazan":"○"}}
,{"type":"Feature","geometry":{"type":"Point","coordinates":[138.8310542,35.5179847]},"properties":{"Name":"白糸町会館","Jusho":"山梨県富士吉田市上暮地7-1-16","kouzui":"○","gake":"○","takashio":"×","jishin":"○","tsunami":"×","kaji":"○","naisui":"×","kazan":"○"}}
,{"type":"Feature","geometry":{"type":"Point","coordinates":[138.81274511716,35.464591199461]},"properties":{"Name":"鐘山総合スポーツセンター","Jusho":"山梨県富士吉田市上吉田東9-4-18","kouzui":"×","gake":"×","takashio":"×","jishin":"○","tsunami":"×","kaji":"○","naisui":"×","kazan":"○"}}
,{"type":"Feature","geometry":{"type":"Point","coordinates":[138.78967477781,35.491227570432]},"properties":{"Name":"竜ヶ丘会館","Jusho":"山梨県富士吉田市竜ヶ丘3-4-39","kouzui":"○","gake":"○","takashio":"×","jishin":"○","tsunami":"×","kaji":"○","naisui":"×","kazan":"○"}}
,{"type":"Feature","geometry":{"type":"Point","coordinates":[138.79262463836,35.498104077225]},"properties":{"Name":"旭町会館","Jusho":"山梨県富士吉田市旭3-4-1","kouzui":"○","gake":"○","takashio":"×","jishin":"○","tsunami":"×","kaji":"○","naisui":"×","kazan":"○"}}
,{"type":"Feature","geometry":{"type":"Point","coordinates":[138.8180851,35.491217]},"properties":{"Name":"明見コミュニティセンター","Jusho":"山梨県富士吉田市大明見6-16-19","kouzui":"○","gake":"○","takashio":"×","jishin":"○","tsunami":"×","kaji":"○","naisui":"×","kazan":"○"}}
,{"type":"Feature","geometry":{"type":"Point","coordinates":[138.828814,35.493326]},"properties":{"Name":"丸ヶ丘公園","Jusho":"山梨県富士吉田市小明見5-14","kouzui":"×","gake":"×","takashio":"×","jishin":"○","tsunami":"×","kaji":"○","naisui":"×","kazan":"○"}}
,{"type":"Feature","geometry":{"type":"Point","coordinates":[138.8314078,35.5164915]},"properties":{"Name":"上暮地コミュニティセンター","Jusho":"山梨県富士吉田市上暮地4-16-15","kouzui":"○","gake":"○","takashio":"×","jishin":"○","tsunami":"×","kaji":"○","naisui":"×","kazan":"○"}}
,{"type":"Feature","geometry":{"type":"Point","coordinates":[138.8030145,35.4921774]},"properties":{"Name":"中村会館","Jusho":"山梨県富士吉田市下吉田3-12-9","kouzui":"○","gake":"○","takashio":"×","jishin":"○","tsunami":"×","kaji":"○","naisui":"×","kazan":"○"}}
,{"type":"Feature","geometry":{"type":"Point","coordinates":[138.80249918708,35.45963989033]},"properties":{"Name":"富士山アリーナ","Jusho":"山梨県富士吉田市新屋1936","kouzui":"×","gake":"×","takashio":"×","jishin":"○","tsunami":"×","kaji":"○","naisui":"×","kazan":"○"}}
,{"type":"Feature","geometry":{"type":"Point","coordinates":[138.77801213109,35.477164378299]},"properties":{"Name":"青少年センター","Jusho":"山梨県富士吉田市上吉田4433-1","kouzui":"×","gake":"×","takashio":"×","jishin":"○","tsunami":"×","kaji":"○","naisui":"×","kazan":"○"}}
,{"type":"Feature","geometry":{"type":"Point","coordinates":[138.80275698242,35.490331898446]},"properties":{"Name":"中央まちかど公園","Jusho":"山梨県富士吉田市下吉田2-54","kouzui":"×","gake":"×","takashio":"×","jishin":"○","tsunami":"×","kaji":"○","naisui":"×","kazan":"○"}}
,{"type":"Feature","geometry":{"type":"Point","coordinates":[138.7954922,35.4951834]},"properties":{"Name":"下吉田コミュニティセンター","Jusho":"山梨県富士吉田市新町4-12-34","kouzui":"○","gake":"○","takashio":"×","jishin":"○","tsunami":"×","kaji":"○","naisui":"×","kazan":"○"}}
,{"type":"Feature","geometry":{"type":"Point","coordinates":[138.80645102412,35.486034351781]},"properties":{"Name":"下吉田南コミュニティセンター","Jusho":"山梨県富士吉田市下吉田6-16-1","kouzui":"○","gake":"○","takashio":"×","jishin":"○","tsunami":"×","kaji":"○","naisui":"×","kazan":"○"}}
,{"type":"Feature","geometry":{"type":"Point","coordinates":[138.8022676405,35.496519201158]},"properties":{"Name":"新町会館","Jusho":"山梨県富士吉田市新町2-4-15","kouzui":"○","gake":"○","takashio":"×","jishin":"○","tsunami":"×","kaji":"○","naisui":"×","kazan":"○"}}
,{"type":"Feature","geometry":{"type":"Point","coordinates":[138.80244374231,35.482531256419]},"properties":{"Name":"中曽根会館","Jusho":"山梨県富士吉田市中曽根2-9-28","kouzui":"○","gake":"○","takashio":"×","jishin":"○","tsunami":"×","kaji":"○","naisui":"×","kazan":"○"}}
,{"type":"Feature","geometry":{"type":"Point","coordinates":[138.78453195047,35.485000258794]},"properties":{"Name":"松山会館","Jusho":"山梨県富士吉田市新西原3-17-3","kouzui":"○","gake":"○","takashio":"×","jishin":"○","tsunami":"×","kaji":"○","naisui":"×","kazan":"○"}}
,{"type":"Feature","geometry":{"type":"Point","coordinates":[138.80259292842,35.488402974571]},"properties":{"Name":"幸町会館","Jusho":"山梨県富士吉田市下吉田5-14-4","kouzui":"○","gake":"○","takashio":"×","jishin":"○","tsunami":"×","kaji":"○","naisui":"×","kazan":"○"}}
,{"type":"Feature","geometry":{"type":"Point","coordinates":[138.80686634917,35.495175373187]},"properties":{"Name":"仲町会館","Jusho":"山梨県富士吉田市下吉田1-10-5","kouzui":"○","gake":"○","takashio":"×","jishin":"○","tsunami":"×","kaji":"○","naisui":"×","kazan":"○"}}
,{"type":"Feature","geometry":{"type":"Point","coordinates":[138.78903497366,35.471318729668]},"properties":{"Name":"上宿会館","Jusho":"山梨県富士吉田市上吉田5434-1","kouzui":"○","gake":"○","takashio":"×","jishin":"○","tsunami":"×","kaji":"○","naisui":"×","kazan":"○"}}
,{"type":"Feature","geometry":{"type":"Point","coordinates":[138.8056178,35.4943067]},"properties":{"Name":"西町会館","Jusho":"山梨県富士吉田市下吉田1-8-32","kouzui":"○","gake":"○","takashio":"×","jishin":"○","tsunami":"×","kaji":"○","naisui":"×","kazan":"○"}}
,{"type":"Feature","geometry":{"type":"Point","coordinates":[138.79654749209,35.480366727255]},"properties":{"Name":"下宿会館","Jusho":"山梨県富士吉田市上吉田3-14-12","kouzui":"○","gake":"○","takashio":"×","jishin":"○","tsunami":"×","kaji":"○","naisui":"×","kazan":"○"}}
,{"type":"Feature","geometry":{"type":"Point","coordinates":[138.80985205155,35.481634758076]},"properties":{"Name":"御茶屋町会館","Jusho":"山梨県富士吉田市下吉田6-24-24","kouzui":"○","gake":"○","takashio":"×","jishin":"○","tsunami":"×","kaji":"○","naisui":"×","kazan":"○"}}
,{"type":"Feature","geometry":{"type":"Point","coordinates":[138.8053101616,35.455318387396]},"properties":{"Name":"富士散策公園","Jusho":"山梨県富士吉田市新屋1770-12","kouzui":"×","gake":"×","takashio":"×","jishin":"○","tsunami":"×","kaji":"○","naisui":"×","kazan":"○"}}
,{"type":"Feature","geometry":{"type":"Point","coordinates":[138.78345376434,35.474457317615]},"properties":{"Name":"熊穴団地集会場","Jusho":"山梨県富士吉田市上吉田4356","kouzui":"×","gake":"×","takashio":"×","jishin":"○","tsunami":"×","kaji":"○","naisui":"×","kazan":"○"}}
,{"type":"Feature","geometry":{"type":"Point","coordinates":[138.77779112515,35.476407732766]},"properties":{"Name":"習志野市立富士吉田青年の家","Jusho":"山梨県富士吉田市上吉田4443","kouzui":"×","gake":"×","takashio":"×","jishin":"○","tsunami":"×","kaji":"○","naisui":"×","kazan":"○"}}
,{"type":"Feature","geometry":{"type":"Point","coordinates":[138.77781327382,35.490240760551]},"properties":{"Name":"赤坂会館","Jusho":"山梨県富士吉田市新倉3033-5","kouzui":"○","gake":"○","takashio":"×","jishin":"○","tsunami":"×","kaji":"○","naisui":"×","kazan":"○"}}
,{"type":"Feature","geometry":{"type":"Point","coordinates":[138.79917350863,35.493312918535]},"properties":{"Name":"富士学苑高等学校体育館（秀敬館）","Jusho":"山梨県富士吉田市緑ヶ丘1-1-1","kouzui":"○","gake":"○","takashio":"×","jishin":"○","tsunami":"×","kaji":"○","naisui":"×","kazan":"○"}}
,{"type":"Feature","geometry":{"type":"Point","coordinates":[138.79359481233,35.485294353749]},"properties":{"Name":"神田堀駐車場","Jusho":"山梨県富士吉田市松山4丁目4","kouzui":"×","gake":"×","takashio":"×","jishin":"○","tsunami":"×","kaji":"○","naisui":"×","kazan":"○"}}
,{"type":"Feature","geometry":{"type":"Point","coordinates":[138.80001274,35.4933953]},"properties":{"Name":"月江寺境内地","Jusho":"山梨県富士吉田市下吉田3丁目869","kouzui":"×","gake":"×","takashio":"×","jishin":"○","tsunami":"×","kaji":"○","naisui":"×","kazan":"○"}}
,{"type":"Feature","geometry":{"type":"Point","coordinates":[138.80537433878,35.458099952442]},"properties":{"Name":"ふじさんミュージアム","Jusho":"山梨県富士吉田市上吉田東7-27-1","kouzui":"×","gake":"×","takashio":"×","jishin":"○","tsunami":"×","kaji":"○","naisui":"×","kazan":"○"}}
,{"type":"Feature","geometry":{"type":"Point","coordinates":[138.82575145915,35.494083724647]},"properties":{"Name":"第七保育園","Jusho":"山梨県富士吉田市小明見4-9-1","kouzui":"×","gake":"×","takashio":"×","jishin":"○","tsunami":"×","kaji":"○","naisui":"×","kazan":"○"}}
,{"type":"Feature","geometry":{"type":"Point","coordinates":[138.896538,35.537642]},"properties":{"Name":"都留文科大学グラウンド","Jusho":"都留市田原３-８-１","kouzui":"×","gake":"×","takashio":"×","jishin":"○","tsunami":"×","kaji":"×","naisui":"×","kazan":"○"}}
,{"type":"Feature","geometry":{"type":"Point","coordinates":[138.902737,35.544984]},"properties":{"Name":"都留興譲館高等学校　校庭","Jusho":"都留市上谷５-７-１","kouzui":"○","gake":"○","takashio":"×","jishin":"○","tsunami":"×","kaji":"×","naisui":"×","kazan":"○"}}
,{"type":"Feature","geometry":{"type":"Point","coordinates":[138.906524,35.552027]},"properties":{"Name":"谷村第一小学校　校庭","Jusho":"都留市上谷１-１-２","kouzui":"○","gake":"○","takashio":"×","jishin":"○","tsunami":"×","kaji":"×","naisui":"×","kazan":"○"}}
,{"type":"Feature","geometry":{"type":"Point","coordinates":[138.902538,35.552737]},"properties":{"Name":"旧川棚営農指導センター","Jusho":"都留市川棚８０９","kouzui":"×","gake":"×","takashio":"×","jishin":"○","tsunami":"×","kaji":"×","naisui":"×","kazan":"×"}}
,{"type":"Feature","geometry":{"type":"Point","coordinates":[138.910437,35.563437]},"properties":{"Name":"下谷体育館","Jusho":"都留市下谷４-２-１９","kouzui":"○","gake":"○","takashio":"×","jishin":"○","tsunami":"×","kaji":"×","naisui":"×","kazan":"×"}}
,{"type":"Feature","geometry":{"type":"Point","coordinates":[138.916277,35.57063]},"properties":{"Name":"都留第二中学校　校庭","Jusho":"都留市四日市場７５０","kouzui":"○","gake":"○","takashio":"×","jishin":"○","tsunami":"×","kaji":"×","naisui":"×","kazan":"○"}}
,{"type":"Feature","geometry":{"type":"Point","coordinates":[138.912322,35.544231]},"properties":{"Name":"住吉球場","Jusho":"都留市法能３３３","kouzui":"○","gake":"○","takashio":"×","jishin":"○","tsunami":"×","kaji":"×","naisui":"×","kazan":"○"}}
,{"type":"Feature","geometry":{"type":"Point","coordinates":[138.926572,35.551727]},"properties":{"Name":"谷村第二小学校　校庭","Jusho":"都留市法能９２３","kouzui":"○","gake":"○","takashio":"×","jishin":"○","tsunami":"×","kaji":"×","naisui":"×","kazan":"×"}}
,{"type":"Feature","geometry":{"type":"Point","coordinates":[138.920725,35.528669]},"properties":{"Name":"都留文科大学付属小学校　校庭","Jusho":"都留市大野３９６","kouzui":"×","gake":"×","takashio":"×","jishin":"○","tsunami":"×","kaji":"×","naisui":"×","kazan":"×"}}
,{"type":"Feature","geometry":{"type":"Point","coordinates":[138.87265,35.535856]},"properties":{"Name":"東桂小学校　校庭","Jusho":"都留市桂町７９６-１","kouzui":"○","gake":"○","takashio":"×","jishin":"○","tsunami":"×","kaji":"×","naisui":"×","kazan":"×"}}
,{"type":"Feature","geometry":{"type":"Point","coordinates":[138.872392,35.532936]},"properties":{"Name":"東桂中学校　校庭","Jusho":"都留市桂町８４０","kouzui":"×","gake":"×","takashio":"×","jishin":"○","tsunami":"×","kaji":"×","naisui":"×","kazan":"×"}}
,{"type":"Feature","geometry":{"type":"Point","coordinates":[138.929936,35.574405]},"properties":{"Name":"禾生第一小学校　校庭","Jusho":"都留市古川渡５５３","kouzui":"○","gake":"○","takashio":"×","jishin":"○","tsunami":"×","kaji":"×","naisui":"×","kazan":"○"}}
,{"type":"Feature","geometry":{"type":"Point","coordinates":[138.926202,35.591266]},"properties":{"Name":"禾生第二小学校　校庭","Jusho":"都留市小形山７５３","kouzui":"○","gake":"○","takashio":"×","jishin":"○","tsunami":"×","kaji":"×","naisui":"×","kazan":"○"}}
,{"type":"Feature","geometry":{"type":"Point","coordinates":[138.877669,35.562858]},"properties":{"Name":"宝小学校　校庭","Jusho":"都留市大幡１１４３","kouzui":"○","gake":"○","takashio":"×","jishin":"○","tsunami":"×","kaji":"×","naisui":"×","kazan":"○"}}
,{"type":"Feature","geometry":{"type":"Point","coordinates":[138.943626,35.562856]},"properties":{"Name":"旧与縄営農指導センター","Jusho":"都留市盛里１３４-１","kouzui":"×","gake":"×","takashio":"×","jishin":"○","tsunami":"×","kaji":"×","naisui":"×","kazan":"×"}}
,{"type":"Feature","geometry":{"type":"Point","coordinates":[138.974284,35.56291]},"properties":{"Name":"旭小学校　校庭","Jusho":"都留市朝日馬場５４４","kouzui":"○","gake":"○","takashio":"×","jishin":"○","tsunami":"×","kaji":"×","naisui":"×","kazan":"○"}}
,{"type":"Feature","geometry":{"type":"Point","coordinates":[138.68541351744,35.681791745628]},"properties":{"Name":"加納岩小学校グラウンド","Jusho":"山梨県山梨市下神内川123-2","kouzui":"○","gake":"○","takashio":"×","jishin":"○","tsunami":"×","kaji":"×","naisui":"×","kazan":"×"}}
,{"type":"Feature","geometry":{"type":"Point","coordinates":[138.68603578993,35.672422892948]},"properties":{"Name":"山梨南中学校グラウンド","Jusho":"山梨県山梨市下石森287","kouzui":"×","gake":"○","takashio":"×","jishin":"○","tsunami":"×","kaji":"×","naisui":"×","kazan":"×"}}
,{"type":"Feature","geometry":{"type":"Point","coordinates":[138.67439783932,35.673613232819]},"properties":{"Name":"県立ろう学校グラウンド","Jusho":"山梨県山梨市大野1009","kouzui":"×","gake":"○","takashio":"×","jishin":"○","tsunami":"×","kaji":"×","naisui":"×","kazan":"×"}}
,{"type":"Feature","geometry":{"type":"Point","coordinates":[138.69931420758,35.697290968188]},"properties":{"Name":"日下部小学校グラウンド","Jusho":"山梨県山梨市小原東305","kouzui":"○","gake":"○","takashio":"×","jishin":"○","tsunami":"×","kaji":"×","naisui":"×","kazan":"×"}}
,{"type":"Feature","geometry":{"type":"Point","coordinates":[138.69751466459,35.699275979035]},"properties":{"Name":"山梨北中学校グラウンド","Jusho":"山梨県山梨市小原東359","kouzui":"○","gake":"○","takashio":"×","jishin":"○","tsunami":"×","kaji":"×","naisui":"×","kazan":"×"}}
,{"type":"Feature","geometry":{"type":"Point","coordinates":[138.68411560389,35.706659745874]},"properties":{"Name":"八幡小学校グラウンド","Jusho":"山梨県山梨市北1889","kouzui":"○","gake":"○","takashio":"×","jishin":"○","tsunami":"×","kaji":"×","naisui":"×","kazan":"×"}}
,{"type":"Feature","geometry":{"type":"Point","coordinates":[138.66396405732,35.717106342479]},"properties":{"Name":"旧堀之内小学校グラウンド","Jusho":"山梨県山梨市堀内1936","kouzui":"○","gake":"×","takashio":"×","jishin":"○","tsunami":"×","kaji":"×","naisui":"×","kazan":"×"}}
,{"type":"Feature","geometry":{"type":"Point","coordinates":[138.67469713359,35.709487604024]},"properties":{"Name":"八幡スポーツ広場","Jusho":"山梨県山梨市市川1220","kouzui":"○","gake":"○","takashio":"×","jishin":"○","tsunami":"×","kaji":"×","naisui":"×","kazan":"×"}}
,{"type":"Feature","geometry":{"type":"Point","coordinates":[138.66612735569,35.68400486103]},"properties":{"Name":"山梨小学校グラウンド","Jusho":"山梨県山梨市落合3","kouzui":"×","gake":"○","takashio":"×","jishin":"○","tsunami":"×","kaji":"×","naisui":"×","kazan":"×"}}
,{"type":"Feature","geometry":{"type":"Point","coordinates":[138.68197875092,35.693600656737]},"properties":{"Name":"山梨市民会館駐車場","Jusho":"山梨県山梨市万力1830","kouzui":"○","gake":"○","takashio":"×","jishin":"○","tsunami":"×","kaji":"×","naisui":"×","kazan":"×"}}
,{"type":"Feature","geometry":{"type":"Point","coordinates":[138.69008706878,35.66518988139]},"properties":{"Name":"日川小学校グラウンド","Jusho":"山梨県山梨市歌田143","kouzui":"×","gake":"○","takashio":"×","jishin":"○","tsunami":"×","kaji":"×","naisui":"×","kazan":"×"}}
,{"type":"Feature","geometry":{"type":"Point","coordinates":[138.68264734024,35.663574114481]},"properties":{"Name":"県立日川高等学校グラウンド","Jusho":"山梨県山梨市一町田中1062","kouzui":"×","gake":"○","takashio":"×","jishin":"○","tsunami":"×","kaji":"×","naisui":"×","kazan":"×"}}
,{"type":"Feature","geometry":{"type":"Point","coordinates":[138.70424101201,35.688983891943]},"properties":{"Name":"後屋敷小学校グラウンド","Jusho":"山梨県山梨市三ヶ所877","kouzui":"○","gake":"○","takashio":"×","jishin":"○","tsunami":"×","kaji":"×","naisui":"×","kazan":"×"}}
,{"type":"Feature","geometry":{"type":"Point","coordinates":[138.69707955321,35.715410489911]},"properties":{"Name":"岩手小学校グラウンド","Jusho":"山梨県山梨市東1760","kouzui":"○","gake":"○","takashio":"×","jishin":"○","tsunami":"×","kaji":"×","naisui":"×","kazan":"×"}}
,{"type":"Feature","geometry":{"type":"Point","coordinates":[138.71374662411,35.736471035517]},"properties":{"Name":"花かげの湯前庭","Jusho":"山梨県山梨市牧丘町窪平453-1","kouzui":"○","gake":"○","takashio":"×","jishin":"○","tsunami":"×","kaji":"×","naisui":"×","kazan":"×"}}
,{"type":"Feature","geometry":{"type":"Point","coordinates":[138.71429886965,35.740027872713]},"properties":{"Name":"牧丘町コミュニティセンター前庭・駐車場","Jusho":"山梨県山梨市牧丘町窪平56","kouzui":"○","gake":"○","takashio":"×","jishin":"○","tsunami":"×","kaji":"×","naisui":"×","kazan":"×"}}
,{"type":"Feature","geometry":{"type":"Point","coordinates":[138.71453352302,35.739051230297]},"properties":{"Name":"牧丘町総合会館駐車場","Jusho":"山梨県山梨市牧丘町窪平350","kouzui":"○","gake":"○","takashio":"×","jishin":"○","tsunami":"×","kaji":"×","naisui":"×","kazan":"×"}}
,{"type":"Feature","geometry":{"type":"Point","coordinates":[138.71849924818,35.754223860656]},"properties":{"Name":"道の駅花かげの郷まきおか駐車場","Jusho":"山梨県山梨市牧丘町室伏2120","kouzui":"○","gake":"×","takashio":"×","jishin":"○","tsunami":"×","kaji":"×","naisui":"×","kazan":"×"}}
,{"type":"Feature","geometry":{"type":"Point","coordinates":[138.65448397894,35.810274124971]},"properties":{"Name":"柳平分校グラウンド","Jusho":"山梨県山梨市牧丘町柳平43","kouzui":"○","gake":"○","takashio":"×","jishin":"○","tsunami":"×","kaji":"×","naisui":"×","kazan":"×"}}
,{"type":"Feature","geometry":{"type":"Point","coordinates":[138.71367848893,35.743530568085]},"properties":{"Name":"笛川中学校グラウンド","Jusho":"山梨県山梨市牧丘町窪平1100","kouzui":"○","gake":"○","takashio":"×","jishin":"○","tsunami":"×","kaji":"×","naisui":"×","kazan":"×"}}
,{"type":"Feature","geometry":{"type":"Point","coordinates":[138.71361874439,35.746178556105]},"properties":{"Name":"笛川小学校グラウンド","Jusho":"山梨県山梨市牧丘町窪平1200","kouzui":"○","gake":"○","takashio":"×","jishin":"○","tsunami":"×","kaji":"×","naisui":"×","kazan":"×"}}
,{"type":"Feature","geometry":{"type":"Point","coordinates":[138.69565800569,35.747439184005]},"properties":{"Name":"旧牧丘第二小学校グラウンド","Jusho":"山梨県山梨市牧丘町倉科5938-2","kouzui":"○","gake":"○","takashio":"×","jishin":"○","tsunami":"×","kaji":"×","naisui":"×","kazan":"×"}}
,{"type":"Feature","geometry":{"type":"Point","coordinates":[138.69228509063,35.742100142096]},"properties":{"Name":"中牧多目的集会施設前庭","Jusho":"山梨県山梨市牧丘町西保下2230","kouzui":"○","gake":"○","takashio":"×","jishin":"○","tsunami":"×","kaji":"×","naisui":"×","kazan":"×"}}
,{"type":"Feature","geometry":{"type":"Point","coordinates":[138.68586403277,35.758732462128]},"properties":{"Name":"旧保健農園ホテル・フフ山梨庭園","Jusho":"山梨県山梨市牧丘町倉科7190","kouzui":"○","gake":"○","takashio":"×","jishin":"○","tsunami":"×","kaji":"×","naisui":"×","kazan":"×"}}
,{"type":"Feature","geometry":{"type":"Point","coordinates":[138.65272365931,35.745491507167]},"properties":{"Name":"旧牧丘第三小学校グラウンド","Jusho":"山梨県山梨市牧丘町牧平16","kouzui":"○","gake":"×","takashio":"×","jishin":"○","tsunami":"×","kaji":"×","naisui":"×","kazan":"×"}}
,{"type":"Feature","geometry":{"type":"Point","coordinates":[138.73787416764,35.770932102558]},"properties":{"Name":"旧三富保育園前庭","Jusho":"山梨県山梨市三富下荻原120","kouzui":"○","gake":"×","takashio":"×","jishin":"○","tsunami":"×","kaji":"×","naisui":"×","kazan":"×"}}
,{"type":"Feature","geometry":{"type":"Point","coordinates":[138.73873214729,35.781136904721]},"properties":{"Name":"旧三富小学校グラウンド","Jusho":"山梨県山梨市三富下釜口165-1","kouzui":"○","gake":"×","takashio":"×","jishin":"○","tsunami":"×","kaji":"×","naisui":"×","kazan":"×"}}
,{"type":"Feature","geometry":{"type":"Point","coordinates":[138.72533001445,35.791061966043]},"properties":{"Name":"徳和地区多目的集会施設前庭","Jusho":"山梨県山梨市三富徳和628","kouzui":"○","gake":"○","takashio":"×","jishin":"○","tsunami":"×","kaji":"×","naisui":"×","kazan":"×"}}
,{"type":"Feature","geometry":{"type":"Point","coordinates":[138.73893430606,35.792924118346]},"properties":{"Name":"三富基幹集落センタ-前庭","Jusho":"山梨県山梨市三富川浦262","kouzui":"○","gake":"○","takashio":"×","jishin":"○","tsunami":"×","kaji":"×","naisui":"×","kazan":"×"}}
,{"type":"Feature","geometry":{"type":"Point","coordinates":[138.73818328753,35.788846871073]},"properties":{"Name":"三富川浦スポ-ツ広場","Jusho":"山梨県山梨市三富川浦1394","kouzui":"○","gake":"×","takashio":"×","jishin":"○","tsunami":"×","kaji":"×","naisui":"×","kazan":"×"}}
,{"type":"Feature","geometry":{"type":"Point","coordinates":[138.75874154965,35.850747834408]},"properties":{"Name":"広瀬地区集会所前庭","Jusho":"山梨県山梨市三富川浦1819-189","kouzui":"○","gake":"○","takashio":"×","jishin":"○","tsunami":"×","kaji":"×","naisui":"×","kazan":"×"}}
,{"type":"Feature","geometry":{"type":"Point","coordinates":[138.83107302403,35.605224059571]},"properties":{"Name":"旧笹子小学校","Jusho":"山梨県大月市笹子町吉久保１９６","kouzui":"○","gake":"○","takashio":"×","jishin":"○","tsunami":"×","kaji":"×","naisui":"×","kazan":"×"}}
,{"type":"Feature","geometry":{"type":"Point","coordinates":[138.827583,35.603752]},"properties":{"Name":"笹子公民館（西部ふれあいセンター）","Jusho":"山梨県大月市笹子町黒野田１３５９-７","kouzui":"○","gake":"○","takashio":"×","jishin":"○","tsunami":"×","kaji":"×","naisui":"×","kazan":"×"}}
,{"type":"Feature","geometry":{"type":"Point","coordinates":[138.878461,35.596718]},"properties":{"Name":"旧初狩小学校","Jusho":"山梨県大月市初狩町中初狩２１","kouzui":"○","gake":"○","takashio":"×","jishin":"○","tsunami":"×","kaji":"×","naisui":"×","kazan":"×"}}
,{"type":"Feature","geometry":{"type":"Point","coordinates":[138.884335,35.59891]},"properties":{"Name":"初狩小学校","Jusho":"山梨県大月市初狩町下初狩１１４４","kouzui":"○","gake":"○","takashio":"×","jishin":"○","tsunami":"×","kaji":"×","naisui":"×","kazan":"×"}}
,{"type":"Feature","geometry":{"type":"Point","coordinates":[138.893256,35.631576]},"properties":{"Name":"真木公民館間明野分館","Jusho":"山梨県大月市大月町真木６４６９","kouzui":"○","gake":"○","takashio":"×","jishin":"○","tsunami":"×","kaji":"×","naisui":"×","kazan":"×"}}
,{"type":"Feature","geometry":{"type":"Point","coordinates":[138.9060458324,35.609306068715]},"properties":{"Name":"旧大月西小学校","Jusho":"山梨県大月市大月町真木２２８８","kouzui":"○","gake":"○","takashio":"×","jishin":"○","tsunami":"×","kaji":"×","naisui":"×","kazan":"×"}}
,{"type":"Feature","geometry":{"type":"Point","coordinates":[138.927198,35.604547]},"properties":{"Name":"総合福祉センター","Jusho":"山梨県大月市大月町花咲１０","kouzui":"○","gake":"○","takashio":"×","jishin":"○","tsunami":"×","kaji":"×","naisui":"×","kazan":"×"}}
,{"type":"Feature","geometry":{"type":"Point","coordinates":[138.9361178626,35.611158783643]},"properties":{"Name":"大月東中学校","Jusho":"山梨県大月市大月２-１５-１１","kouzui":"○","gake":"○","takashio":"×","jishin":"○","tsunami":"×","kaji":"×","naisui":"×","kazan":"×"}}
,{"type":"Feature","geometry":{"type":"Point","coordinates":[138.9407,35.610344]},"properties":{"Name":"大月東小学校","Jusho":"山梨県大月市大月２-７-４３","kouzui":"○","gake":"○","takashio":"×","jishin":"○","tsunami":"×","kaji":"×","naisui":"×","kazan":"×"}}
,{"type":"Feature","geometry":{"type":"Point","coordinates":[138.946494,35.612844]},"properties":{"Name":"大月短期大学","Jusho":"山梨県大月市御太刀１-１６-２","kouzui":"○","gake":"○","takashio":"×","jishin":"○","tsunami":"×","kaji":"×","naisui":"×","kazan":"×"}}
,{"type":"Feature","geometry":{"type":"Point","coordinates":[138.94921440029,35.615817835271]},"properties":{"Name":"大月市民会館","Jusho":"山梨県大月市御太刀２-１１-２２","kouzui":"○","gake":"○","takashio":"×","jishin":"○","tsunami":"×","kaji":"×","naisui":"×","kazan":"×"}}
,{"type":"Feature","geometry":{"type":"Point","coordinates":[138.92560636532,35.620962519318]},"properties":{"Name":"（社福）山の都福祉会","Jusho":"山梨県大月市賑岡町浅利１１０８-６","kouzui":"○","gake":"×","takashio":"×","jishin":"○","tsunami":"×","kaji":"×","naisui":"×","kazan":"×"}}
,{"type":"Feature","geometry":{"type":"Point","coordinates":[138.956659,35.615816]},"properties":{"Name":"旧強瀬小学校","Jusho":"山梨県大月市賑岡町強瀬７４７","kouzui":"○","gake":"×","takashio":"×","jishin":"○","tsunami":"×","kaji":"×","naisui":"×","kazan":"×"}}
,{"type":"Feature","geometry":{"type":"Point","coordinates":[138.94765952867,35.628312442535]},"properties":{"Name":"賑岡公民館","Jusho":"山梨県大月市賑岡町畑倉１２８８-１","kouzui":"○","gake":"○","takashio":"×","jishin":"○","tsunami":"×","kaji":"×","naisui":"×","kazan":"×"}}
,{"type":"Feature","geometry":{"type":"Point","coordinates":[138.97556497818,35.624501821121]},"properties":{"Name":"七保公民館下和田分館","Jusho":"山梨県大月市七保町下和田１０２１","kouzui":"○","gake":"○","takashio":"×","jishin":"○","tsunami":"×","kaji":"×","naisui":"×","kazan":"×"}}
,{"type":"Feature","geometry":{"type":"Point","coordinates":[138.9555,35.631808]},"properties":{"Name":"七保小学校","Jusho":"山梨県大月市七保町葛野２３４５","kouzui":"○","gake":"○","takashio":"×","jishin":"○","tsunami":"×","kaji":"×","naisui":"×","kazan":"×"}}
,{"type":"Feature","geometry":{"type":"Point","coordinates":[138.950293,35.660616]},"properties":{"Name":"旧奈良子保育所","Jusho":"山梨県大月市七保町奈良子９-３","kouzui":"○","gake":"×","takashio":"×","jishin":"○","tsunami":"×","kaji":"×","naisui":"×","kazan":"×"}}
,{"type":"Feature","geometry":{"type":"Point","coordinates":[138.989177,35.654103]},"properties":{"Name":"七保公民館浅川分館","Jusho":"山梨県大月市七保町浅川１０２７","kouzui":"○","gake":"×","takashio":"×","jishin":"○","tsunami":"×","kaji":"×","naisui":"×","kazan":"×"}}
,{"type":"Feature","geometry":{"type":"Point","coordinates":[138.96754817719,35.664020861154]},"properties":{"Name":"旧瀬戸小学校","Jusho":"山梨県大月市七保町瀬戸１０００","kouzui":"○","gake":"○","takashio":"×","jishin":"○","tsunami":"×","kaji":"×","naisui":"×","kazan":"×"}}
,{"type":"Feature","geometry":{"type":"Point","coordinates":[138.96066624909,35.691317241172]},"properties":{"Name":"旧上和田小学校","Jusho":"山梨県大月市七保町瀬戸１９０９-１","kouzui":"○","gake":"○","takashio":"×","jishin":"○","tsunami":"×","kaji":"×","naisui":"×","kazan":"×"}}
,{"type":"Feature","geometry":{"type":"Point","coordinates":[138.994063,35.604487]},"properties":{"Name":"猿橋公民館藤崎分館","Jusho":"山梨県大月市猿橋町藤崎１５２２-１","kouzui":"○","gake":"○","takashio":"×","jishin":"○","tsunami":"×","kaji":"×","naisui":"×","kazan":"×"}}
,{"type":"Feature","geometry":{"type":"Point","coordinates":[138.966958,35.592757]},"properties":{"Name":"猿橋公民館小沢分館","Jusho":"山梨県大月市猿橋町小沢１４５２","kouzui":"○","gake":"×","takashio":"×","jishin":"○","tsunami":"×","kaji":"×","naisui":"×","kazan":"×"}}
,{"type":"Feature","geometry":{"type":"Point","coordinates":[138.982545,35.611978]},"properties":{"Name":"猿橋小学校","Jusho":"山梨県大月市猿橋町伊良原４８","kouzui":"○","gake":"○","takashio":"×","jishin":"○","tsunami":"×","kaji":"×","naisui":"×","kazan":"×"}}
,{"type":"Feature","geometry":{"type":"Point","coordinates":[138.980482,35.616963]},"properties":{"Name":"猿橋中学校","Jusho":"山梨県大月市猿橋町猿橋５６７","kouzui":"○","gake":"○","takashio":"×","jishin":"○","tsunami":"×","kaji":"×","naisui":"×","kazan":"×"}}
,{"type":"Feature","geometry":{"type":"Point","coordinates":[138.967628,35.614555]},"properties":{"Name":"猿橋公民館殿上分館","Jusho":"山梨県大月市猿橋町殿上４-１","kouzui":"○","gake":"×","takashio":"×","jishin":"○","tsunami":"×","kaji":"×","naisui":"×","kazan":"×"}}
,{"type":"Feature","geometry":{"type":"Point","coordinates":[138.970641,35.610362]},"properties":{"Name":"猿橋公民館桂台分館","Jusho":"山梨県大月市猿橋町桂台１-１９-１","kouzui":"○","gake":"×","takashio":"×","jishin":"○","tsunami":"×","kaji":"×","naisui":"×","kazan":"×"}}
,{"type":"Feature","geometry":{"type":"Point","coordinates":[139.005159,35.610098]},"properties":{"Name":"鳥沢小学校","Jusho":"山梨県大月市富浜町鳥沢１９７９","kouzui":"○","gake":"○","takashio":"×","jishin":"○","tsunami":"×","kaji":"×","naisui":"×","kazan":"×"}}
,{"type":"Feature","geometry":{"type":"Point","coordinates":[138.999321,35.605357]},"properties":{"Name":"旧富浜中学校","Jusho":"山梨県大月市富浜町鳥沢５６２","kouzui":"○","gake":"○","takashio":"×","jishin":"○","tsunami":"×","kaji":"×","naisui":"×","kazan":"×"}}
,{"type":"Feature","geometry":{"type":"Point","coordinates":[138.990208,35.622721]},"properties":{"Name":"旧宮谷小学校","Jusho":"山梨県大月市富浜町宮谷９１５","kouzui":"○","gake":"×","takashio":"×","jishin":"○","tsunami":"×","kaji":"×","naisui":"×","kazan":"×"}}
,{"type":"Feature","geometry":{"type":"Point","coordinates":[139.042828,35.600306]},"properties":{"Name":"（学法）自然学園高等学校（旧梁川小学校）","Jusho":"山梨県大月市梁川町綱の上１２２５","kouzui":"○","gake":"○","takashio":"×","jishin":"○","tsunami":"×","kaji":"×","naisui":"×","kazan":"×"}}
,{"type":"Feature","geometry":{"type":"Point","coordinates":[139.04214208889,35.602238188605]},"properties":{"Name":"旧梁川中学校","Jusho":"山梨県大月市富浜町宮谷1518-1","kouzui":"○","gake":"×","takashio":"×","jishin":"○","tsunami":"×","kaji":"×","naisui":"×","kazan":"×"}}
,{"type":"Feature","geometry":{"type":"Point","coordinates":[138.453329,35.706715]},"properties":{"Name":"韮崎小学校","Jusho":"山梨県韮崎市本町2-2-41","kouzui":"○","gake":"○","takashio":"×","jishin":"○","tsunami":"×","kaji":"×","naisui":"×","kazan":"×"}}
,{"type":"Feature","geometry":{"type":"Point","coordinates":[138.452729,35.70773]},"properties":{"Name":"韮崎児童センター","Jusho":"山梨県韮崎市本町2-1-7","kouzui":"×","gake":"×","takashio":"×","jishin":"○","tsunami":"×","kaji":"×","naisui":"×","kazan":"×"}}
,{"type":"Feature","geometry":{"type":"Point","coordinates":[138.450395,35.714969]},"properties":{"Name":"韮崎高等学校","Jusho":"山梨県韮崎市若宮3-2-1","kouzui":"○","gake":"○","takashio":"×","jishin":"○","tsunami":"×","kaji":"×","naisui":"×","kazan":"×"}}
,{"type":"Feature","geometry":{"type":"Point","coordinates":[138.424677,35.730243]},"properties":{"Name":"祖母石公民館","Jusho":"山梨県韮崎市下祖母石370","kouzui":"×","gake":"×","takashio":"×","jishin":"○","tsunami":"×","kaji":"×","naisui":"×","kazan":"×"}}
,{"type":"Feature","geometry":{"type":"Point","coordinates":[138.483546,35.736376]},"properties":{"Name":"穂坂小学校","Jusho":"山梨県韮崎市穂坂町宮久保6121","kouzui":"○","gake":"○","takashio":"×","jishin":"○","tsunami":"×","kaji":"×","naisui":"×","kazan":"×"}}
,{"type":"Feature","geometry":{"type":"Point","coordinates":[138.481453,35.734377]},"properties":{"Name":"穂坂公民館（コミュニティセンター）","Jusho":"山梨県韮崎市穂坂町宮久保6196-1","kouzui":"○","gake":"○","takashio":"×","jishin":"○","tsunami":"×","kaji":"×","naisui":"×","kazan":"×"}}
,{"type":"Feature","geometry":{"type":"Point","coordinates":[138.470293,35.728653]},"properties":{"Name":"勤労青年センター","Jusho":"山梨県韮崎市穂坂町宮久保5136-2","kouzui":"○","gake":"○","takashio":"×","jishin":"○","tsunami":"×","kaji":"×","naisui":"×","kazan":"×"}}
,{"type":"Feature","geometry":{"type":"Point","coordinates":[138.437932,35.748012]},"properties":{"Name":"健康ふれあいセンター　","Jusho":"山梨県韮崎市中田町中條1800-1","kouzui":"○","gake":"○","takashio":"×","jishin":"○","tsunami":"×","kaji":"×","naisui":"×","kazan":"×"}}
,{"type":"Feature","geometry":{"type":"Point","coordinates":[138.436796,35.743714]},"properties":{"Name":"中田公民館","Jusho":"山梨県韮崎市中田町中條490-1","kouzui":"○","gake":"○","takashio":"×","jishin":"○","tsunami":"×","kaji":"×","naisui":"×","kazan":"×"}}
,{"type":"Feature","geometry":{"type":"Point","coordinates":[138.436743,35.74372]},"properties":{"Name":"中田屋内運動場","Jusho":"山梨県韮崎市中田町中條490-1","kouzui":"○","gake":"○","takashio":"×","jishin":"○","tsunami":"×","kaji":"×","naisui":"×","kazan":"×"}}
,{"type":"Feature","geometry":{"type":"Point","coordinates":[138.418063,35.755448]},"properties":{"Name":"穴山公民館","Jusho":"山梨県韮崎市穴山町4487-1","kouzui":"○","gake":"○","takashio":"×","jishin":"○","tsunami":"×","kaji":"×","naisui":"×","kazan":"×"}}
,{"type":"Feature","geometry":{"type":"Point","coordinates":[138.442102,35.732449]},"properties":{"Name":"韮崎北東小学校","Jusho":"山梨県韮崎市藤井町駒井1912","kouzui":"○","gake":"○","takashio":"×","jishin":"○","tsunami":"×","kaji":"×","naisui":"×","kazan":"×"}}
,{"type":"Feature","geometry":{"type":"Point","coordinates":[138.444068,35.733981]},"properties":{"Name":"北東児童センター","Jusho":"山梨県韮崎市藤井町駒井2248-1","kouzui":"×","gake":"×","takashio":"×","jishin":"○","tsunami":"×","kaji":"×","naisui":"×","kazan":"×"}}
,{"type":"Feature","geometry":{"type":"Point","coordinates":[138.44387,35.72838]},"properties":{"Name":"東京エレクトロン韮崎文化ホール","Jusho":"山梨県韮崎市藤井町坂井205","kouzui":"○","gake":"○","takashio":"×","jishin":"○","tsunami":"×","kaji":"×","naisui":"×","kazan":"×"}}
,{"type":"Feature","geometry":{"type":"Point","coordinates":[138.443811,35.728896]},"properties":{"Name":"藤井公民館","Jusho":"山梨県韮崎市藤井町坂井119-1","kouzui":"×","gake":"×","takashio":"×","jishin":"○","tsunami":"×","kaji":"×","naisui":"×","kazan":"×"}}
,{"type":"Feature","geometry":{"type":"Point","coordinates":[138.451041,35.718198]},"properties":{"Name":"韮崎東中学校","Jusho":"山梨県韮崎市藤井町南下條371","kouzui":"○","gake":"○","takashio":"×","jishin":"○","tsunami":"×","kaji":"×","naisui":"×","kazan":"×"}}
,{"type":"Feature","geometry":{"type":"Point","coordinates":[138.398421,35.75985]},"properties":{"Name":"円野公民館","Jusho":"山梨県韮崎市円野町下円井1199-3","kouzui":"×","gake":"×","takashio":"×","jishin":"○","tsunami":"×","kaji":"×","naisui":"×","kazan":"×"}}
,{"type":"Feature","geometry":{"type":"Point","coordinates":[138.39766,35.760117]},"properties":{"Name":"円野屋内運動場","Jusho":"山梨県韮崎市円野町下円井1239","kouzui":"×","gake":"×","takashio":"×","jishin":"○","tsunami":"×","kaji":"×","naisui":"×","kazan":"×"}}
,{"type":"Feature","geometry":{"type":"Point","coordinates":[138.416133,35.722907]},"properties":{"Name":"清哲公民館","Jusho":"山梨県韮崎市清哲町青木2309-1","kouzui":"○","gake":"○","takashio":"×","jishin":"○","tsunami":"×","kaji":"×","naisui":"×","kazan":"×"}}
,{"type":"Feature","geometry":{"type":"Point","coordinates":[138.417417,35.728764]},"properties":{"Name":"北西児童センター","Jusho":"山梨県韮崎市清哲町青木1078-1","kouzui":"×","gake":"×","takashio":"×","jishin":"○","tsunami":"×","kaji":"×","naisui":"×","kazan":"×"}}
,{"type":"Feature","geometry":{"type":"Point","coordinates":[138.417715,35.728338]},"properties":{"Name":"韮崎北西小学校","Jusho":"山梨県韮崎市清哲町青木193-1","kouzui":"×","gake":"×","takashio":"×","jishin":"○","tsunami":"×","kaji":"×","naisui":"×","kazan":"×"}}
,{"type":"Feature","geometry":{"type":"Point","coordinates":[138.426094,35.705764]},"properties":{"Name":"神山公民館","Jusho":"山梨県韮崎市神山町北宮地945-3","kouzui":"×","gake":"×","takashio":"×","jishin":"○","tsunami":"×","kaji":"×","naisui":"×","kazan":"×"}}
,{"type":"Feature","geometry":{"type":"Point","coordinates":[138.424754,35.705327]},"properties":{"Name":"神山屋内運動場","Jusho":"山梨県韮崎市神山町北宮地1019","kouzui":"×","gake":"×","takashio":"×","jishin":"○","tsunami":"×","kaji":"×","naisui":"×","kazan":"×"}}
,{"type":"Feature","geometry":{"type":"Point","coordinates":[138.439059,35.70939]},"properties":{"Name":"韮崎西中学校","Jusho":"山梨県韮崎市神山町鍋山1-1","kouzui":"×","gake":"×","takashio":"×","jishin":"○","tsunami":"×","kaji":"×","naisui":"×","kazan":"×"}}
,{"type":"Feature","geometry":{"type":"Point","coordinates":[138.437636,35.688826]},"properties":{"Name":"旭公民館","Jusho":"山梨県韮崎市旭町上條北割3879-1","kouzui":"×","gake":"×","takashio":"×","jishin":"○","tsunami":"×","kaji":"×","naisui":"×","kazan":"×"}}
,{"type":"Feature","geometry":{"type":"Point","coordinates":[138.437671,35.688375]},"properties":{"Name":"旭屋内運動場","Jusho":"山梨県韮崎市旭町上條北割3879-1","kouzui":"○","gake":"○","takashio":"×","jishin":"○","tsunami":"×","kaji":"×","naisui":"×","kazan":"×"}}
,{"type":"Feature","geometry":{"type":"Point","coordinates":[138.440163,35.667174]},"properties":{"Name":"みだい体育センター","Jusho":"山梨県韮崎市旭町上條南割3314-15","kouzui":"×","gake":"×","takashio":"×","jishin":"○","tsunami":"×","kaji":"×","naisui":"×","kazan":"×"}}
,{"type":"Feature","geometry":{"type":"Point","coordinates":[138.451581,35.68737]},"properties":{"Name":"甘利小学校","Jusho":"山梨県韮崎市大草町上條東割821-1","kouzui":"○","gake":"○","takashio":"×","jishin":"○","tsunami":"×","kaji":"×","naisui":"×","kazan":"×"}}
,{"type":"Feature","geometry":{"type":"Point","coordinates":[138.451235,35.685705]},"properties":{"Name":"大草公民館","Jusho":"山梨県韮崎市大草町上條東割788","kouzui":"○","gake":"○","takashio":"×","jishin":"○","tsunami":"×","kaji":"×","naisui":"×","kazan":"×"}}
,{"type":"Feature","geometry":{"type":"Point","coordinates":[138.451259,35.685503]},"properties":{"Name":"甘利児童センター","Jusho":"山梨県韮崎市大草町上條東割788","kouzui":"○","gake":"○","takashio":"×","jishin":"○","tsunami":"×","kaji":"×","naisui":"×","kazan":"×"}}
,{"type":"Feature","geometry":{"type":"Point","coordinates":[138.450096,35.700349]},"properties":{"Name":"韮崎工業高等学校","Jusho":"山梨県韮崎市龍岡町若尾新田50-1","kouzui":"×","gake":"×","takashio":"×","jishin":"○","tsunami":"×","kaji":"×","naisui":"×","kazan":"×"}}
,{"type":"Feature","geometry":{"type":"Point","coordinates":[138.466065,35.678791]},"properties":{"Name":"竜岡公民館","Jusho":"山梨県韮崎市龍岡町下條南割1007","kouzui":"○","gake":"○","takashio":"×","jishin":"○","tsunami":"×","kaji":"×","naisui":"×","kazan":"×"}}
,{"type":"Feature","geometry":{"type":"Point","coordinates":[138.465501,35.678863]},"properties":{"Name":"竜岡体育館","Jusho":"山梨県韮崎市龍岡町下條南割1007","kouzui":"○","gake":"○","takashio":"×","jishin":"○","tsunami":"×","kaji":"×","naisui":"×","kazan":"×"}}
,{"type":"Feature","geometry":{"type":"Point","coordinates":[138.478622,35.675053]},"properties":{"Name":"エコパークたつおかコミュニティセンター ","Jusho":"山梨県韮崎市龍岡町下條南割1895","kouzui":"×","gake":"×","takashio":"×","jishin":"○","tsunami":"×","kaji":"×","naisui":"×","kazan":"×"}}
,{"type":"Feature","geometry":{"type":"Point","coordinates":[138.47736365743,35.664143718747]},"properties":{"Name":"八田小学校 （校舎）","Jusho":"山梨県南アルプス市野牛島2222","kouzui":"○","gake":"○","takashio":"×","jishin":"○","tsunami":"×","kaji":"○","naisui":"○","kazan":"○"}}
,{"type":"Feature","geometry":{"type":"Point","coordinates":[138.47806639619,35.664261393129]},"properties":{"Name":"八田小学校 （体育館）","Jusho":"山梨県南アルプス市野牛島2222","kouzui":"○","gake":"○","takashio":"×","jishin":"○","tsunami":"×","kaji":"○","naisui":"○","kazan":"○"}}
,{"type":"Feature","geometry":{"type":"Point","coordinates":[138.47755141206,35.663869144513]},"properties":{"Name":"八田小学校 （グランド）","Jusho":"山梨県南アルプス市野牛島2222","kouzui":"○","gake":"○","takashio":"×","jishin":"○","tsunami":"×","kaji":"○","naisui":"○","kazan":"○"}}
,{"type":"Feature","geometry":{"type":"Point","coordinates":[138.48542382024,35.660540848952]},"properties":{"Name":"八田中学校 （校舎）","Jusho":"山梨県南アルプス市榎原620","kouzui":"○","gake":"○","takashio":"×","jishin":"○","tsunami":"×","kaji":"○","naisui":"○","kazan":"○"}}
,{"type":"Feature","geometry":{"type":"Point","coordinates":[138.48537017606,35.661002849711]},"properties":{"Name":"八田中学校 （体育館）","Jusho":"山梨県南アルプス市榎原620","kouzui":"○","gake":"○","takashio":"×","jishin":"○","tsunami":"×","kaji":"○","naisui":"○","kazan":"○"}}
,{"type":"Feature","geometry":{"type":"Point","coordinates":[138.4856223037,35.660061411376]},"properties":{"Name":"八田中学校 （グランド）","Jusho":"山梨県南アルプス市榎原620","kouzui":"○","gake":"○","takashio":"×","jishin":"○","tsunami":"×","kaji":"○","naisui":"○","kazan":"○"}}
,{"type":"Feature","geometry":{"type":"Point","coordinates":[138.4541109433,35.643362980506]},"properties":{"Name":"白根飯野小学校（校舎）","Jusho":"山梨県南アルプス市飯野1972-1","kouzui":"○","gake":"○","takashio":"×","jishin":"○","tsunami":"×","kaji":"○","naisui":"○","kazan":"○"}}
,{"type":"Feature","geometry":{"type":"Point","coordinates":[138.45418604516,35.643716094993]},"properties":{"Name":"白根飯野小学校（体育館）","Jusho":"山梨県南アルプス市飯野1972-1","kouzui":"○","gake":"○","takashio":"×","jishin":"○","tsunami":"×","kaji":"○","naisui":"○","kazan":"○"}}
,{"type":"Feature","geometry":{"type":"Point","coordinates":[138.45400365494,35.64309705375]},"properties":{"Name":"白根飯野小学校（グランド）","Jusho":"山梨県南アルプス市飯野1972-1","kouzui":"○","gake":"○","takashio":"×","jishin":"○","tsunami":"×","kaji":"○","naisui":"○","kazan":"○"}}
,{"type":"Feature","geometry":{"type":"Point","coordinates":[138.46328310206,35.639298354483]},"properties":{"Name":"白根巨摩中学校（校舎）","Jusho":"山梨県南アルプス市飯野2860-2","kouzui":"○","gake":"○","takashio":"×","jishin":"○","tsunami":"×","kaji":"○","naisui":"○","kazan":"○"}}
,{"type":"Feature","geometry":{"type":"Point","coordinates":[138.46241943075,35.639185002995]},"properties":{"Name":"白根巨摩中学校（体育館）","Jusho":"山梨県南アルプス市飯野2860-2","kouzui":"○","gake":"○","takashio":"×","jishin":"○","tsunami":"×","kaji":"○","naisui":"○","kazan":"○"}}
,{"type":"Feature","geometry":{"type":"Point","coordinates":[138.46316508486,35.638923422026]},"properties":{"Name":"白根巨摩中学校（グランド）","Jusho":"山梨県南アルプス市飯野2860-2","kouzui":"○","gake":"○","takashio":"×","jishin":"○","tsunami":"×","kaji":"○","naisui":"○","kazan":"○"}}
,{"type":"Feature","geometry":{"type":"Point","coordinates":[138.47699018706,35.638881317394]},"properties":{"Name":"白根東小学校 （校舎）","Jusho":"山梨県南アルプス市西野2311","kouzui":"○","gake":"○","takashio":"×","jishin":"○","tsunami":"×","kaji":"○","naisui":"○","kazan":"○"}}
,{"type":"Feature","geometry":{"type":"Point","coordinates":[138.47619088878,35.638824641374]},"properties":{"Name":"白根東小学校 （体育館）","Jusho":"山梨県南アルプス市西野2311","kouzui":"○","gake":"○","takashio":"×","jishin":"○","tsunami":"×","kaji":"○","naisui":"○","kazan":"○"}}
,{"type":"Feature","geometry":{"type":"Point","coordinates":[138.47701700916,35.638571778644]},"properties":{"Name":"白根東小学校 （グランド）","Jusho":"山梨県南アルプス市西野2311","kouzui":"○","gake":"○","takashio":"×","jishin":"○","tsunami":"×","kaji":"○","naisui":"○","kazan":"○"}}
,{"type":"Feature","geometry":{"type":"Point","coordinates":[138.46664644436,35.661797449935]},"properties":{"Name":"白根御勅使中学校（校舎）","Jusho":"山梨県南アルプス市百々1990-1","kouzui":"○","gake":"○","takashio":"×","jishin":"○","tsunami":"×","kaji":"○","naisui":"○","kazan":"○"}}
,{"type":"Feature","geometry":{"type":"Point","coordinates":[138.46726335242,35.661854109657]},"properties":{"Name":"白根御勅使中学校（体育館）","Jusho":"山梨県南アルプス市百々1990-1","kouzui":"○","gake":"○","takashio":"×","jishin":"○","tsunami":"×","kaji":"○","naisui":"○","kazan":"○"}}
,{"type":"Feature","geometry":{"type":"Point","coordinates":[138.46691466526,35.661466207675]},"properties":{"Name":"白根御勅使中学校（グランド）","Jusho":"山梨県南アルプス市百々1990-1","kouzui":"○","gake":"○","takashio":"×","jishin":"○","tsunami":"×","kaji":"○","naisui":"○","kazan":"○"}}
,{"type":"Feature","geometry":{"type":"Point","coordinates":[138.4698999648,35.658336747034]},"properties":{"Name":"白根百田小学校（校舎）","Jusho":"山梨県南アルプス市百々2300","kouzui":"○","gake":"○","takashio":"×","jishin":"○","tsunami":"×","kaji":"○","naisui":"○","kazan":"○"}}
,{"type":"Feature","geometry":{"type":"Point","coordinates":[138.46982486295,35.65860262306]},"properties":{"Name":"白根百田小学校（体育館）","Jusho":"山梨県南アルプス市百々2300","kouzui":"○","gake":"○","takashio":"×","jishin":"○","tsunami":"×","kaji":"○","naisui":"○","kazan":"○"}}
,{"type":"Feature","geometry":{"type":"Point","coordinates":[138.47010381268,35.657839861596]},"properties":{"Name":"白根百田小学校（グランド）","Jusho":"山梨県南アルプス市百々2300","kouzui":"○","gake":"○","takashio":"×","jishin":"○","tsunami":"×","kaji":"○","naisui":"○","kazan":"○"}}
,{"type":"Feature","geometry":{"type":"Point","coordinates":[138.44023115584,35.655284954821]},"properties":{"Name":"白根源小学校 （校舎）","Jusho":"山梨県南アルプス市有野490","kouzui":"○","gake":"○","takashio":"×","jishin":"○","tsunami":"×","kaji":"○","naisui":"○","kazan":"○"}}
,{"type":"Feature","geometry":{"type":"Point","coordinates":[138.43979127355,35.654953685547]},"properties":{"Name":"白根源小学校 （体育館）","Jusho":"山梨県南アルプス市有野490","kouzui":"○","gake":"○","takashio":"×","jishin":"○","tsunami":"×","kaji":"○","naisui":"○","kazan":"○"}}
,{"type":"Feature","geometry":{"type":"Point","coordinates":[138.44034722222,35.65505]},"properties":{"Name":"白根源小学校 （グランド）","Jusho":"山梨県南アルプス市有野490","kouzui":"○","gake":"○","takashio":"×","jishin":"○","tsunami":"×","kaji":"○","naisui":"○","kazan":"○"}}
,{"type":"Feature","geometry":{"type":"Point","coordinates":[138.44109419249,35.664009210834]},"properties":{"Name":"県立育精福祉センター（ホール）","Jusho":"山梨県南アルプス市有野3303-2","kouzui":"×","gake":"○","takashio":"×","jishin":"○","tsunami":"×","kaji":"○","naisui":"○","kazan":"○"}}
,{"type":"Feature","geometry":{"type":"Point","coordinates":[138.44086888694,35.663625677663]},"properties":{"Name":"県立育精福祉センター（グランド）","Jusho":"山梨県南アルプス市有野3303-2","kouzui":"×","gake":"○","takashio":"×","jishin":"○","tsunami":"×","kaji":"○","naisui":"○","kazan":"○"}}
,{"type":"Feature","geometry":{"type":"Point","coordinates":[138.48850400632,35.642482771319]},"properties":{"Name":"白根東保育所","Jusho":"山梨県南アルプス市西野1394","kouzui":"○","gake":"○","takashio":"×","jishin":"○","tsunami":"×","kaji":"○","naisui":"○","kazan":"○"}}
,{"type":"Feature","geometry":{"type":"Point","coordinates":[138.49431698165,35.64314729491]},"properties":{"Name":"白根高等学校 （校舎）","Jusho":"山梨県南アルプス市上今諏訪1180","kouzui":"○","gake":"○","takashio":"×","jishin":"○","tsunami":"×","kaji":"○","naisui":"○","kazan":"○"}}
,{"type":"Feature","geometry":{"type":"Point","coordinates":[138.495033545029,35.6423281579262]},"properties":{"Name":"白根高等学校 （体育館）","Jusho":"山梨県南アルプス市上今諏訪1180","kouzui":"○","gake":"○","takashio":"×","jishin":"○","tsunami":"×","kaji":"○","naisui":"○","kazan":"○"}}
,{"type":"Feature","geometry":{"type":"Point","coordinates":[138.495677275192,35.6430082376888]},"properties":{"Name":"白根高等学校 （グランド）","Jusho":"山梨県南アルプス市上今諏訪1180","kouzui":"○","gake":"○","takashio":"×","jishin":"○","tsunami":"×","kaji":"○","naisui":"○","kazan":"○"}}
,{"type":"Feature","geometry":{"type":"Point","coordinates":[138.46524415051,35.649774921932]},"properties":{"Name":"白根Ｂ＆Ｇ海洋センター","Jusho":"山梨県南アルプス市百々3468-65","kouzui":"○","gake":"○","takashio":"×","jishin":"○","tsunami":"×","kaji":"○","naisui":"○","kazan":"○"}}
,{"type":"Feature","geometry":{"type":"Point","coordinates":[138.37954006422,35.636914305296]},"properties":{"Name":"芦安小学校 （校舎）","Jusho":"山梨県南アルプス市芦安安通335","kouzui":"○","gake":"×","takashio":"×","jishin":"○","tsunami":"×","kaji":"○","naisui":"○","kazan":"○"}}
,{"type":"Feature","geometry":{"type":"Point","coordinates":[138.38000676859,35.636931744493]},"properties":{"Name":"芦安小学校 （体育館）","Jusho":"山梨県南アルプス市芦安安通335","kouzui":"○","gake":"×","takashio":"×","jishin":"○","tsunami":"×","kaji":"○","naisui":"○","kazan":"○"}}
,{"type":"Feature","geometry":{"type":"Point","coordinates":[138.37970636118,35.636687595398]},"properties":{"Name":"芦安小学校 （グランド）","Jusho":"山梨県南アルプス市芦安安通335","kouzui":"○","gake":"×","takashio":"×","jishin":"○","tsunami":"×","kaji":"○","naisui":"○","kazan":"○"}}
,{"type":"Feature","geometry":{"type":"Point","coordinates":[138.36099078387,35.633181702929]},"properties":{"Name":"芦安山岳館","Jusho":"山梨県南アルプス市芦安芦倉1570","kouzui":"○","gake":"×","takashio":"×","jishin":"○","tsunami":"×","kaji":"○","naisui":"○","kazan":"○"}}
,{"type":"Feature","geometry":{"type":"Point","coordinates":[138.37021378899,35.63781642368]},"properties":{"Name":"芦安チロル学園","Jusho":"山梨県南アルプス市芦安芦倉1008","kouzui":"○","gake":"×","takashio":"×","jishin":"○","tsunami":"×","kaji":"○","naisui":"○","kazan":"○"}}
,{"type":"Feature","geometry":{"type":"Point","coordinates":[138.38031133852,35.637876055705]},"properties":{"Name":"芦安健康管理センター","Jusho":"山梨県南アルプス市芦安芦倉518","kouzui":"○","gake":"×","takashio":"×","jishin":"○","tsunami":"×","kaji":"○","naisui":"○","kazan":"○"}}
,{"type":"Feature","geometry":{"type":"Point","coordinates":[138.49209928572,35.607903525368]},"properties":{"Name":"若草小学校 （校舎）","Jusho":"山梨県南アルプス市寺部740","kouzui":"○","gake":"○","takashio":"×","jishin":"○","tsunami":"×","kaji":"○","naisui":"○","kazan":"○"}}
,{"type":"Feature","geometry":{"type":"Point","coordinates":[138.4911390549,35.608082341813]},"properties":{"Name":"若草小学校 （体育館）","Jusho":"山梨県南アルプス市寺部740","kouzui":"○","gake":"○","takashio":"×","jishin":"○","tsunami":"×","kaji":"○","naisui":"○","kazan":"○"}}
,{"type":"Feature","geometry":{"type":"Point","coordinates":[138.49191689551,35.607681094598]},"properties":{"Name":"若草小学校 （グランド）","Jusho":"山梨県南アルプス市寺部740","kouzui":"○","gake":"○","takashio":"×","jishin":"○","tsunami":"×","kaji":"○","naisui":"○","kazan":"○"}}
,{"type":"Feature","geometry":{"type":"Point","coordinates":[138.49821193935,35.595827526011]},"properties":{"Name":"若草南小学校 （校舎）","Jusho":"山梨県南アルプス市藤田1130-1","kouzui":"×","gake":"○","takashio":"×","jishin":"○","tsunami":"×","kaji":"○","naisui":"○","kazan":"○"}}
,{"type":"Feature","geometry":{"type":"Point","coordinates":[138.49868400813,35.596102334045]},"properties":{"Name":"若草南小学校 （体育館）","Jusho":"山梨県南アルプス市藤田1130-1","kouzui":"×","gake":"○","takashio":"×","jishin":"○","tsunami":"×","kaji":"○","naisui":"○","kazan":"○"}}
,{"type":"Feature","geometry":{"type":"Point","coordinates":[138.49830849887,35.595543992923]},"properties":{"Name":"若草南小学校 （グランド）","Jusho":"山梨県南アルプス市藤田1130-1","kouzui":"×","gake":"○","takashio":"×","jishin":"○","tsunami":"×","kaji":"○","naisui":"○","kazan":"○"}}
,{"type":"Feature","geometry":{"type":"Point","coordinates":[138.48852879795,35.607075538077]},"properties":{"Name":"若草中学校 （校舎）","Jusho":"山梨県南アルプス市加賀美2943","kouzui":"○","gake":"○","takashio":"×","jishin":"○","tsunami":"×","kaji":"○","naisui":"○","kazan":"○"}}
,{"type":"Feature","geometry":{"type":"Point","coordinates":[138.48845906051,35.607830061341]},"properties":{"Name":"若草中学校 （体育館）","Jusho":"山梨県南アルプス市加賀美2943","kouzui":"○","gake":"○","takashio":"×","jishin":"○","tsunami":"×","kaji":"○","naisui":"○","kazan":"○"}}
,{"type":"Feature","geometry":{"type":"Point","coordinates":[138.48903305324,35.606879273634]},"properties":{"Name":"若草中学校 （グランド）","Jusho":"山梨県南アルプス市加賀美2943","kouzui":"○","gake":"○","takashio":"×","jishin":"○","tsunami":"×","kaji":"○","naisui":"○","kazan":"○"}}
,{"type":"Feature","geometry":{"type":"Point","coordinates":[138.49545084219,35.614680106539]},"properties":{"Name":"鏡中條体育館","Jusho":"山梨県南アルプス市鏡中條710-2","kouzui":"○","gake":"○","takashio":"×","jishin":"○","tsunami":"×","kaji":"○","naisui":"○","kazan":"○"}}
,{"type":"Feature","geometry":{"type":"Point","coordinates":[138.4606839806,35.615902662104]},"properties":{"Name":"櫛形中学校 （校舎）","Jusho":"山梨県南アルプス市小笠原985","kouzui":"×","gake":"○","takashio":"×","jishin":"○","tsunami":"×","kaji":"○","naisui":"○","kazan":"○"}}
,{"type":"Feature","geometry":{"type":"Point","coordinates":[138.46143499913,35.615845969793]},"properties":{"Name":"櫛形中学校 （体育館）","Jusho":"山梨県南アルプス市小笠原985","kouzui":"×","gake":"○","takashio":"×","jishin":"○","tsunami":"×","kaji":"○","naisui":"○","kazan":"○"}}
,{"type":"Feature","geometry":{"type":"Point","coordinates":[138.46119360032,35.615361903036]},"properties":{"Name":"櫛形中学校 （グランド）","Jusho":"山梨県南アルプス市小笠原985","kouzui":"×","gake":"○","takashio":"×","jishin":"○","tsunami":"×","kaji":"○","naisui":"○","kazan":"○"}}
,{"type":"Feature","geometry":{"type":"Point","coordinates":[138.46877710262,35.616022171771]},"properties":{"Name":"巨摩高等学校 （校舎）","Jusho":"山梨県南アルプス市小笠原1500-2","kouzui":"○","gake":"○","takashio":"×","jishin":"○","tsunami":"×","kaji":"○","naisui":"○","kazan":"○"}}
,{"type":"Feature","geometry":{"type":"Point","coordinates":[138.46764521041,35.615703822593]},"properties":{"Name":"巨摩高等学校 （体育館）","Jusho":"山梨県南アルプス市小笠原1500-2","kouzui":"○","gake":"○","takashio":"×","jishin":"○","tsunami":"×","kaji":"○","naisui":"○","kazan":"○"}}
,{"type":"Feature","geometry":{"type":"Point","coordinates":[138.46824602524,35.616623979084]},"properties":{"Name":"巨摩高等学校 （グランド）","Jusho":"山梨県南アルプス市小笠原1500-2","kouzui":"○","gake":"○","takashio":"×","jishin":"○","tsunami":"×","kaji":"○","naisui":"○","kazan":"○"}}
,{"type":"Feature","geometry":{"type":"Point","coordinates":[138.46229223656,35.610514217143]},"properties":{"Name":"小笠原小学校 （校舎）","Jusho":"山梨県南アルプス市小笠原441","kouzui":"○","gake":"○","takashio":"×","jishin":"○","tsunami":"×","kaji":"○","naisui":"○","kazan":"○"}}
,{"type":"Feature","geometry":{"type":"Point","coordinates":[138.4624531691,35.610884921622]},"properties":{"Name":"小笠原小学校 （体育館）","Jusho":"山梨県南アルプス市小笠原441","kouzui":"○","gake":"○","takashio":"×","jishin":"○","tsunami":"×","kaji":"○","naisui":"○","kazan":"○"}}
,{"type":"Feature","geometry":{"type":"Point","coordinates":[138.46226005005,35.610226374834]},"properties":{"Name":"小笠原小学校 （グランド）","Jusho":"山梨県南アルプス市小笠原441","kouzui":"○","gake":"○","takashio":"×","jishin":"○","tsunami":"×","kaji":"○","naisui":"○","kazan":"○"}}
,{"type":"Feature","geometry":{"type":"Point","coordinates":[138.44941075892,35.626501577395]},"properties":{"Name":"櫛形北小学校 （校舎）","Jusho":"山梨県南アルプス市桃園813","kouzui":"○","gake":"○","takashio":"×","jishin":"○","tsunami":"×","kaji":"○","naisui":"○","kazan":"○"}}
,{"type":"Feature","geometry":{"type":"Point","coordinates":[138.44978090377,35.626427451113]},"properties":{"Name":"櫛形北小学校 （講堂）","Jusho":"山梨県南アルプス市桃園813","kouzui":"○","gake":"○","takashio":"×","jishin":"○","tsunami":"×","kaji":"○","naisui":"○","kazan":"○"}}
,{"type":"Feature","geometry":{"type":"Point","coordinates":[138.44956096263,35.626911450891]},"properties":{"Name":"櫛形北小学校 （体育館）","Jusho":"山梨県南アルプス市桃園813","kouzui":"○","gake":"○","takashio":"×","jishin":"○","tsunami":"×","kaji":"○","naisui":"○","kazan":"○"}}
,{"type":"Feature","geometry":{"type":"Point","coordinates":[138.44949122519,35.626000133558]},"properties":{"Name":"櫛形北小学校 （グランド）","Jusho":"山梨県南アルプス市桃園813","kouzui":"○","gake":"○","takashio":"×","jishin":"○","tsunami":"×","kaji":"○","naisui":"○","kazan":"○"}}
,{"type":"Feature","geometry":{"type":"Point","coordinates":[138.45701388889,35.608416666667]},"properties":{"Name":"青少年児童センター","Jusho":"山梨県南アルプス市山寺258-1","kouzui":"○","gake":"○","takashio":"×","jishin":"○","tsunami":"×","kaji":"○","naisui":"○","kazan":"○"}}
,{"type":"Feature","geometry":{"type":"Point","coordinates":[138.47848778489,35.622573446529]},"properties":{"Name":"豊小学校 （校舎）","Jusho":"山梨県南アルプス市吉田787","kouzui":"○","gake":"○","takashio":"×","jishin":"○","tsunami":"×","kaji":"○","naisui":"○","kazan":"○"}}
,{"type":"Feature","geometry":{"type":"Point","coordinates":[138.4784931493,35.623101075179]},"properties":{"Name":"豊小学校 （体育館）","Jusho":"山梨県南アルプス市吉田787","kouzui":"○","gake":"○","takashio":"×","jishin":"○","tsunami":"×","kaji":"○","naisui":"○","kazan":"○"}}
,{"type":"Feature","geometry":{"type":"Point","coordinates":[138.47851460698,35.622272565823]},"properties":{"Name":"豊小学校 （グランド）","Jusho":"山梨県南アルプス市吉田787","kouzui":"○","gake":"○","takashio":"×","jishin":"○","tsunami":"×","kaji":"○","naisui":"○","kazan":"○"}}
,{"type":"Feature","geometry":{"type":"Point","coordinates":[138.47789280449,35.621594722473]},"properties":{"Name":"働く婦人の家","Jusho":"山梨県南アルプス市吉田753-1","kouzui":"○","gake":"○","takashio":"×","jishin":"○","tsunami":"×","kaji":"○","naisui":"○","kazan":"○"}}
,{"type":"Feature","geometry":{"type":"Point","coordinates":[138.47162599311,35.590855239202]},"properties":{"Name":"甲西中学校 （校舎）","Jusho":"山梨県南アルプス市古市場150","kouzui":"○","gake":"○","takashio":"×","jishin":"○","tsunami":"×","kaji":"○","naisui":"○","kazan":"○"}}
,{"type":"Feature","geometry":{"type":"Point","coordinates":[138.4720461884,35.58978938865]},"properties":{"Name":"甲西中学校 （体育館）","Jusho":"山梨県南アルプス市古市場150","kouzui":"○","gake":"○","takashio":"×","jishin":"○","tsunami":"×","kaji":"○","naisui":"○","kazan":"○"}}
,{"type":"Feature","geometry":{"type":"Point","coordinates":[138.47143611111,35.590347222222]},"properties":{"Name":"甲西中学校 （グランド）","Jusho":"山梨県南アルプス市古市場150","kouzui":"○","gake":"○","takashio":"×","jishin":"○","tsunami":"×","kaji":"○","naisui":"○","kazan":"○"}}
,{"type":"Feature","geometry":{"type":"Point","coordinates":[138.45614039129,35.588531819059]},"properties":{"Name":"落合小学校 （校舎）","Jusho":"山梨県南アルプス市落合1092","kouzui":"○","gake":"○","takashio":"×","jishin":"○","tsunami":"×","kaji":"○","naisui":"○","kazan":"○"}}
,{"type":"Feature","geometry":{"type":"Point","coordinates":[138.45635319798,35.588021412198]},"properties":{"Name":"落合小学校 （体育館）","Jusho":"山梨県南アルプス市落合1092","kouzui":"○","gake":"○","takashio":"×","jishin":"○","tsunami":"×","kaji":"○","naisui":"○","kazan":"○"}}
,{"type":"Feature","geometry":{"type":"Point","coordinates":[138.45595263665,35.588146484034]},"properties":{"Name":"落合小学校 （グランド）","Jusho":"山梨県南アルプス市落合1092","kouzui":"○","gake":"○","takashio":"×","jishin":"○","tsunami":"×","kaji":"○","naisui":"○","kazan":"○"}}
,{"type":"Feature","geometry":{"type":"Point","coordinates":[138.47052241803,35.59086558034]},"properties":{"Name":"大明小学校 （校舎）","Jusho":"山梨県南アルプス市古市場181-1","kouzui":"○","gake":"○","takashio":"×","jishin":"○","tsunami":"×","kaji":"○","naisui":"○","kazan":"○"}}
,{"type":"Feature","geometry":{"type":"Point","coordinates":[138.47045804502,35.589644124174]},"properties":{"Name":"大明小学校 （体育館）","Jusho":"山梨県南アルプス市古市場181-1","kouzui":"○","gake":"○","takashio":"×","jishin":"○","tsunami":"×","kaji":"○","naisui":"○","kazan":"○"}}
,{"type":"Feature","geometry":{"type":"Point","coordinates":[138.47043658735,35.590372637773]},"properties":{"Name":"大明小学校 （グランド）","Jusho":"山梨県南アルプス市古市場181-1","kouzui":"○","gake":"○","takashio":"×","jishin":"○","tsunami":"×","kaji":"○","naisui":"○","kazan":"○"}}
,{"type":"Feature","geometry":{"type":"Point","coordinates":[138.48789419282,35.586301210277]},"properties":{"Name":"南湖小学校 （校舎）","Jusho":"山梨県南アルプス市西南湖3024-1","kouzui":"×","gake":"○","takashio":"×","jishin":"○","tsunami":"×","kaji":"○","naisui":"○","kazan":"○"}}
,{"type":"Feature","geometry":{"type":"Point","coordinates":[138.48880077946,35.586192189898]},"properties":{"Name":"南湖小学校 （体育館）","Jusho":"山梨県南アルプス市西南湖3024-1","kouzui":"×","gake":"○","takashio":"×","jishin":"○","tsunami":"×","kaji":"○","naisui":"○","kazan":"○"}}
,{"type":"Feature","geometry":{"type":"Point","coordinates":[138.48791028607,35.58598566583]},"properties":{"Name":"南湖小学校 （グランド）","Jusho":"山梨県南アルプス市西南湖3024-1","kouzui":"×","gake":"○","takashio":"×","jishin":"○","tsunami":"×","kaji":"○","naisui":"○","kazan":"○"}}
,{"type":"Feature","geometry":{"type":"Point","coordinates":[138.44900331202,35.585677708249]},"properties":{"Name":"落合創造館アミカル","Jusho":"山梨県南アルプス市湯沢1035-5","kouzui":"○","gake":"○","takashio":"×","jishin":"○","tsunami":"×","kaji":"○","naisui":"○","kazan":"○"}}
,{"type":"Feature","geometry":{"type":"Point","coordinates":[138.47081187565,35.580885687597]},"properties":{"Name":"甲西体育センター","Jusho":"山梨県南アルプス市宮沢413-3","kouzui":"×","gake":"○","takashio":"×","jishin":"○","tsunami":"×","kaji":"○","naisui":"○","kazan":"○"}}
,{"type":"Feature","geometry":{"type":"Point","coordinates":[138.46828279886,35.590815864186]},"properties":{"Name":"甲西保健福祉センター","Jusho":"山梨県南アルプス市古市場323","kouzui":"○","gake":"○","takashio":"×","jishin":"○","tsunami":"×","kaji":"○","naisui":"○","kazan":"○"}}
,{"type":"Feature","geometry":{"type":"Point","coordinates":[138.46617111435,35.663218352658]},"properties":{"Name":"六科集落センター（駐車場等）","Jusho":"山梨県南アルプス市六科1499","kouzui":"○","gake":"○","takashio":"×","jishin":"○","tsunami":"×","kaji":"○","naisui":"○","kazan":"○"}}
,{"type":"Feature","geometry":{"type":"Point","coordinates":[138.4601,35.668194444444]},"properties":{"Name":"御勅使南公園","Jusho":"山梨県南アルプス市六科1588-2","kouzui":"○","gake":"○","takashio":"×","jishin":"○","tsunami":"×","kaji":"○","naisui":"○","kazan":"○"}}
,{"type":"Feature","geometry":{"type":"Point","coordinates":[138.4830100412,35.661636036034]},"properties":{"Name":"高度農業情報センター（駐車場）","Jusho":"山梨県南アルプス市榎原800","kouzui":"○","gake":"○","takashio":"×","jishin":"○","tsunami":"×","kaji":"○","naisui":"○","kazan":"○"}}
,{"type":"Feature","geometry":{"type":"Point","coordinates":[138.48164248418,35.665131950057]},"properties":{"Name":"野牛島集落センター（駐車場等）","Jusho":"山梨県南アルプス市野牛島2013","kouzui":"○","gake":"○","takashio":"×","jishin":"○","tsunami":"×","kaji":"○","naisui":"○","kazan":"○"}}
,{"type":"Feature","geometry":{"type":"Point","coordinates":[138.48394781571,35.664882996596]},"properties":{"Name":"スパーク八田","Jusho":"山梨県南アルプス市野牛島1946-1","kouzui":"○","gake":"○","takashio":"×","jishin":"○","tsunami":"×","kaji":"○","naisui":"○","kazan":"○"}}
,{"type":"Feature","geometry":{"type":"Point","coordinates":[138.49283129196,35.66392417071]},"properties":{"Name":"上高砂神明神社","Jusho":"山梨県南アルプス市上高砂958","kouzui":"○","gake":"○","takashio":"×","jishin":"○","tsunami":"×","kaji":"○","naisui":"○","kazan":"○"}}
,{"type":"Feature","geometry":{"type":"Point","coordinates":[138.49395998434,35.664801956391]},"properties":{"Name":"上高砂集落センター（グランド）","Jusho":"山梨県南アルプス市上高砂987","kouzui":"×","gake":"○","takashio":"×","jishin":"○","tsunami":"×","kaji":"○","naisui":"○","kazan":"○"}}
,{"type":"Feature","geometry":{"type":"Point","coordinates":[138.48801756127,35.674768960984]},"properties":{"Name":"たちあい公園","Jusho":"山梨県南アルプス市野牛島1337","kouzui":"×","gake":"○","takashio":"×","jishin":"○","tsunami":"×","kaji":"○","naisui":"○","kazan":"○"}}
,{"type":"Feature","geometry":{"type":"Point","coordinates":[138.4917267909,35.6605461791]},"properties":{"Name":"下高砂神明神社","Jusho":"山梨県南アルプス市下高砂174","kouzui":"○","gake":"○","takashio":"×","jishin":"○","tsunami":"×","kaji":"○","naisui":"○","kazan":"○"}}
,{"type":"Feature","geometry":{"type":"Point","coordinates":[138.49317436503,35.656744313894]},"properties":{"Name":"下高砂集落センター（駐車場）","Jusho":"山梨県南アルプス市下高砂373-1","kouzui":"○","gake":"○","takashio":"×","jishin":"○","tsunami":"×","kaji":"○","naisui":"○","kazan":"○"}}
,{"type":"Feature","geometry":{"type":"Point","coordinates":[138.49003657981,35.652204201411]},"properties":{"Name":"徳永集落センター（駐車場）","Jusho":"山梨県南アルプス市徳永2026","kouzui":"○","gake":"○","takashio":"×","jishin":"○","tsunami":"×","kaji":"○","naisui":"○","kazan":"○"}}
,{"type":"Feature","geometry":{"type":"Point","coordinates":[138.489225,35.654208333333]},"properties":{"Name":"徳永チビッコ広場","Jusho":"山梨県南アルプス市徳永1683","kouzui":"○","gake":"○","takashio":"×","jishin":"○","tsunami":"×","kaji":"○","naisui":"○","kazan":"○"}}
,{"type":"Feature","geometry":{"type":"Point","coordinates":[138.48507052075,35.658296135429]},