[{
    "name": "遭難犠牲者慰霊碑",
    "address": "北海道函館市川汲町2085番地（川汲公園内）",
    "year": "1975",
    "disaster_name": "昭和48年集中豪雨（1973年9月24日）",
    "field": "洪水・土砂災害",
    "overview": "昭和48年(1973)9月23日夜から24日にかけて、渡島半島南部は集中豪雨となった。旧南茅部町（現在の函館市北部）では、総雨量383mmという記録的な豪雨により河川の氾濫、裏山からの出水、土石流、裏山崩落などにより、国道は寸断され、住宅などの建物が倒壊（全壊16戸）し、死者8名、重軽傷者11名等の被害を出す大惨事となった。",
    "coordinates": [140.96034, 41.891005]
  }, {
    "name": "美瑛川治水竣功記念",
    "address": "北海道旭川市西神楽南１条3丁目",
    "year": "1958",
    "disaster_name": "昭和22年8月洪水（1947年8月15日〜16日）",
    "field": "洪水",
    "overview": "昭和22年（1947）8月15日〜16日の豪雨は、大正4年(1915) に次ぐ約30年ぶりの大洪水となり、尊い命が犠牲になったほか家屋の浸水、田畑の流出等の被害が発生した。",
    "coordinates": [142.390215, 43.681137]
  }, {
    "name": "樹霊供養之塔",
    "address": "北海道北見市留辺蘂町富士見",
    "year": "1959",
    "disaster_name": "洞爺丸台風（1954年9月26日）",
    "field": "その他",
    "overview": "昭和29年（1954）9月26日、北海道に襲来した台風15号（洞爺丸台風）は、一夜にして道内の広い範囲で立木をなぎ倒し、森林に大規模な被害を与えた。中でも層雲峡地帯北見富士山麓の被害は甚だしく、世界林業史上例をみない風倒木を出現させた。",
    "coordinates": [143.164773, 43.655015]
  }, {
    "name": "留萌川激特事業竣功記念碑",
    "address": "北海道留萌市南町１丁目",
    "year": "1992",
    "disaster_name": "昭和63年8月洪水(1988年8月25日〜26日）",
    "field": "洪水",
    "overview": "昭和63年(1988)8月25日から26日にかけて、留萌川流域は350ミリを超える豪雨に見舞われ、流域各地で越水、氾濫した。被害は、住宅浸水3,376棟、道路損壊74か所、土砂崩れ62か所、道路・JR等不通、農地被害623ヘクタールなど、市内全域に及んだ。",
    "coordinates": [141.672708, 43.929455]
  }, {
    "name": "親子地蔵尊",
    "address": "北海道登別市片倉町",
    "year": "1962",
    "disaster_name": "昭和36年集中豪雨(1961年10月6日)",
    "field": "洪水",
    "overview": "昭和36年(1961)10月5日から降り始めた雨は、翌6日午後になって特に山岳地域で集中豪雨となり、午後5時過ぎに登別市内を流れる全河川が氾濫し始め、濁流が渦となって市街地に流れ込んだ。登別市内では死者4名、行方不明者7名、全壊20戸、流失27戸、半壊17戸、床上浸水1,009戸、床下浸水3,218戸などの被害を受けた。碑は避難中に犠牲となった親子5人を慰霊する地蔵尊である。",
    "coordinates": [141.087312, 42.412925]
    }]
