var nagasaki={"type":"FeatureCollection","name":"nagasaki","features":[
{"type":"Feature","geometry":{"type":"Point","coordinates":[129.881219,32.754351]},"properties":{"Name":"長崎公園","Jusho":"長崎県長崎市上西山町・立山１，４丁目","kouzui":"○","gake":"○","takashio":"○","jishin":"×","tsunami":"○","kaji":"○","naisui":"○","kazan":"×"}}
,{"type":"Feature","geometry":{"type":"Point","coordinates":[129.871571,32.754302]},"properties":{"Name":"西坂公園","Jusho":"長崎県長崎市西坂町","kouzui":"○","gake":"○","takashio":"○","jishin":"×","tsunami":"○","kaji":"○","naisui":"○","kazan":"×"}}
,{"type":"Feature","geometry":{"type":"Point","coordinates":[129.875664,32.751412]},"properties":{"Name":"中町公園","Jusho":"長崎県長崎市中町","kouzui":"○","gake":"○","takashio":"○","jishin":"×","tsunami":"○","kaji":"○","naisui":"○","kazan":"×"}}
,{"type":"Feature","geometry":{"type":"Point","coordinates":[129.875184,32.75023]},"properties":{"Name":"瓊の浦公園","Jusho":"長崎県長崎市恵美須町","kouzui":"○","gake":"○","takashio":"×","jishin":"×","tsunami":"×","kaji":"○","naisui":"○","kazan":"×"}}
,{"type":"Feature","geometry":{"type":"Point","coordinates":[129.878094,32.750963]},"properties":{"Name":"桜町公園","Jusho":"長崎県長崎市桜町","kouzui":"○","gake":"○","takashio":"○","jishin":"×","tsunami":"○","kaji":"○","naisui":"○","kazan":"×"}}
,{"type":"Feature","geometry":{"type":"Point","coordinates":[129.876986,32.746993]},"properties":{"Name":"中央公園","Jusho":"長崎県長崎市賑町","kouzui":"○","gake":"○","takashio":"×","jishin":"×","tsunami":"×","kaji":"○","naisui":"○","kazan":"×"}}
,{"type":"Feature","geometry":{"type":"Point","coordinates":[129.87976,32.76053]},"properties":{"Name":"立山公園","Jusho":"長崎県長崎市立山５丁目・西山１丁目","kouzui":"○","gake":"○","takashio":"○","jishin":"×","tsunami":"○","kaji":"○","naisui":"○","kazan":"×"}}
,{"type":"Feature","geometry":{"type":"Point","coordinates":[129.880781,32.748897]},"properties":{"Name":"魚の町公園","Jusho":"長崎県長崎市魚の町","kouzui":"○","gake":"○","takashio":"○","jishin":"×","tsunami":"○","kaji":"○","naisui":"○","kazan":"×"}}
,{"type":"Feature","geometry":{"type":"Point","coordinates":[129.88883,32.77988]},"properties":{"Name":"西山台南公園","Jusho":"長崎県長崎市西山台１丁目","kouzui":"○","gake":"○","takashio":"○","jishin":"×","tsunami":"○","kaji":"○","naisui":"○","kazan":"×"}}
,{"type":"Feature","geometry":{"type":"Point","coordinates":[129.892468,32.783112]},"properties":{"Name":"三川公園","Jusho":"長崎県長崎市西山台２丁目","kouzui":"○","gake":"○","takashio":"○","jishin":"×","tsunami":"○","kaji":"○","naisui":"○","kazan":"×"}}
,{"type":"Feature","geometry":{"type":"Point","coordinates":[129.8974,32.72447]},"properties":{"Name":"三景台第４公園","Jusho":"長崎県長崎市三景台町","kouzui":"○","gake":"○","takashio":"○","jishin":"×","tsunami":"○","kaji":"○","naisui":"○","kazan":"×"}}
,{"type":"Feature","geometry":{"type":"Point","coordinates":[129.88654,32.73203]},"properties":{"Name":"上小島公園","Jusho":"長崎県長崎市上小島４丁目","kouzui":"○","gake":"○","takashio":"○","jishin":"×","tsunami":"○","kaji":"○","naisui":"○","kazan":"×"}}
,{"type":"Feature","geometry":{"type":"Point","coordinates":[129.889823,32.742048]},"properties":{"Name":"風頭みすみ公園","Jusho":"長崎県長崎市風頭町","kouzui":"○","gake":"○","takashio":"○","jishin":"×","tsunami":"○","kaji":"○","naisui":"○","kazan":"×"}}
,{"type":"Feature","geometry":{"type":"Point","coordinates":[129.884048,32.749289]},"properties":{"Name":"麹屋町公園","Jusho":"長崎県長崎市麹屋町","kouzui":"○","gake":"○","takashio":"○","jishin":"×","tsunami":"○","kaji":"○","naisui":"○","kazan":"×"}}
,{"type":"Feature","geometry":{"type":"Point","coordinates":[129.904747,32.752001]},"properties":{"Name":"本河内２丁目公園","Jusho":"長崎県長崎市本河内２丁目","kouzui":"○","gake":"×","takashio":"○","jishin":"×","tsunami":"○","kaji":"○","naisui":"○","kazan":"×"}}
,{"type":"Feature","geometry":{"type":"Point","coordinates":[129.887793,32.762068]},"properties":{"Name":"西山２丁目公園","Jusho":"長崎県長崎市西山２丁目","kouzui":"○","gake":"○","takashio":"○","jishin":"×","tsunami":"○","kaji":"○","naisui":"○","kazan":"×"}}
,{"type":"Feature","geometry":{"type":"Point","coordinates":[129.882823,32.750523]},"properties":{"Name":"宮の下公園","Jusho":"長崎県長崎市大井手町","kouzui":"○","gake":"○","takashio":"○","jishin":"×","tsunami":"○","kaji":"○","naisui":"○","kazan":"×"}}
,{"type":"Feature","geometry":{"type":"Point","coordinates":[129.886004,32.74612]},"properties":{"Name":"風頭公園","Jusho":"長崎県長崎市伊良林３丁目","kouzui":"○","gake":"○","takashio":"○","jishin":"×","tsunami":"○","kaji":"○","naisui":"○","kazan":"×"}}
,{"type":"Feature","geometry":{"type":"Point","coordinates":[129.887052,32.727691]},"properties":{"Name":"祝捷山公園","Jusho":"長崎県長崎市上小島５丁目","kouzui":"○","gake":"○","takashio":"○","jishin":"×","tsunami":"○","kaji":"○","naisui":"○","kazan":"×"}}
,{"type":"Feature","geometry":{"type":"Point","coordinates":[129.85996,32.77111]},"properties":{"Name":"鎮西公園","Jusho":"長崎県長崎市宝栄町","kouzui":"○","gake":"○","takashio":"○","jishin":"×","tsunami":"○","kaji":"○","naisui":"○","kazan":"×"}}
,{"type":"Feature","geometry":{"type":"Point","coordinates":[129.861767,32.755734]},"properties":{"Name":"稲佐児童公園","Jusho":"長崎県長崎市稲佐町","kouzui":"○","gake":"○","takashio":"○","jishin":"×","tsunami":"○","kaji":"○","naisui":"○","kazan":"×"}}
,{"type":"Feature","geometry":{"type":"Point","coordinates":[129.860281,32.763974]},"properties":{"Name":"梁川公園","Jusho":"長崎県長崎市梁川町","kouzui":"○","gake":"×","takashio":"×","jishin":"×","tsunami":"×","kaji":"○","naisui":"○","kazan":"×"}}
,{"type":"Feature","geometry":{"type":"Point","coordinates":[129.862532,32.748843]},"properties":{"Name":"丸尾公園","Jusho":"長崎県長崎市丸尾町","kouzui":"○","gake":"○","takashio":"×","jishin":"×","tsunami":"×","kaji":"○","naisui":"○","kazan":"×"}}
,{"type":"Feature","geometry":{"type":"Point","coordinates":[129.858578,32.745948]},"properties":{"Name":"水の浦公園","Jusho":"長崎県長崎市水の浦町","kouzui":"○","gake":"×","takashio":"×","jishin":"×","tsunami":"×","kaji":"○","naisui":"○","kazan":"×"}}
,{"type":"Feature","geometry":{"type":"Point","coordinates":[129.851191,32.735882]},"properties":{"Name":"立神公園","Jusho":"長崎県長崎市東立神町","kouzui":"○","gake":"○","takashio":"○","jishin":"×","tsunami":"○","kaji":"○","naisui":"○","kazan":"×"}}
,{"type":"Feature","geometry":{"type":"Point","coordinates":[129.857087,32.754275]},"properties":{"Name":"稲佐近隣公園","Jusho":"長崎県長崎市曙町","kouzui":"○","gake":"○","takashio":"○","jishin":"×","tsunami":"○","kaji":"○","naisui":"○","kazan":"×"}}
,{"type":"Feature","geometry":{"type":"Point","coordinates":[129.867177,32.716946]},"properties":{"Name":"上戸町公園","Jusho":"長崎県長崎市上戸町","kouzui":"○","gake":"×","takashio":"○","jishin":"×","tsunami":"○","kaji":"○","naisui":"○","kazan":"×"}}
,{"type":"Feature","geometry":{"type":"Point","coordinates":[129.861955,32.722213]},"properties":{"Name":"鶴見公園","Jusho":"長崎県長崎市戸町３丁目","kouzui":"○","gake":"○","takashio":"×","jishin":"×","tsunami":"×","kaji":"○","naisui":"○","kazan":"×"}}
,{"type":"Feature","geometry":{"type":"Point","coordinates":[129.86901,32.72934]},"properties":{"Name":"鍋冠山公園","Jusho":"長崎県長崎市出雲・東琴平・戸町","kouzui":"○","gake":"○","takashio":"○","jishin":"×","tsunami":"○","kaji":"○","naisui":"○","kazan":"×"}}
,{"type":"Feature","geometry":{"type":"Point","coordinates":[129.878016,32.732813]},"properties":{"Name":"どんの山公園","Jusho":"長崎県長崎市元町","kouzui":"○","gake":"○","takashio":"○","jishin":"×","tsunami":"○","kaji":"○","naisui":"○","kazan":"×"}}
,{"type":"Feature","geometry":{"type":"Point","coordinates":[129.881913,32.729923]},"properties":{"Name":"南町公園","Jusho":"長崎県長崎市南町","kouzui":"○","gake":"○","takashio":"○","jishin":"×","tsunami":"○","kaji":"○","naisui":"○","kazan":"×"}}
,{"type":"Feature","geometry":{"type":"Point","coordinates":[129.874425,32.740969]},"properties":{"Name":"湊公園","Jusho":"長崎県長崎市新地町","kouzui":"○","gake":"○","takashio":"×","jishin":"×","tsunami":"×","kaji":"○","naisui":"○","kazan":"×"}}
,{"type":"Feature","geometry":{"type":"Point","coordinates":[129.878518,32.737806]},"properties":{"Name":"仁田中央公園","Jusho":"長崎県長崎市稲田町","kouzui":"○","gake":"○","takashio":"○","jishin":"×","tsunami":"○","kaji":"○","naisui":"○","kazan":"×"}}
,{"type":"Feature","geometry":{"type":"Point","coordinates":[129.867328,32.733894]},"properties":{"Name":"小曽根公園","Jusho":"長崎県長崎市小曽根町","kouzui":"○","gake":"○","takashio":"○","jishin":"×","tsunami":"○","kaji":"○","naisui":"○","kazan":"×"}}
,{"type":"Feature","geometry":{"type":"Point","coordinates":[129.879473,32.741051]},"properties":{"Name":"丸山公園","Jusho":"長崎県長崎市寄合町","kouzui":"○","gake":"○","takashio":"○","jishin":"×","tsunami":"○","kaji":"○","naisui":"○","kazan":"×"}}
,{"type":"Feature","geometry":{"type":"Point","coordinates":[129.875487,32.734451]},"properties":{"Name":"東山公園","Jusho":"長崎県長崎市東山町","kouzui":"○","gake":"○","takashio":"○","jishin":"×","tsunami":"○","kaji":"○","naisui":"○","kazan":"×"}}
,{"type":"Feature","geometry":{"type":"Point","coordinates":[129.86353,32.767019]},"properties":{"Name":"川口公園","Jusho":"長崎県長崎市川口町","kouzui":"○","gake":"○","takashio":"×","jishin":"×","tsunami":"×","kaji":"○","naisui":"○","kazan":"×"}}
,{"type":"Feature","geometry":{"type":"Point","coordinates":[129.8655,32.76696]},"properties":{"Name":"山王公園","Jusho":"長崎県長崎市岩川町","kouzui":"○","gake":"○","takashio":"×","jishin":"×","tsunami":"×","kaji":"○","naisui":"○","kazan":"×"}}
,{"type":"Feature","geometry":{"type":"Point","coordinates":[129.85337,32.77243]},"properties":{"Name":"富士見公園","Jusho":"長崎県長崎市富士見町","kouzui":"○","gake":"○","takashio":"○","jishin":"×","tsunami":"○","kaji":"○","naisui":"○","kazan":"×"}}
,{"type":"Feature","geometry":{"type":"Point","coordinates":[129.856564,32.773577]},"properties":{"Name":"城山公園","Jusho":"長崎県長崎市城山町","kouzui":"○","gake":"○","takashio":"○","jishin":"×","tsunami":"○","kaji":"○","naisui":"○","kazan":"×"}}
,{"type":"Feature","geometry":{"type":"Point","coordinates":[129.86703,32.776342]},"properties":{"Name":"天主公園","Jusho":"長崎県長崎市平和町","kouzui":"○","gake":"○","takashio":"○","jishin":"×","tsunami":"○","kaji":"○","naisui":"○","kazan":"×"}}
,{"type":"Feature","geometry":{"type":"Point","coordinates":[129.86342,32.77595]},"properties":{"Name":"平和公園","Jusho":"長崎県長崎市松山町外","kouzui":"○","gake":"○","takashio":"○","jishin":"×","tsunami":"○","kaji":"○","naisui":"○","kazan":"×"}}
,{"type":"Feature","geometry":{"type":"Point","coordinates":[129.86942,32.78229]},"properties":{"Name":"本原公園","Jusho":"長崎県長崎市本原町","kouzui":"○","gake":"○","takashio":"○","jishin":"×","tsunami":"○","kaji":"○","naisui":"○","kazan":"×"}}
,{"type":"Feature","geometry":{"type":"Point","coordinates":[129.849126,32.770754]},"properties":{"Name":"花園公園","Jusho":"長崎県長崎市花園町","kouzui":"○","gake":"○","takashio":"○","jishin":"×","tsunami":"○","kaji":"○","naisui":"○","kazan":"×"}}
,{"type":"Feature","geometry":{"type":"Point","coordinates":[129.869951,32.78545]},"properties":{"Name":"末広公園","Jusho":"長崎県長崎市扇町","kouzui":"○","gake":"×","takashio":"○","jishin":"×","tsunami":"○","kaji":"○","naisui":"○","kazan":"×"}}
,{"type":"Feature","geometry":{"type":"Point","coordinates":[129.851218,32.770334]},"properties":{"Name":"立岩公園","Jusho":"長崎県長崎市立岩町","kouzui":"○","gake":"○","takashio":"○","jishin":"×","tsunami":"○","kaji":"○","naisui":"○","kazan":"×"}}
,{"type":"Feature","geometry":{"type":"Point","coordinates":[129.840366,32.776191]},"properties":{"Name":"おおぞら公園","Jusho":"長崎県長崎市城山台２丁目","kouzui":"○","gake":"○","takashio":"○","jishin":"×","tsunami":"○","kaji":"○","naisui":"○","kazan":"×"}}
,{"type":"Feature","geometry":{"type":"Point","coordinates":[129.871893,32.775555]},"properties":{"Name":"本尾公園","Jusho":"長崎県長崎市本尾町","kouzui":"○","gake":"○","takashio":"○","jishin":"×","tsunami":"○","kaji":"○","naisui":"○","kazan":"×"}}
,{"type":"Feature","geometry":{"type":"Point","coordinates":[129.88121,32.78269]},"properties":{"Name":"三原公園","Jusho":"長崎県長崎市三原町","kouzui":"○","gake":"○","takashio":"○","jishin":"×","tsunami":"○","kaji":"○","naisui":"○","kazan":"×"}}
,{"type":"Feature","geometry":{"type":"Point","coordinates":[129.87117,32.78395]},"properties":{"Name":"石神公園","Jusho":"長崎県長崎市石神町","kouzui":"○","gake":"○","takashio":"○","jishin":"×","tsunami":"○","kaji":"○","naisui":"○","kazan":"×"}}
,{"type":"Feature","geometry":{"type":"Point","coordinates":[129.85911,32.77752]},"properties":{"Name":"城栄公園","Jusho":"長崎県長崎市城栄・油木町","kouzui":"○","gake":"○","takashio":"○","jishin":"×","tsunami":"○","kaji":"○","naisui":"○","kazan":"×"}}
,{"type":"Feature","geometry":{"type":"Point","coordinates":[129.839258,32.770359]},"properties":{"Name":"城山台公園","Jusho":"長崎県長崎市城山台２丁目","kouzui":"○","gake":"×","takashio":"○","jishin":"×","tsunami":"○","kaji":"○","naisui":"○","kazan":"×"}}
,{"type":"Feature","geometry":{"type":"Point","coordinates":[129.850325,32.772398]},"properties":{"Name":"かめ焼公園","Jusho":"長崎県長崎市花園町","kouzui":"○","gake":"○","takashio":"○","jishin":"×","tsunami":"○","kaji":"○","naisui":"○","kazan":"×"}}
,{"type":"Feature","geometry":{"type":"Point","coordinates":[129.94272,32.757]},"properties":{"Name":"天神籠公園","Jusho":"長崎県長崎市界町","kouzui":"○","gake":"○","takashio":"○","jishin":"×","tsunami":"○","kaji":"○","naisui":"○","kazan":"×"}}
,{"type":"Feature","geometry":{"type":"Point","coordinates":[129.94242,32.75936]},"properties":{"Name":"日見公園","Jusho":"長崎県長崎市宿町","kouzui":"○","gake":"○","takashio":"○","jishin":"×","tsunami":"○","kaji":"○","naisui":"○","kazan":"×"}}
,{"type":"Feature","geometry":{"type":"Point","coordinates":[129.94532,32.80802]},"properties":{"Name":"松原上床公園","Jusho":"長崎県長崎市松原町","kouzui":"○","gake":"○","takashio":"○","jishin":"×","tsunami":"○","kaji":"○","naisui":"○","kazan":"×"}}
,{"type":"Feature","geometry":{"type":"Point","coordinates":[129.95731,32.77276]},"properties":{"Name":"矢上団地第１公園","Jusho":"長崎県長崎市かき道２丁目","kouzui":"○","gake":"○","takashio":"○","jishin":"×","tsunami":"○","kaji":"○","naisui":"○","kazan":"×"}}
,{"type":"Feature","geometry":{"type":"Point","coordinates":[129.95068,32.79346]},"properties":{"Name":"鶴の尾団地東公園","Jusho":"長崎県長崎市鶴の尾町","kouzui":"○","gake":"○","takashio":"○","jishin":"×","tsunami":"○","kaji":"○","naisui":"○","kazan":"×"}}
,{"type":"Feature","geometry":{"type":"Point","coordinates":[129.949505,32.765767]},"properties":{"Name":"東望山公園","Jusho":"長崎県長崎市田中町","kouzui":"○","gake":"○","takashio":"○","jishin":"×","tsunami":"○","kaji":"○","naisui":"○","kazan":"×"}}
,{"type":"Feature","geometry":{"type":"Point","coordinates":[129.96002,32.8081]},"properties":{"Name":"つつじが丘中央公園","Jusho":"長崎県長崎市つつじヶ丘3丁目","kouzui":"○","gake":"○","takashio":"○","jishin":"×","tsunami":"○","kaji":"○","naisui":"○","kazan":"×"}}
,{"type":"Feature","geometry":{"type":"Point","coordinates":[129.96074,32.80531]},"properties":{"Name":"古賀団地北公園","Jusho":"長崎県長崎市つつじヶ丘1丁目","kouzui":"○","gake":"○","takashio":"○","jishin":"×","tsunami":"○","kaji":"○","naisui":"○","kazan":"×"}}
,{"type":"Feature","geometry":{"type":"Point","coordinates":[129.948199,32.793469]},"properties":{"Name":"鶴の尾団地西公園","Jusho":"長崎県長崎市鶴の尾町","kouzui":"○","gake":"×","takashio":"○","jishin":"×","tsunami":"○","kaji":"○","naisui":"○","kazan":"×"}}
,{"type":"Feature","geometry":{"type":"Point","coordinates":[129.958512,32.770988]},"properties":{"Name":"矢上団地近隣公園","Jusho":"長崎県長崎市かき道２丁目","kouzui":"○","gake":"×","takashio":"○","jishin":"×","tsunami":"○","kaji":"○","naisui":"○","kazan":"×"}}
,{"type":"Feature","geometry":{"type":"Point","coordinates":[129.96958,32.76759]},"properties":{"Name":"長崎東公園","Jusho":"長崎県長崎市戸石町","kouzui":"○","gake":"×","takashio":"○","jishin":"×","tsunami":"○","kaji":"○","naisui":"○","kazan":"×"}}
,{"type":"Feature","geometry":{"type":"Point","coordinates":[129.82683,32.7228]},"properties":{"Name":"神ノ島公園","Jusho":"長崎県長崎市神ノ島町・1.2.3丁目","kouzui":"○","gake":"○","takashio":"○","jishin":"×","tsunami":"○","kaji":"○","naisui":"○","kazan":"×"}}
,{"type":"Feature","geometry":{"type":"Point","coordinates":[129.8382,32.78384]},"properties":{"Name":"小江原公園","Jusho":"長崎県長崎市小江原１丁目","kouzui":"○","gake":"×","takashio":"○","jishin":"×","tsunami":"○","kaji":"○","naisui":"○","kazan":"×"}}
,{"type":"Feature","geometry":{"type":"Point","coordinates":[129.841104,32.778318]},"properties":{"Name":"いちょう公園","Jusho":"長崎県長崎市小江原２丁目","kouzui":"○","gake":"○","takashio":"○","jishin":"×","tsunami":"○","kaji":"○","naisui":"○","kazan":"×"}}
,{"type":"Feature","geometry":{"type":"Point","coordinates":[129.82874,32.77886]},"properties":{"Name":"小江原台近隣公園","Jusho":"長崎県長崎市小江原３丁目","kouzui":"○","gake":"○","takashio":"○","jishin":"×","tsunami":"○","kaji":"○","naisui":"○","kazan":"×"}}
,{"type":"Feature","geometry":{"type":"Point","coordinates":[129.831831,32.7448]},"properties":{"Name":"大浜公園","Jusho":"長崎県長崎市大浜町","kouzui":"○","gake":"×","takashio":"×","jishin":"×","tsunami":"×","kaji":"○","naisui":"○","kazan":"×"}}
,{"type":"Feature","geometry":{"type":"Point","coordinates":[129.817248,32.74406]},"properties":{"Name":"福田本町公園","Jusho":"長崎県長崎市福田本町","kouzui":"○","gake":"○","takashio":"○","jishin":"×","tsunami":"○","kaji":"○","naisui":"○","kazan":"×"}}
,{"type":"Feature","geometry":{"type":"Point","coordinates":[129.7888,32.78759]},"properties":{"Name":"式見公園","Jusho":"長崎県長崎市式見町","kouzui":"○","gake":"○","takashio":"×","jishin":"×","tsunami":"×","kaji":"○","naisui":"○","kazan":"×"}}
,{"type":"Feature","geometry":{"type":"Point","coordinates":[129.77367,32.8254]},"properties":{"Name":"京泊公園","Jusho":"長崎県長崎市京泊3丁目","kouzui":"○","gake":"×","takashio":"○","jishin":"×","tsunami":"○","kaji":"○","naisui":"○","kazan":"×"}}
,{"type":"Feature","geometry":{"type":"Point","coordinates":[129.748127,32.826183]},"properties":{"Name":"三重公園","Jusho":"長崎県長崎市三重町","kouzui":"○","gake":"×","takashio":"○","jishin":"×","tsunami":"○","kaji":"○","naisui":"○","kazan":"×"}}
,{"type":"Feature","geometry":{"type":"Point","coordinates":[129.80832,32.82356]},"properties":{"Name":"鳴見台近隣公園","Jusho":"長崎県長崎市鳴見台２丁目","kouzui":"○","gake":"×","takashio":"○","jishin":"×","tsunami":"○","kaji":"○","naisui":"○","kazan":"×"}}
,{"type":"Feature","geometry":{"type":"Point","coordinates":[129.824318,32.686855]},"properties":{"Name":"深堀公園","Jusho":"長崎県長崎市深堀町５丁目","kouzui":"○","gake":"○","takashio":"×","jishin":"×","tsunami":"×","kaji":"○","naisui":"○","kazan":"×"}}
,{"type":"Feature","geometry":{"type":"Point","coordinates":[129.831464,32.685326]},"properties":{"Name":"深堀東公園","Jusho":"長崎県長崎市深堀町１丁目","kouzui":"○","gake":"×","takashio":"○","jishin":"×","tsunami":"○","kaji":"○","naisui":"○","kazan":"×"}}
,{"type":"Feature","geometry":{"type":"Point","coordinates":[129.84246,32.68836]},"properties":{"Name":"鶴見台第１公園","Jusho":"長崎県長崎市鶴見台１丁目","kouzui":"○","gake":"×","takashio":"○","jishin":"×","tsunami":"○","kaji":"○","naisui":"○","kazan":"×"}}
,{"type":"Feature","geometry":{"type":"Point","coordinates":[129.84156,32.69145]},"properties":{"Name":"鶴見台第３公園","Jusho":"長崎県長崎市鶴見台２丁目","kouzui":"○","gake":"×","takashio":"○","jishin":"×","tsunami":"○","kaji":"○","naisui":"○","kazan":"×"}}
,{"type":"Feature","geometry":{"type":"Point","coordinates":[129.82835,32.66072]},"properties":{"Name":"平山台第６公園","Jusho":"長崎県長崎市平山台２丁目","kouzui":"○","gake":"○","takashio":"○","jishin":"×","tsunami":"○","kaji":"○","naisui":"○","kazan":"×"}}
,{"type":"Feature","geometry":{"type":"Point","coordinates":[129.85208,32.70143]},"properties":{"Name":"おりおん座公園","Jusho":"長崎県長崎市ダイヤランド３丁目","kouzui":"○","gake":"○","takashio":"○","jishin":"×","tsunami":"○","kaji":"○","naisui":"○","kazan":"×"}}
,{"type":"Feature","geometry":{"type":"Point","coordinates":[129.86057,32.70086]},"properties":{"Name":"南部地区公園","Jusho":"長崎県長崎市ダイヤランド１・４丁目","kouzui":"○","gake":"×","takashio":"○","jishin":"×","tsunami":"○","kaji":"○","naisui":"○","kazan":"×"}}
,{"type":"Feature","geometry":{"type":"Point","coordinates":[129.91143,32.71039]},"properties":{"Name":"白岩公園","Jusho":"長崎県長崎市茂木町","kouzui":"○","gake":"○","takashio":"×","jishin":"×","tsunami":"×","kaji":"○","naisui":"○","kazan":"×"}}
,{"type":"Feature","geometry":{"type":"Point","coordinates":[129.867885,32.791033]},"properties":{"Name":"昭和公園","Jusho":"長崎県長崎市昭和１丁目","kouzui":"○","gake":"○","takashio":"○","jishin":"×","tsunami":"○","kaji":"○","naisui":"○","kazan":"×"}}
,{"type":"Feature","geometry":{"type":"Point","coordinates":[129.86118,32.7932]},"properties":{"Name":"住吉公園","Jusho":"長崎県長崎市住吉町","kouzui":"○","gake":"○","takashio":"○","jishin":"×","tsunami":"○","kaji":"○","naisui":"○","kazan":"×"}}
,{"type":"Feature","geometry":{"type":"Point","coordinates":[129.86195,32.795207]},"properties":{"Name":"泉町公園","Jusho":"長崎県長崎市泉２丁目","kouzui":"○","gake":"○","takashio":"○","jishin":"×","tsunami":"○","kaji":"○","naisui":"○","kazan":"×"}}
,{"type":"Feature","geometry":{"type":"Point","coordinates":[129.83496,32.80439]},"properties":{"Name":"滑石中央公園","Jusho":"長崎県長崎市滑石６丁目","kouzui":"○","gake":"×","takashio":"○","jishin":"×","tsunami":"○","kaji":"○","naisui":"○","kazan":"×"}}
,{"type":"Feature","geometry":{"type":"Point","coordinates":[129.854614,32.785651]},"properties":{"Name":"白鳥公園","Jusho":"長崎県長崎市白鳥町","kouzui":"○","gake":"×","takashio":"○","jishin":"×","tsunami":"○","kaji":"○","naisui":"○","kazan":"×"}}
,{"type":"Feature","geometry":{"type":"Point","coordinates":[129.88097,32.80239]},"properties":{"Name":"おたけ公園","Jusho":"長崎県長崎市女の都２丁目","kouzui":"○","gake":"○","takashio":"○","jishin":"×","tsunami":"○","kaji":"○","naisui":"○","kazan":"×"}}
,{"type":"Feature","geometry":{"type":"Point","coordinates":[129.835078,32.806838]},"properties":{"Name":"北陽公園","Jusho":"長崎県長崎市滑石４丁目","kouzui":"○","gake":"×","takashio":"○","jishin":"×","tsunami":"○","kaji":"○","naisui":"○","kazan":"×"}}
,{"type":"Feature","geometry":{"type":"Point","coordinates":[129.83505,32.813745]},"properties":{"Name":"秋寄公園","Jusho":"長崎県長崎市横尾２丁目","kouzui":"○","gake":"×","takashio":"○","jishin":"×","tsunami":"○","kaji":"○","naisui":"○","kazan":"×"}}
,{"type":"Feature","geometry":{"type":"Point","coordinates":[129.846135,32.80762]},"properties":{"Name":"滑石平宗公園","Jusho":"長崎県長崎市滑石２丁目","kouzui":"○","gake":"○","takashio":"○","jishin":"×","tsunami":"○","kaji":"○","naisui":"○","kazan":"×"}}
,{"type":"Feature","geometry":{"type":"Point","coordinates":[129.833022,32.811937]},"properties":{"Name":"築廻公園","Jusho":"長崎県長崎市横尾２、３丁目","kouzui":"○","gake":"×","takashio":"○","jishin":"×","tsunami":"○","kaji":"○","naisui":"○","kazan":"×"}}
,{"type":"Feature","geometry":{"type":"Point","coordinates":[129.88121,32.80495]},"properties":{"Name":"女の都東公園","Jusho":"長崎県長崎市女の都３丁目","kouzui":"○","gake":"○","takashio":"○","jishin":"×","tsunami":"○","kaji":"○","naisui":"○","kazan":"×"}}
,{"type":"Feature","geometry":{"type":"Point","coordinates":[129.84484,32.8015]},"properties":{"Name":"エミネント葉山中央公園","Jusho":"長崎県長崎市エミネント葉山町","kouzui":"○","gake":"○","takashio":"○","jishin":"×","tsunami":"○","kaji":"○","naisui":"○","kazan":"×"}}
,{"type":"Feature","geometry":{"type":"Point","coordinates":[129.85877,32.79278]},"properties":{"Name":"中園公園","Jusho":"長崎県長崎市中園町","kouzui":"○","gake":"○","takashio":"○","jishin":"×","tsunami":"○","kaji":"○","naisui":"○","kazan":"×"}}
,{"type":"Feature","geometry":{"type":"Point","coordinates":[129.86288,32.78775]},"properties":{"Name":"家野町公園","Jusho":"長崎県長崎市家野町","kouzui":"○","gake":"○","takashio":"○","jishin":"×","tsunami":"○","kaji":"○","naisui":"○","kazan":"×"}}
,{"type":"Feature","geometry":{"type":"Point","coordinates":[129.88347,32.79381]},"properties":{"Name":"川平公園","Jusho":"長崎県長崎市川平町","kouzui":"○","gake":"○","takashio":"○","jishin":"×","tsunami":"○","kaji":"○","naisui":"○","kazan":"×"}}
,{"type":"Feature","geometry":{"type":"Point","coordinates":[129.81884,32.60834]},"properties":{"Name":"木場運動公園","Jusho":"長崎県長崎市宮崎町","kouzui":"○","gake":"○","takashio":"○","jishin":"×","tsunami":"○","kaji":"○","naisui":"○","kazan":"×"}}
,{"type":"Feature","geometry":{"type":"Point","coordinates":[129.8344088,32.62560515]},"properties":{"Name":"川原小学校グランド","Jusho":"長崎県長崎市宮崎町","kouzui":"○","gake":"○","takashio":"○","jishin":"×","tsunami":"○","kaji":"○","naisui":"○","kazan":"×"}}
,{"type":"Feature","geometry":{"type":"Point","coordinates":[129.830372,32.63281103]},"properties":{"Name":"川原保育所グランド","Jusho":"長崎県長崎市川原町","kouzui":"○","gake":"○","takashio":"○","jishin":"×","tsunami":"○","kaji":"○","naisui":"○","kazan":"×"}}
,{"type":"Feature","geometry":{"type":"Point","coordinates":[129.8383999,32.64327772]},"properties":{"Name":"為石小学校グランド","Jusho":"長崎県長崎市為石町","kouzui":"○","gake":"○","takashio":"○","jishin":"×","tsunami":"○","kaji":"○","naisui":"○","kazan":"×"}}
,{"type":"Feature","geometry":{"type":"Point","coordinates":[129.83428,32.64399141]},"properties":{"Name":"三和中学校グランド","Jusho":"長崎県長崎市為石町","kouzui":"○","gake":"○","takashio":"○","jishin":"×","tsunami":"○","kaji":"○","naisui":"○","kazan":"×"}}
,{"type":"Feature","geometry":{"type":"Point","coordinates":[129.83118,32.65275]},"properties":{"Name":"元宮公園","Jusho":"長崎県長崎市布巻町","kouzui":"○","gake":"○","takashio":"○","jishin":"×","tsunami":"○","kaji":"○","naisui":"○","kazan":"×"}}
,{"type":"Feature","geometry":{"type":"Point","coordinates":[129.8177147,32.65231143]},"properties":{"Name":"蚊焼小学校グランド","Jusho":"長崎県長崎市蚊焼町","kouzui":"○","gake":"○","takashio":"×","jishin":"×","tsunami":"×","kaji":"○","naisui":"○","kazan":"×"}}
,{"type":"Feature","geometry":{"type":"Point","coordinates":[129.80944,32.64103]},"properties":{"Name":"岳路運動公園","Jusho":"長崎県長崎市蚊焼町","kouzui":"○","gake":"○","takashio":"○","jishin":"×","tsunami":"○","kaji":"○","naisui":"○","kazan":"×"}}
,{"type":"Feature","geometry":{"type":"Point","coordinates":[129.821341,32.66483064]},"properties":{"Name":"晴海台小学校グランド","Jusho":"長崎県長崎市晴海台町","kouzui":"○","gake":"○","takashio":"○","jishin":"×","tsunami":"○","kaji":"○","naisui":"○","kazan":"×"}}
,{"type":"Feature","geometry":{"type":"Point","coordinates":[129.75123,32.66258]},"properties":{"Name":"先ノ谷公園グランド","Jusho":"長崎県長崎市高島町","kouzui":"○","gake":"○","takashio":"○","jishin":"×","tsunami":"○","kaji":"○","naisui":"○","kazan":"×"}}
,{"type":"Feature","geometry":{"type":"Point","coordinates":[129.794326,32.628304]},"properties":{"Name":"黒浜広場","Jusho":"長崎県長崎市黒浜町","kouzui":"○","gake":"○","takashio":"×","jishin":"×","tsunami":"×","kaji":"○","naisui":"○","kazan":"×"}}
,{"type":"Feature","geometry":{"type":"Point","coordinates":[129.7919065,32.62074819]},"properties":{"Name":"以下宿広場","Jusho":"長崎県長崎市以下宿町","kouzui":"○","gake":"○","takashio":"×","jishin":"×","tsunami":"×","kaji":"○","naisui":"○","kazan":"×"}}
,{"type":"Feature","geometry":{"type":"Point","coordinates":[129.79073,32.60888]},"properties":{"Name":"高浜運動公園","Jusho":"長崎県長崎市高浜町","kouzui":"○","gake":"○","takashio":"○","jishin":"×","tsunami":"○","kaji":"○","naisui":"○","kazan":"×"}}
,{"type":"Feature","geometry":{"type":"Point","coordinates":[129.7892779,32.60618027]},"properties":{"Name":"旧野母崎高校グランド","Jusho":"長崎県長崎市高浜町","kouzui":"○","gake":"○","takashio":"○","jishin":"×","tsunami":"○","kaji":"○","naisui":"○","kazan":"×"}}
,{"type":"Feature","geometry":{"type":"Point","coordinates":[129.7844821,32.60772573]},"properties":{"Name":"旧高浜小学校グランド","Jusho":"長崎県長崎市高浜町","kouzui":"○","gake":"○","takashio":"○","jishin":"×","tsunami":"○","kaji":"○","naisui":"○","kazan":"×"}}
,{"type":"Feature","geometry":{"type":"Point","coordinates":[129.787199,32.603153]},"properties":{"Name":"高浜農村公園","Jusho":"長崎県長崎市高浜町","kouzui":"○","gake":"○","takashio":"○","jishin":"×","tsunami":"○","kaji":"○","naisui":"○","kazan":"×"}}
,{"type":"Feature","geometry":{"type":"Point","coordinates":[129.76113,32.59334]},"properties":{"Name":"野母崎総合運動公園","Jusho":"長崎県長崎市野母町","kouzui":"○","gake":"○","takashio":"○","jishin":"×","tsunami":"○","kaji":"○","naisui":"○","kazan":"×"}}
,{"type":"Feature","geometry":{"type":"Point","coordinates":[129.7602189,32.58247521]},"properties":{"Name":"野母崎小中学校グランド","Jusho":"長崎県長崎市野母町","kouzui":"○","gake":"○","takashio":"○","jishin":"×","tsunami":"○","kaji":"○","naisui":"○","kazan":"×"}}
,{"type":"Feature","geometry":{"type":"Point","coordinates":[129.7596395,32.58118696]},"properties":{"Name":"野母崎地域センターグランド","Jusho":"長崎県長崎市野母町","kouzui":"○","gake":"○","takashio":"○","jishin":"×","tsunami":"○","kaji":"○","naisui":"○","kazan":"×"}}
,{"type":"Feature","geometry":{"type":"Point","coordinates":[129.7521454,32.58086602]},"properties":{"Name":"旧野母崎小学校グランド","Jusho":"長崎県長崎市野母町","kouzui":"○","gake":"○","takashio":"×","jishin":"×","tsunami":"×","kaji":"○","naisui":"○","kazan":"×"}}
,{"type":"Feature","geometry":{"type":"Point","coordinates":[129.753568,32.581072]},"properties":{"Name":"野母児童遊園","Jusho":"長崎県長崎市野母町","kouzui":"○","gake":"○","takashio":"○","jishin":"×","tsunami":"○","kaji":"○","naisui":"○","kazan":"×"}}
,{"type":"Feature","geometry":{"type":"Point","coordinates":[129.77665,32.58187]},"properties":{"Name":"脇岬ふれあい公園","Jusho":"長崎県長崎市脇岬町","kouzui":"○","gake":"○","takashio":"×","jishin":"×","tsunami":"×","kaji":"○","naisui":"○","kazan":"×"}}
,{"type":"Feature","geometry":{"type":"Point","coordinates":[129.777727,32.58066]},"properties":{"Name":"脇岬北児童遊園","Jusho":"長崎県長崎市脇岬町","kouzui":"○","gake":"○","takashio":"○","jishin":"×","tsunami":"○","kaji":"○","naisui":"○","kazan":"×"}}
,{"type":"Feature","geometry":{"type":"Point","coordinates":[129.780411,32.576619]},"properties":{"Name":"脇岬山下児童遊園","Jusho":"長崎県長崎市脇岬町","kouzui":"○","gake":"○","takashio":"×","jishin":"×","tsunami":"×","kaji":"○","naisui":"○","kazan":"×"}}
,{"type":"Feature","geometry":{"type":"Point","coordinates":[129.7865045,32.5615716]},"properties":{"Name":"旧樺島小学校グランド","Jusho":"長崎県長崎市野母崎樺島町","kouzui":"○","gake":"○","takashio":"×","jishin":"×","tsunami":"×","kaji":"○","naisui":"○","kazan":"×"}}
,{"type":"Feature","geometry":{"type":"Point","coordinates":[129.7768164,32.70608826]},"properties":{"Name":"小中学校グランド","Jusho":"長崎県長崎市伊王島1丁目","kouzui":"○","gake":"○","takashio":"○","jishin":"×","tsunami":"○","kaji":"○","naisui":"○","kazan":"×"}}
,{"type":"Feature","geometry":{"type":"Point","coordinates":[129.8146999,32.6897735]},"properties":{"Name":"香焼小学校グランド","Jusho":"長崎県長崎市香焼町","kouzui":"○","gake":"○","takashio":"×","jishin":"×","tsunami":"×","kaji":"○","naisui":"○","kazan":"×"}}
,{"type":"Feature","geometry":{"type":"Point","coordinates":[129.8121464,32.68807595]},"properties":{"Name":"香焼中学校グランド","Jusho":"長崎県長崎市香焼町","kouzui":"○","gake":"○","takashio":"×","jishin":"×","tsunami":"×","kaji":"○","naisui":"○","kazan":"×"}}
,{"type":"Feature","geometry":{"type":"Point","coordinates":[129.79928,32.68969]},"properties":{"Name":"香焼総合公園グランド","Jusho":"長崎県長崎市香焼町","kouzui":"○","gake":"○","takashio":"○","jishin":"×","tsunami":"○","kaji":"○","naisui":"○","kazan":"×"}}
,{"type":"Feature","geometry":{"type":"Point","coordinates":[129.808331,32.687097]},"properties":{"Name":"香焼第１児童公園","Jusho":"長崎県長崎市香焼町","kouzui":"○","gake":"○","takashio":"○","jishin":"×","tsunami":"○","kaji":"○","naisui":"○","kazan":"×"}}
,{"type":"Feature","geometry":{"type":"Point","coordinates":[129.814271,32.692351]},"properties":{"Name":"香焼第２児童公園","Jusho":"長崎県長崎市香焼町","kouzui":"○","gake":"○","takashio":"×","jishin":"×","tsunami":"×","kaji":"○","naisui":"○","kazan":"×"}}
,{"type":"Feature","geometry":{"type":"Point","coordinates":[129.80082,32.68508]},"properties":{"Name":"香焼第３児童公園","Jusho":"長崎県長崎市香焼町","kouzui":"○","gake":"○","takashio":"○","jishin":"×","tsunami":"○","kaji":"○","naisui":"○","kazan":"×"}}
,{"type":"Feature","geometry":{"type":"Point","coordinates":[129.812391,32.691403]},"properties":{"Name":"香焼第４児童公園","Jusho":"長崎県長崎市香焼町","kouzui":"○","gake":"○","takashio":"○","jishin":"×","tsunami":"○","kaji":"○","naisui":"○","kazan":"×"}}
,{"type":"Feature","geometry":{"type":"Point","coordinates":[129.817436,32.698175]},"properties":{"Name":"香焼第５児童公園","Jusho":"長崎県長崎市香焼町","kouzui":"○","gake":"○","takashio":"×","jishin":"×","tsunami":"×","kaji":"○","naisui":"○","kazan":"×"}}
,{"type":"Feature","geometry":{"type":"Point","coordinates":[129.807524,32.681809]},"properties":{"Name":"香焼第６児童公園","Jusho":"長崎県長崎市香焼町","kouzui":"○","gake":"○","takashio":"○","jishin":"×","tsunami":"○","kaji":"○","naisui":"○","kazan":"×"}}
,{"type":"Feature","geometry":{"type":"Point","coordinates":[129.72162,32.84014]},"properties":{"Name":"外海総合公園","Jusho":"長崎県長崎市下黒崎町","kouzui":"○","gake":"○","takashio":"○","jishin":"×","tsunami":"○","kaji":"○","naisui":"○","kazan":"×"}}
,{"type":"Feature","geometry":{"type":"Point","coordinates":[129.7160751,32.83550724]},"properties":{"Name":"黒崎東小学校グランド","Jusho":"長崎県長崎市下黒崎町","kouzui":"○","gake":"○","takashio":"○","jishin":"×","tsunami":"○","kaji":"○","naisui":"○","kazan":"×"}}
,{"type":"Feature","geometry":{"type":"Point","coordinates":[129.7149029,32.83865556]},"properties":{"Name":"黒崎地区公民館運動広場","Jusho":"長崎県長崎市下黒崎町","kouzui":"○","gake":"○","takashio":"○","jishin":"×","tsunami":"○","kaji":"○","naisui":"○","kazan":"×"}}
,{"type":"Feature","geometry":{"type":"Point","coordinates":[129.7182155,32.84257899]},"properties":{"Name":"上黒崎公民館前広場","Jusho":"長崎県長崎市上黒崎町","kouzui":"○","gake":"○","takashio":"○","jishin":"×","tsunami":"○","kaji":"○","naisui":"○","kazan":"×"}}
,{"type":"Feature","geometry":{"type":"Point","coordinates":[129.7068644,32.8377068]},"properties":{"Name":"旧黒崎中学校グランド","Jusho":"長崎県長崎市東出津町","kouzui":"○","gake":"○","takashio":"○","jishin":"×","tsunami":"○","kaji":"○","naisui":"○","kazan":"×"}}
,{"type":"Feature","geometry":{"type":"Point","coordinates":[129.7022241,32.84312884]},"properties":{"Name":"出津ゲートボール場","Jusho":"長崎県長崎市西出津町","kouzui":"○","gake":"○","takashio":"○","jishin":"×","tsunami":"○","kaji":"○","naisui":"○","kazan":"×"}}
,{"type":"Feature","geometry":{"type":"Point","coordinates":[129.7027203,32.84748696]},"properties":{"Name":"外海中学校グランド","Jusho":"長崎県長崎市西出津町","kouzui":"○","gake":"○","takashio":"○","jishin":"×","tsunami":"○","kaji":"○","naisui":"○","kazan":"×"}}
,{"type":"Feature","geometry":{"type":"Point","coordinates":[129.7111478,32.85876098]},"properties":{"Name":"牧野公民館前広場","Jusho":"長崎県長崎市新牧野町","kouzui":"○","gake":"○","takashio":"○","jishin":"×","tsunami":"○","kaji":"○","naisui":"○","kazan":"×"}}
,{"type":"Feature","geometry":{"type":"Point","coordinates":[129.68123,32.87701]},"properties":{"Name":"外海運動公園","Jusho":"長崎県長崎市神浦夏井町","kouzui":"○","gake":"○","takashio":"○","jishin":"×","tsunami":"○","kaji":"○","naisui":"○","kazan":"×"}}
,{"type":"Feature","geometry":{"type":"Point","coordinates":[129.6840012,32.87888437]},"properties":{"Name":"神浦小学校グランド","Jusho":"長崎県長崎市神浦向町","kouzui":"○","gake":"○","takashio":"×","jishin":"×","tsunami":"×","kaji":"○","naisui":"○","kazan":"×"}}
,{"type":"Feature","geometry":{"type":"Point","coordinates":[129.6811956,32.8810761]},"properties":{"Name":"旧神浦中学校グランド","Jusho":"長崎県長崎市神浦江川町","kouzui":"○","gake":"○","takashio":"○","jishin":"×","tsunami":"○","kaji":"○","naisui":"○","kazan":"×"}}
,{"type":"Feature","geometry":{"type":"Point","coordinates":[129.7290999,32.89328165]},"properties":{"Name":"旧扇山分校グランド","Jusho":"長崎県長崎市神浦扇山町","kouzui":"○","gake":"○","takashio":"○","jishin":"×","tsunami":"○","kaji":"○","naisui":"○","kazan":"×"}}
,{"type":"Feature","geometry":{"type":"Point","coordinates":[129.7094661,32.88853271]},"properties":{"Name":"大中尾２公民館前グランド","Jusho":"長崎県長崎市神浦上大中尾町","kouzui":"○","gake":"○","takashio":"○","jishin":"×","tsunami":"○","kaji":"○","naisui":"○","kazan":"×"}}
,{"type":"Feature","geometry":{"type":"Point","coordinates":[129.6839234,32.86808488]},"properties":{"Name":"上大野公民館広場","Jusho":"長崎県長崎市上大野町","kouzui":"○","gake":"○","takashio":"○","jishin":"×","tsunami":"○","kaji":"○","naisui":"○","kazan":"×"}}
,{"type":"Feature","geometry":{"type":"Point","coordinates":[129.5962501,32.88316416]},"properties":{"Name":"池島鉱業所グランド","Jusho":"長崎県長崎市池島町","kouzui":"○","gake":"○","takashio":"○","jishin":"×","tsunami":"○","kaji":"○","naisui":"○","kazan":"×"}}
,{"type":"Feature","geometry":{"type":"Point","coordinates":[129.80127,32.95418]},"properties":{"Name":"琴海北部運動公園","Jusho":"長崎県長崎市琴海大平町","kouzui":"○","gake":"○","takashio":"×","jishin":"×","tsunami":"×","kaji":"○","naisui":"○","kazan":"×"}}
,{"type":"Feature","geometry":{"type":"Point","coordinates":[129.78521,32.90596]},"properties":{"Name":"琴海中部運動公園","Jusho":"長崎県長崎市長浦町","kouzui":"○","gake":"○","takashio":"×","jishin":"×","tsunami":"×","kaji":"○","naisui":"○","kazan":"×"}}
,{"type":"Feature","geometry":{"type":"Point","coordinates":[129.78764,32.90231]},"properties":{"Name":"琴海中央公園","Jusho":"長崎県長崎市琴海戸根原町","kouzui":"○","gake":"○","takashio":"○","jishin":"×","tsunami":"○","kaji":"○","naisui":"○","kazan":"×"}}
,{"type":"Feature","geometry":{"type":"Point","coordinates":[129.787378,32.865942]},"properties":{"Name":"琴海南部運動公園","Jusho":"長崎県長崎市琴海村松町","kouzui":"○","gake":"○","takashio":"×","jishin":"×","tsunami":"×","kaji":"○","naisui":"○","kazan":"×"}}
,{"type":"Feature","geometry":{"type":"Point","coordinates":[129.967642,32.774668]},"properties":{"Name":"上戸石第1公園","Jusho":"長崎県長崎市上戸石町1964-22他","kouzui":"○","gake":"×","takashio":"○","jishin":"○","tsunami":"○","kaji":"○","naisui":"○","kazan":"×"}}
,{"type":"Feature","geometry":{"type":"Point","coordinates":[129.953971,32.786896]},"properties":{"Name":"彩が丘第1公園","Jusho":"長崎県長崎市東町2505-119","kouzui":"○","gake":"×","takashio":"○","jishin":"○","tsunami":"○","kaji":"○","naisui":"○","kazan":"×"}}
,{"type":"Feature","geometry":{"type":"Point","coordinates":[129.952109,32.785951]},"properties":{"Name":"彩が丘第2公園","Jusho":"長崎県長崎市東町2491-110","kouzui":"○","gake":"×","takashio":"○","jishin":"○","tsunami":"○","kaji":"○","naisui":"○","kazan":"×"}}
,{"type":"Feature","geometry":{"type":"Point","coordinates":[129.942181,32.780603]},"properties":{"Name":"平間1号緑地公園","Jusho":"長崎県長崎市高城台二丁目16番96","kouzui":"○","gake":"○","takashio":"○","jishin":"○","tsunami":"○","kaji":"○","naisui":"○","kazan":"×"}}
,{"type":"Feature","geometry":{"type":"Point","coordinates":[129.945179,32.779125]},"properties":{"Name":"平間3号緑地公園","Jusho":"長崎県長崎市高城台二丁目16番102","kouzui":"○","gake":"○","takashio":"○","jishin":"○","tsunami":"○","kaji":"○","naisui":"○","kazan":"×"}}
,{"type":"Feature","geometry":{"type":"Point","coordinates":[129.948201,32.77861]},"properties":{"Name":"風の子公園","Jusho":"長崎県長崎市高城台一丁目126番67","kouzui":"○","gake":"○","takashio":"○","jishin":"○","tsunami":"○","kaji":"○","naisui":"○","kazan":"×"}}
,{"type":"Feature","geometry":{"type":"Point","coordinates":[129.949666,32.7792037]},"properties":{"Name":"城ノ辻公園","Jusho":"長崎県長崎市矢上町604番","kouzui":"○","gake":"○","takashio":"○","jishin":"○","tsunami":"○","kaji":"○","naisui":"○","kazan":"×"}}
,{"type":"Feature","geometry":{"type":"Point","coordinates":[129.9494,32.773013]},"properties":{"Name":"天満宮公園","Jusho":"長崎県長崎市矢上町97番","kouzui":"○","gake":"×","takashio":"○","jishin":"○","tsunami":"○","kaji":"○","naisui":"○","kazan":"×"}}
,{"type":"Feature","geometry":{"type":"Point","coordinates":[129.94106,32.770207]},"properties":{"Name":"田中町公園","Jusho":"長崎県長崎市田中町608番7他","kouzui":"○","gake":"○","takashio":"○","jishin":"○","tsunami":"○","kaji":"○","naisui":"○","kazan":"×"}}
,{"type":"Feature","geometry":{"type":"Point","coordinates":[129.945554,32.774669]},"properties":{"Name":"海風公園","Jusho":"長崎県長崎市高城台一丁目1471番54","kouzui":"○","gake":"○","takashio":"○","jishin":"○","tsunami":"○","kaji":"○","naisui":"○","kazan":"×"}}
,{"type":"Feature","geometry":{"type":"Point","coordinates":[129.9469274762,32.785339102533]},"properties":{"Name":"平間町公園","Jusho":"長崎県長崎市平間町725番2他","kouzui":"○","gake":"×","takashio":"○","jishin":"×","tsunami":"○","kaji":"○","naisui":"○","kazan":"×"}}
,{"type":"Feature","geometry":{"type":"Point","coordinates":[129.949626,32.786594]},"properties":{"Name":"東町公園","Jusho":"長崎県長崎市東町2193番3","kouzui":"○","gake":"○","takashio":"○","jishin":"×","tsunami":"○","kaji":"○","naisui":"○","kazan":"×"}}
,{"type":"Feature","geometry":{"type":"Point","coordinates":[129.95293,32.78101]},"properties":{"Name":"長龍寺公園","Jusho":"長崎県長崎市東町1934","kouzui":"×","gake":"×","takashio":"○","jishin":"○","tsunami":"○","kaji":"○","naisui":"○","kazan":"×"}}
,{"type":"Feature","geometry":{"type":"Point","coordinates":[129.944712,32.773231]},"properties":{"Name":"上田之浦公園","Jusho":"長崎県長崎市田中町1445番","kouzui":"○","gake":"×","takashio":"○","jishin":"○","tsunami":"○","kaji":"○","naisui":"○","kazan":"×"}}
,{"type":"Feature","geometry":{"type":"Point","coordinates":[129.953009,32.777898]},"properties":{"Name":"矢上町1丁目公園","Jusho":"長崎県長崎市矢上町417番1","kouzui":"×","gake":"○","takashio":"○","jishin":"○","tsunami":"○","kaji":"○","naisui":"○","kazan":"×"}}
,{"type":"Feature","geometry":{"type":"Point","coordinates":[129.950574,32.769012]},"properties":{"Name":"東望公園","Jusho":"長崎県長崎市田中町359番1","kouzui":"×","gake":"○","takashio":"○","jishin":"○","tsunami":"○","kaji":"○","naisui":"○","kazan":"×"}}
,{"type":"Feature","geometry":{"type":"Point","coordinates":[129.948698,32.769743]},"properties":{"Name":"辻の尾公園","Jusho":"長崎県長崎市田中町962番","kouzui":"○","gake":"×","takashio":"○","jishin":"○","tsunami":"○","kaji":"○","naisui":"○","kazan":"×"}}
,{"type":"Feature","geometry":{"type":"Point","coordinates":[129.945639,32.770476]},"properties":{"Name":"下田之浦公園","Jusho":"長崎県長崎市田中町1152番","kouzui":"○","gake":"○","takashio":"○","jishin":"○","tsunami":"○","kaji":"○","naisui":"○","kazan":"×"}}
,{"type":"Feature","geometry":{"type":"Point","coordinates":[129.970709,32.766298]},"properties":{"Name":"おひさま公園","Jusho":"長崎県長崎市戸石町500-221","kouzui":"○","gake":"○","takashio":"○","jishin":"○","tsunami":"○","kaji":"○","naisui":"○","kazan":"×"}}
,{"type":"Feature","geometry":{"type":"Point","coordinates":[129.972789,32.769612]},"properties":{"Name":"くつろぎ公園","Jusho":"長崎県長崎市戸石町500-484","kouzui":"○","gake":"○","takashio":"○","jishin":"○","tsunami":"○","kaji":"○","naisui":"○","kazan":"×"}}
,{"type":"Feature","geometry":{"type":"Point","coordinates":[129.9442,32.777754]},"properties":{"Name":"陽だまり公園","Jusho":"長崎県長崎市高城台二丁目1657番129","kouzui":"○","gake":"○","takashio":"○","jishin":"○","tsunami":"○","kaji":"○","naisui":"○","kazan":"×"}}
,{"type":"Feature","geometry":{"type":"Point","coordinates":[129.94601,32.777686]},"properties":{"Name":"フィットネスパーク","Jusho":"長崎県長崎市高城台二丁目16番104","kouzui":"○","gake":"○","takashio":"○","jishin":"○","tsunami":"○","kaji":"○","naisui":"○","kazan":"×"}}
,{"type":"Feature","geometry":{"type":"Point","coordinates":[129.972419,32.766062]},"properties":{"Name":"しおさい公園","Jusho":"長崎県長崎市戸石町500-122","kouzui":"○","gake":"○","takashio":"○","jishin":"○","tsunami":"○","kaji":"○","naisui":"○","kazan":"×"}}
,{"type":"Feature","geometry":{"type":"Point","coordinates":[129.852805,32.741895]},"properties":{"Name":"飽の浦公園","Jusho":"長崎県長崎市塩浜町52他","kouzui":"○","gake":"×","takashio":"○","jishin":"○","tsunami":"○","kaji":"○","naisui":"○","kazan":"×"}}
,{"type":"Feature","geometry":{"type":"Point","coordinates":[129.893762,32.764161]},"properties":{"Name":"片淵近隣公園","Jusho":"長崎県長崎市片淵3丁目541-4ほか","kouzui":"○","gake":"○","takashio":"○","jishin":"○","tsunami":"○","kaji":"○","naisui":"○","kazan":"×"}}
,{"type":"Feature","geometry":{"type":"Point","coordinates":[129.883685,32.756361]},"properties":{"Name":"上西山公園","Jusho":"長崎県長崎市西山本町36番7","kouzui":"○","gake":"○","takashio":"○","jishin":"○","tsunami":"○","kaji":"○","naisui":"○","kazan":"×"}}
,{"type":"Feature","geometry":{"type":"Point","coordinates":[129.887203,32.754337]},"properties":{"Name":"上長崎公園","Jusho":"長崎県長崎市片淵1丁目","kouzui":"○","gake":"○","takashio":"○","jishin":"○","tsunami":"○","kaji":"○","naisui":"○","kazan":"×"}}
,{"type":"Feature","geometry":{"type":"Point","coordinates":[129.873104,32.744016]},"properties":{"Name":"出島表門橋公園","Jusho":"長崎県長崎市江戸町8-1ほか31筆","kouzui":"×","gake":"○","takashio":"×","jishin":"○","tsunami":"○","kaji":"○","naisui":"○","kazan":"×"}}
,{"type":"Feature","geometry":{"type":"Point","coordinates":[129.823971,32.780495]},"properties":{"Name":"そらの夢公園","Jusho":"長崎県長崎市小江原5丁目654番54、1452番45","kouzui":"○","gake":"×","takashio":"○","jishin":"○","tsunami":"○","kaji":"○","naisui":"○","kazan":"×"}}
,{"type":"Feature","geometry":{"type":"Point","coordinates":[129.823948,32.778272]},"properties":{"Name":"にじの夢公園","Jusho":"長崎県長崎市小江原5丁目1452番115","kouzui":"○","gake":"×","takashio":"○","jishin":"○","tsunami":"○","kaji":"○","naisui":"○","kazan":"×"}}
,{"type":"Feature","geometry":{"type":"Point","coordinates":[129.889907,32.735167]},"properties":{"Name":"愛宕中央公園","Jusho":"長崎県長崎市愛宕3丁目819番3、826番4、826番25","kouzui":"○","gake":"○","takashio":"○","jishin":"○","tsunami":"○","kaji":"○","naisui":"○","kazan":"×"}}
,{"type":"Feature","geometry":{"type":"Point","coordinates":[129.887966,32.730868]},"properties":{"Name":"上小島清水公園","Jusho":"長崎県長崎市上小島5丁目415番2、465番8、465番122","kouzui":"○","gake":"○","takashio":"○","jishin":"○","tsunami":"○","kaji":"○","naisui":"○","kazan":"×"}}
,{"type":"Feature","geometry":{"type":"Point","coordinates":[129.871737,32.772278]},"properties":{"Name":"江平公園","Jusho":"長崎県長崎市江平1丁目466番2","kouzui":"○","gake":"○","takashio":"○","jishin":"○","tsunami":"○","kaji":"○","naisui":"○","kazan":"×"}}
,{"type":"Feature","geometry":{"type":"Point","coordinates":[129.878058,32.778809]},"properties":{"Name":"三原台南公園","Jusho":"長崎県長崎市三原台三丁目120番9","kouzui":"○","gake":"○","takashio":"○","jishin":"○","tsunami":"○","kaji":"○","naisui":"○","kazan":"×"}}
,{"type":"Feature","geometry":{"type":"Point","coordinates":[129.918168,32.757788]},"properties":{"Name":"奥山運動公園","Jusho":"長崎県長崎市本河内4丁目2033-1　他","kouzui":"○","gake":"○","takashio":"○","jishin":"○","tsunami":"○","kaji":"○","naisui":"○","kazan":"×"}}
,{"type":"Feature","geometry":{"type":"Point","coordinates":[129.850683,32.768221]},"properties":{"Name":"岩見が丘公園","Jusho":"長崎県長崎市岩見町99番3 長崎市岩見町451番37、451番38","kouzui":"○","gake":"○","takashio":"○","jishin":"○","tsunami":"○","kaji":"○","naisui":"○","kazan":"×"}}
,{"type":"Feature","geometry":{"type":"Point","coordinates":[129.859299,32.752557]},"properties":{"Name":"稲佐公園","Jusho":"長崎県長崎市曙町7-72","kouzui":"○","gake":"×","takashio":"○","jishin":"○","tsunami":"○","kaji":"○","naisui":"○","kazan":"×"}}
,{"type":"Feature","geometry":{"type":"Point","coordinates":[129.874147,32.72867]},"properties":{"Name":"出雲近隣公園","Jusho":"長崎県長崎市出雲町１丁目223-2番地　他","kouzui":"○","gake":"×","takashio":"○","jishin":"○","tsunami":"○","kaji":"○","naisui":"○","kazan":"×"}}
,{"type":"Feature","geometry":{"type":"Point","coordinates":[129.86945,32.725702]},"properties":{"Name":"戸町2丁目公園","Jusho":"長崎県長崎市戸町2丁目22-22","kouzui":"○","gake":"○","takashio":"○","jishin":"○","tsunami":"○","kaji":"○","naisui":"○","kazan":"×"}}
,{"type":"Feature","geometry":{"type":"Point","coordinates":[129.872204,32.709844]},"properties":{"Name":"さくら坂公園","Jusho":"長崎県長崎市新戸町三丁目638番99　長崎県長崎市新戸町三丁目673番14","kouzui":"○","gake":"○","takashio":"○","jishin":"○","tsunami":"○","kaji":"○","naisui":"○","kazan":"×"}}
,{"type":"Feature","geometry":{"type":"Point","coordinates":[129.86594,32.725215]},"properties":{"Name":"小菅の丘公園","Jusho":"長崎県長崎市小菅町155番26","kouzui":"○","gake":"○","takashio":"○","jishin":"○","tsunami":"○","kaji":"○","naisui":"○","kazan":"×"}}
,{"type":"Feature","geometry":{"type":"Point","coordinates":[129.87961,32.79717]},"properties":{"Name":"けやき台公園","Jusho":"長崎県長崎市川平町1305番59","kouzui":"○","gake":"○","takashio":"○","jishin":"○","tsunami":"○","kaji":"○","naisui":"○","kazan":"×"}}
,{"type":"Feature","geometry":{"type":"Point","coordinates":[129.861086,32.791001]},"properties":{"Name":"住吉中央公園","Jusho":"長崎県長崎市住吉町1513番1　長崎県長崎市住吉町1513番2","kouzui":"○","gake":"○","takashio":"○","jishin":"○","tsunami":"○","kaji":"○","naisui":"○","kazan":"×"}}
,{"type":"Feature","geometry":{"type":"Point","coordinates":[129.85526,32.799724]},"properties":{"Name":"赤迫ふれあい公園","Jusho":"長崎県長崎市赤迫2丁目442番　他","kouzui":"○","gake":"○","takashio":"○","jishin":"○","tsunami":"○","kaji":"○","naisui":"○","kazan":"×"}}
,{"type":"Feature","geometry":{"type":"Point","coordinates":[129.865702,32.793939]},"properties":{"Name":"住吉の杜そよかぜ公園","Jusho":"長崎県長崎市泉1丁目81番7","kouzui":"○","gake":"×","takashio":"○","jishin":"○","tsunami":"○","kaji":"○","naisui":"○","kazan":"×"}}
,{"type":"Feature","geometry":{"type":"Point","coordinates":[129.800963,32.777923]},"properties":{"Name":"手熊公園","Jusho":"長崎県長崎市柿泊町1008番3、手熊町331番58","kouzui":"○","gake":"○","takashio":"○","jishin":"○","tsunami":"○","kaji":"○","naisui":"○","kazan":"×"}}
,{"type":"Feature","geometry":{"type":"Point","coordinates":[129.816162,32.772911]},"properties":{"Name":"長崎市総合運動公園","Jusho":"長崎県柿泊町2210他","kouzui":"○","gake":"×","takashio":"○","jishin":"○","tsunami":"○","kaji":"○","naisui":"○","kazan":"×"}}
,{"type":"Feature","geometry":{"type":"Point","coordinates":[129.833744,32.731397]},"properties":{"Name":"みなと坂船の公園","Jusho":"長崎県長崎市みなと坂一丁目92番5外5筆","kouzui":"○","gake":"○","takashio":"○","jishin":"○","tsunami":"○","kaji":"○","naisui":"○","kazan":"×"}}
,{"type":"Feature","geometry":{"type":"Point","coordinates":[129.836848,32.737082]},"properties":{"Name":"みなと坂くすのき公園","Jusho":"長崎県長崎市みなと坂二丁目525番13","kouzui":"○","gake":"○","takashio":"○","jishin":"○","tsunami":"○","kaji":"○","naisui":"○","kazan":"×"}}
,{"type":"Feature","geometry":{"type":"Point","coordinates":[129.838844,32.731201]},"properties":{"Name":"みなと坂やしのき公園","Jusho":"長崎県長崎市みなと坂一丁目740番15","kouzui":"○","gake":"×","takashio":"○","jishin":"○","tsunami":"○","kaji":"○","naisui":"○","kazan":"×"}}
,{"type":"Feature","geometry":{"type":"Point","coordinates":[129.835483,32.728758]},"properties":{"Name":"みなと坂星空公園","Jusho":"長崎県長崎市みなと坂一丁目28番44、740番177","kouzui":"○","gake":"○","takashio":"○","jishin":"○","tsunami":"○","kaji":"○","naisui":"○","kazan":"×"}}
,{"type":"Feature","geometry":{"type":"Point","coordinates":[129.940734,32.72857]},"properties":{"Name":"太田尾港緑地公園","Jusho":"長崎県長崎市太田尾町2741番","kouzui":"○","gake":"○","takashio":"○","jishin":"○","tsunami":"○","kaji":"○","naisui":"○","kazan":"×"}}
,{"type":"Feature","geometry":{"type":"Point","coordinates":[129.901935,32.719615]},"properties":{"Name":"転石公園","Jusho":"長崎県長崎市北浦町1702-3の一部、1702-4","kouzui":"○","gake":"○","takashio":"○","jishin":"○","tsunami":"○","kaji":"○","naisui":"○","kazan":"×"}}
,{"type":"Feature","geometry":{"type":"Point","coordinates":[129.788535,32.863348]},"properties":{"Name":"琴海南部公園","Jusho":"長崎県長崎市西海町1753-120　他","kouzui":"○","gake":"○","takashio":"○","jishin":"○","tsunami":"○","kaji":"○","naisui":"○","kazan":"×"}}
,{"type":"Feature","geometry":{"type":"Point","coordinates":[129.788654,32.95853]},"properties":{"Name":"あさひが丘運動公園","Jusho":"長崎県長崎市琴海大平町1794番129（代表番地）、1973番5","kouzui":"○","gake":"○","takashio":"○","jishin":"○","tsunami":"○","kaji":"○","naisui":"○","kazan":"×"}}
,{"type":"Feature","geometry":{"type":"Point","coordinates":[129.753044,32.909751]},"properties":{"Name":"琴海赤水公園","Jusho":"長崎県長崎市琴海町戸根原郷1212番地1ほか","kouzui":"○","gake":"×","takashio":"○","jishin":"○","tsunami":"○","kaji":"○","naisui":"○","kazan":"×"}}
,{"type":"Feature","geometry":{"type":"Point","coordinates":[129.796337,32.870666]},"properties":{"Name":"朝日の岬公園","Jusho":"長崎県長崎市西海町1777番地12","kouzui":"○","gake":"○","takashio":"○","jishin":"○","tsunami":"○","kaji":"○","naisui":"○","kazan":"×"}}
,{"type":"Feature","geometry":{"type":"Point","coordinates":[129.783921,32.854885]},"properties":{"Name":"谷口川公園","Jusho":"長崎県長崎市西海町1937番地2","kouzui":"○","gake":"○","takashio":"○","jishin":"○","tsunami":"○","kaji":"○","naisui":"○","kazan":"×"}}
,{"type":"Feature","geometry":{"type":"Point","coordinates":[129.787612,32.925397]},"properties":{"Name":"小島ノ浦公園","Jusho":"長崎県長崎市長浦町18番地1","kouzui":"○","gake":"○","takashio":"○","jishin":"○","tsunami":"○","kaji":"○","naisui":"○","kazan":"×"}}
,{"type":"Feature","geometry":{"type":"Point","coordinates":[129.788453,32.868143]},"properties":{"Name":"やすらぎの小径","Jusho":"長崎県長崎市琴海村松町699番地1ほか","kouzui":"○","gake":"○","takashio":"○","jishin":"○","tsunami":"×","kaji":"○","naisui":"○","kazan":"×"}}
,{"type":"Feature","geometry":{"type":"Point","coordinates":[129.787692,32.951171]},"properties":{"Name":"さざなみの丘公園","Jusho":"長崎県長崎市琴海大平町2062-1","kouzui":"○","gake":"○","takashio":"○","jishin":"○","tsunami":"○","kaji":"○","naisui":"○","kazan":"×"}}
,{"type":"Feature","geometry":{"type":"Point","coordinates":[129.689608,32.877901]},"properties":{"Name":"そとめ神浦川河川公園","Jusho":"長崎県長崎市神浦向町791番地1外","kouzui":"○","gake":"×","takashio":"○","jishin":"○","tsunami":"○","kaji":"○","naisui":"○","kazan":"×"}}
,{"type":"Feature","geometry":{"type":"Point","coordinates":[129.682799,32.881189]},"properties":{"Name":"神浦城公園","Jusho":"長崎県長崎市神浦江川町1115番地2外","kouzui":"○","gake":"○","takashio":"○","jishin":"○","tsunami":"○","kaji":"○","naisui":"○","kazan":"×"}}
,{"type":"Feature","geometry":{"type":"Point","coordinates":[129.720884,32.829801]},"properties":{"Name":"黒崎永田湿地自然公園","Jusho":"長崎県長崎市永田町1514番地外","kouzui":"○","gake":"×","takashio":"○","jishin":"○","tsunami":"○","kaji":"○","naisui":"○","kazan":"×"}}
,{"type":"Feature","geometry":{"type":"Point","coordinates":[129.781624,32.82445]},"properties":{"Name":"多以良西公園","Jusho":"長崎県長崎市多以良町2110-44","kouzui":"○","gake":"○","takashio":"○","jishin":"○","tsunami":"○","kaji":"○","naisui":"○","kazan":"×"}}
,{"type":"Feature","geometry":{"type":"Point","coordinates":[129.753863,32.823646]},"properties":{"Name":"三京中央公園","Jusho":"長崎県長崎市三京町815番147","kouzui":"○","gake":"○","takashio":"○","jishin":"○","tsunami":"○","kaji":"○","naisui":"○","kazan":"×"}}
,{"type":"Feature","geometry":{"type":"Point","coordinates":[129.754991,32.820584]},"properties":{"Name":"三京南公園","Jusho":"長崎県長崎市三京町815番401","kouzui":"○","gake":"○","takashio":"○","jishin":"○","tsunami":"○","kaji":"○","naisui":"○","kazan":"×"}}
,{"type":"Feature","geometry":{"type":"Point","coordinates":[129.789515,32.832672]},"properties":{"Name":"あじさい公園","Jusho":"長崎県長崎市畝刈町113番地183","kouzui":"○","gake":"×","takashio":"○","jishin":"○","tsunami":"○","kaji":"○","naisui":"○","kazan":"×"}}
,{"type":"Feature","geometry":{"type":"Point","coordinates":[129.791541,32.83315]},"properties":{"Name":"わらべうた公園","Jusho":"長崎県長崎市畝刈町110番90","kouzui":"○","gake":"○","takashio":"○","jishin":"○","tsunami":"○","kaji":"○","naisui":"○","kazan":"×"}}
,{"type":"Feature","geometry":{"type":"Point","coordinates":[129.791659,32.829665]},"properties":{"Name":"ゆうやけ公園","Jusho":"長崎県長崎市畝刈町113番地166","kouzui":"○","gake":"×","takashio":"○","jishin":"○","tsunami":"○","kaji":"○","naisui":"○","kazan":"×"}}
,{"type":"Feature","geometry":{"type":"Point","coordinates":[129.765606,32.830825]},"properties":{"Name":"さくらの里西公園","Jusho":"長崎県長崎市さくらの里二丁目123番98","kouzui":"○","gake":"○","takashio":"○","jishin":"○","tsunami":"○","kaji":"○","naisui":"○","kazan":"×"}}
,{"type":"Feature","geometry":{"type":"Point","coordinates":[129.767516,32.83508]},"properties":{"Name":"さくらの里中央公園","Jusho":"長崎県長崎市さくらの里二丁目401番264、401番265、401番267","kouzui":"○","gake":"○","takashio":"○","jishin":"○","tsunami":"○","kaji":"○","naisui":"○","kazan":"×"}}
,{"type":"Feature","geometry":{"type":"Point","coordinates":[129.769662,32.831447]},"properties":{"Name":"さくらの里東公園","Jusho":"長崎県長崎市さくらの里一丁目3番606","kouzui":"○","gake":"○","takashio":"○","jishin":"○","tsunami":"○","kaji":"○","naisui":"○","kazan":"×"}}
,{"type":"Feature","geometry":{"type":"Point","coordinates":[129.783649,32.826667]},"properties":{"Name":"畝刈第4公園","Jusho":"長崎県長崎市畝刈町1613番28","kouzui":"○","gake":"×","takashio":"○","jishin":"○","tsunami":"○","kaji":"○","naisui":"○","kazan":"×"}}
,{"type":"Feature","geometry":{"type":"Point","coordinates":[129.770933,32.832706]},"properties":{"Name":"さくらの里第1公園","Jusho":"長崎県長崎市さくらの里一丁目3番479","kouzui":"○","gake":"○","takashio":"○","jishin":"○","tsunami":"○","kaji":"○","naisui":"○","kazan":"×"}}
,{"type":"Feature","geometry":{"type":"Point","coordinates":[129.765172,32.831931]},"properties":{"Name":"さくらの里第2公園","Jusho":"長崎県長崎市さくらの里二丁目123番87","kouzui":"○","gake":"○","takashio":"○","jishin":"○","tsunami":"○","kaji":"○","naisui":"○","kazan":"×"}}
,{"type":"Feature","geometry":{"type":"Point","coordinates":[129.762675,32.831327]},"properties":{"Name":"さくらの里第3公園","Jusho":"長崎県長崎市さくらの里二丁目123番134","kouzui":"○","gake":"○","takashio":"○","jishin":"○","tsunami":"○","kaji":"○","naisui":"○","kazan":"×"}}
,{"type":"Feature","geometry":{"type":"Point","coordinates":[129.80455,32.824269]},"properties":{"Name":"鳴見台第1公園","Jusho":"長崎県長崎市鳴見台2丁目860番51、860番96","kouzui":"○","gake":"○","takashio":"○","jishin":"○","tsunami":"○","kaji":"○","naisui":"○","kazan":"×"}}
,{"type":"Feature","geometry":{"type":"Point","coordinates":[129.805743,32.823203]},"properties":{"Name":"鳴見台第2公園","Jusho":"長崎県長崎市鳴見台二丁目860番103","kouzui":"○","gake":"×","takashio":"○","jishin":"○","tsunami":"○","kaji":"○","naisui":"○","kazan":"×"}}
,{"type":"Feature","geometry":{"type":"Point","coordinates":[129.830232,32.62684]},"properties":{"Name":"三和記念公園","Jusho":"長崎県長崎市宮崎町966番地6　他","kouzui":"○","gake":"○","takashio":"○","jishin":"○","tsunami":"○","kaji":"○","naisui":"○","kazan":"×"}}
,{"type":"Feature","geometry":{"type":"Point","coordinates":[129.821392,32.658881]},"properties":{"Name":"晴海台1号公園","Jusho":"長崎県長崎市晴海台39-5","kouzui":"○","gake":"×","takashio":"○","jishin":"○","tsunami":"○","kaji":"○","naisui":"○","kazan":"×"}}
,{"type":"Feature","geometry":{"type":"Point","coordinates":[129.82377917329,32.660671731486]},"properties":{"Name":"晴海台2号公園","Jusho":"長崎県長崎市晴海台11-2","kouzui":"○","gake":"○","takashio":"○","jishin":"○","tsunami":"○","kaji":"○","naisui":"○","kazan":"×"}}
,{"type":"Feature","geometry":{"type":"Point","coordinates":[129.82188845369,32.661652203018]},"properties":{"Name":"晴海台3号公園","Jusho":"長崎県長崎市晴海台51-2","kouzui":"○","gake":"○","takashio":"○","jishin":"○","tsunami":"○","kaji":"○","naisui":"○","kazan":"×"}}
,{"type":"Feature","geometry":{"type":"Point","coordinates":[129.819848,32.662679]},"properties":{"Name":"晴海台4号公園","Jusho":"長崎県長崎市晴海台75-2","kouzui":"○","gake":"○","takashio":"○","jishin":"○","tsunami":"○","kaji":"○","naisui":"○","kazan":"×"}}
,{"type":"Feature","geometry":{"type":"Point","coordinates":[129.928895,32.753381]},"properties":{"Name":"坂下公園","Jusho":"長崎県長崎市芒塚町259-5他9筆","kouzui":"○","gake":"○","takashio":"○","jishin":"×","tsunami":"○","kaji":"○","naisui":"○","kazan":"×"}}
,{"type":"Feature","geometry":{"type":"Point","coordinates":[129.7305722,33.17621389]},"properties":{"Name":"須佐公園","Jusho":"長崎県佐世保市須佐町57","kouzui":"×","gake":"×","takashio":"×","jishin":"○","tsunami":"×","kaji":"○","naisui":"×","kazan":"×"}}
,{"type":"Feature","geometry":{"type":"Point","coordinates":[129.7270083,33.17524444]},"properties":{"Name":"妙見公園","Jusho":"長崎県佐世保市高梨町446","kouzui":"×","gake":"×","takashio":"×","jishin":"○","tsunami":"×","kaji":"○","naisui":"×","kazan":"×"}}
,{"type":"Feature","geometry":{"type":"Point","coordinates":[129.728425,33.17350556]},"properties":{"Name":"勝富公園","Jusho":"長崎県佐世保市勝富町1000-9","kouzui":"×","gake":"×","takashio":"×","jishin":"○","tsunami":"×","kaji":"○","naisui":"×","kazan":"×"}}
,{"type":"Feature","geometry":{"type":"Point","coordinates":[129.7207444,33.17241389]},"properties":{"Name":"島瀬公園","Jusho":"長崎県佐世保市島瀬町1000-14","kouzui":"×","gake":"×","takashio":"×","jishin":"○","tsunami":"×","kaji":"○","naisui":"×","kazan":"×"}}
,{"type":"Feature","geometry":{"type":"Point","coordinates":[129.7178583,33.17454722]},"properties":{"Name":"松浦公園","Jusho":"長崎県佐世保市松浦町1000-5","kouzui":"×","gake":"×","takashio":"×","jishin":"○","tsunami":"×","kaji":"○","naisui":"×","kazan":"×"}}
,{"type":"Feature","geometry":{"type":"Point","coordinates":[129.7247472,33.17233889]},"properties":{"Name":"新公園","Jusho":"長崎県佐世保市光月町1000-9 外2町","kouzui":"×","gake":"×","takashio":"×","jishin":"○","tsunami":"○","kaji":"○","naisui":"×","kazan":"×"}}
,{"type":"Feature","geometry":{"type":"Point","coordinates":[129.7177556,33.17088056]},"properties":{"Name":"佐世保公園","Jusho":"長崎県佐世保市平瀬町13、湊町1000-5","kouzui":"×","gake":"×","takashio":"×","jishin":"○","tsunami":"×","kaji":"○","naisui":"×","kazan":"×"}}
,{"type":"Feature","geometry":{"type":"Point","coordinates":[129.7636639,33.184025]},"properties":{"Name":"烏帽子岳高原リゾートスポーツの里","Jusho":"長崎県佐世保市烏帽子町128","kouzui":"×","gake":"×","takashio":"×","jishin":"○","tsunami":"×","kaji":"○","naisui":"×","kazan":"×"}}
,{"type":"Feature","geometry":{"type":"Point","coordinates":[129.7269361,33.19350833]},"properties":{"Name":"松山公園","Jusho":"長崎県佐世保市松山町300-2外","kouzui":"×","gake":"×","takashio":"×","jishin":"○","tsunami":"×","kaji":"○","naisui":"×","kazan":"×"}}
,{"type":"Feature","geometry":{"type":"Point","coordinates":[129.7207444,33.177225]},"properties":{"Name":"中央公園","Jusho":"長崎県佐世保市谷郷町、八幡町外6町","kouzui":"×","gake":"×","takashio":"×","jishin":"○","tsunami":"×","kaji":"○","naisui":"×","kazan":"×"}}
,{"type":"Feature","geometry":{"type":"Point","coordinates":[129.7164806,33.17515833]},"properties":{"Name":"浜田公園","Jusho":"長崎県佐世保市浜田町1000-5","kouzui":"×","gake":"×","takashio":"×","jishin":"○","tsunami":"×","kaji":"○","naisui":"×","kazan":"×"}}
,{"type":"Feature","geometry":{"type":"Point","coordinates":[129.7131,33.176825]},"properties":{"Name":"比良公園","Jusho":"長崎県佐世保市比良町1000-5","kouzui":"×","gake":"×","takashio":"×","jishin":"○","tsunami":"×","kaji":"○","naisui":"×","kazan":"×"}}
,{"type":"Feature","geometry":{"type":"Point","coordinates":[129.7143444,33.17980278]},"properties":{"Name":"木場田公園","Jusho":"長崎県佐世保市木場田町1000-6","kouzui":"×","gake":"×","takashio":"×","jishin":"○","tsunami":"○","kaji":"○","naisui":"×","kazan":"×"}}
,{"type":"Feature","geometry":{"type":"Point","coordinates":[129.7173111,33.19143333]},"properties":{"Name":"梅田公園","Jusho":"長崎県佐世保市梅田町166-1","kouzui":"×","gake":"×","takashio":"×","jishin":"○","tsunami":"×","kaji":"○","naisui":"×","kazan":"×"}}
,{"type":"Feature","geometry":{"type":"Point","coordinates":[129.7232167,33.19979722]},"properties":{"Name":"春日公園","Jusho":"長崎県佐世保市春日町318","kouzui":"×","gake":"×","takashio":"×","jishin":"○","tsunami":"×","kaji":"○","naisui":"×","kazan":"×"}}
,{"type":"Feature","geometry":{"type":"Point","coordinates":[129.723775,33.19835833]},"properties":{"Name":"春日第二公園","Jusho":"長崎県佐世保市春日町476-2","kouzui":"×","gake":"×","takashio":"×","jishin":"○","tsunami":"×","kaji":"○","naisui":"×","kazan":"×"}}
,{"type":"Feature","geometry":{"type":"Point","coordinates":[129.7273972,33.20141944]},"properties":{"Name":"桜木公園","Jusho":"長崎県佐世保市桜木町694-1","kouzui":"×","gake":"×","takashio":"×","jishin":"○","tsunami":"×","kaji":"○","naisui":"×","kazan":"×"}}
,{"type":"Feature","geometry":{"type":"Point","coordinates":[129.7335917,33.19892778]},"properties":{"Name":"桜木やまんた公園","Jusho":"長崎県佐世保市桜木町918-6","kouzui":"×","gake":"×","takashio":"×","jishin":"○","tsunami":"×","kaji":"○","naisui":"×","kazan":"×"}}
,{"type":"Feature","geometry":{"type":"Point","coordinates":[129.7358889,33.156]},"properties":{"Name":"大黒公園","Jusho":"長崎県佐世保市大黒町62-6","kouzui":"×","gake":"×","takashio":"×","jishin":"○","tsunami":"○","kaji":"○","naisui":"×","kazan":"×"}}
,{"type":"Feature","geometry":{"type":"Point","coordinates":[129.7416917,33.15433333]},"properties":{"Name":"東公園","Jusho":"長崎県佐世保市東山町182-1","kouzui":"×","gake":"×","takashio":"×","jishin":"○","tsunami":"×","kaji":"○","naisui":"×","kazan":"×"}}
,{"type":"Feature","geometry":{"type":"Point","coordinates":[129.7318139,33.14823889]},"properties":{"Name":"天神公園","Jusho":"長崎県佐世保市天神町1131","kouzui":"×","gake":"×","takashio":"×","jishin":"○","tsunami":"○","kaji":"○","naisui":"×","kazan":"×"}}
,{"type":"Feature","geometry":{"type":"Point","coordinates":[129.7245417,33.15036667]},"properties":{"Name":"干尽公園","Jusho":"長崎県佐世保市干尽町6-21","kouzui":"×","gake":"×","takashio":"×","jishin":"○","tsunami":"○","kaji":"○","naisui":"×","kazan":"×"}}
,{"type":"Feature","geometry":{"type":"Point","coordinates":[129.7408222,33.13334722]},"properties":{"Name":"東浜公園","Jusho":"長崎県佐世保市東浜町10-2","kouzui":"×","gake":"×","takashio":"×","jishin":"○","tsunami":"○","kaji":"○","naisui":"×","kazan":"×"}}
,{"type":"Feature","geometry":{"type":"Point","coordinates":[129.7370056,33.15727222]},"properties":{"Name":"大宮公園","Jusho":"長崎県佐世保市稲荷町190","kouzui":"×","gake":"×","takashio":"×","jishin":"○","tsunami":"×","kaji":"○","naisui":"×","kazan":"×"}}
,{"type":"Feature","geometry":{"type":"Point","coordinates":[129.7339417,33.15701389]},"properties":{"Name":"稲荷公園","Jusho":"長崎県佐世保市稲荷町165-8","kouzui":"×","gake":"×","takashio":"×","jishin":"○","tsunami":"○","kaji":"○","naisui":"×","kazan":"×"}}
,{"type":"Feature","geometry":{"type":"Point","coordinates":[129.7054556,33.16718333]},"properties":{"Name":"神島公園","Jusho":"長崎県佐世保市神島町99-1","kouzui":"×","gake":"×","takashio":"×","jishin":"○","tsunami":"○","kaji":"○","naisui":"×","kazan":"×"}}
,{"type":"Feature","geometry":{"type":"Point","coordinates":[129.7045028,33.16996389]},"properties":{"Name":"琴平公園","Jusho":"長崎県佐世保市御船町370-1","kouzui":"×","gake":"×","takashio":"×","jishin":"○","tsunami":"×","kaji":"○","naisui":"×","kazan":"×"}}
,{"type":"Feature","geometry":{"type":"Point","coordinates":[129.6999806,33.15452222]},"properties":{"Name":"赤崎公園","Jusho":"長崎県佐世保市赤崎町857","kouzui":"×","gake":"×","takashio":"×","jishin":"○","tsunami":"○","kaji":"○","naisui":"×","kazan":"×"}}
,{"type":"Feature","geometry":{"type":"Point","coordinates":[129.6924694,33.15885833]},"properties":{"Name":"赤崎台第一公園","Jusho":"長崎県佐世保市赤崎町1450-1","kouzui":"×","gake":"×","takashio":"×","jishin":"○","tsunami":"×","kaji":"○","naisui":"×","kazan":"×"}}
,{"type":"Feature","geometry":{"type":"Point","coordinates":[129.6822778,33.16204167]},"properties":{"Name":"鹿子前園地","Jusho":"長崎県佐世保市鹿子前町918-1","kouzui":"×","gake":"×","takashio":"×","jishin":"○","tsunami":"×","kaji":"○","naisui":"×","kazan":"×"}}
,{"type":"Feature","geometry":{"type":"Point","coordinates":[129.7012639,33.16555556]},"properties":{"Name":"小島公園","Jusho":"長崎県佐世保市小島町167-1","kouzui":"×","gake":"×","takashio":"×","jishin":"○","tsunami":"○","kaji":"○","naisui":"×","kazan":"×"}}
,{"type":"Feature","geometry":{"type":"Point","coordinates":[129.6952667,33.15523611]},"properties":{"Name":"泉水田公園","Jusho":"長崎県佐世保市赤崎町630","kouzui":"×","gake":"×","takashio":"×","jishin":"○","tsunami":"○","kaji":"○","naisui":"×","kazan":"×"}}
,{"type":"Feature","geometry":{"type":"Point","coordinates":[129.6975778,33.13663333]},"properties":{"Name":"船越第二公園","Jusho":"長崎県佐世保市下船越町306-3","kouzui":"×","gake":"×","takashio":"×","jishin":"○","tsunami":"×","kaji":"○","naisui":"×","kazan":"×"}}
,{"type":"Feature","geometry":{"type":"Point","coordinates":[129.6908306,33.16691111]},"properties":{"Name":"長坂公園","Jusho":"長崎県佐世保市長坂町662-1","kouzui":"×","gake":"×","takashio":"×","jishin":"○","tsunami":"×","kaji":"○","naisui":"×","kazan":"×"}}
,{"type":"Feature","geometry":{"type":"Point","coordinates":[129.6715028,33.11931944]},"properties":{"Name":"俵ヶ浦公園","Jusho":"長崎県佐世保市俵ヶ浦町623-1","kouzui":"×","gake":"×","takashio":"×","jishin":"○","tsunami":"○","kaji":"○","naisui":"×","kazan":"×"}}
,{"type":"Feature","geometry":{"type":"Point","coordinates":[129.8329972,33.13411667]},"properties":{"Name":"三川内山公園","Jusho":"長崎県佐世保市三川内町1092-1","kouzui":"×","gake":"×","takashio":"×","jishin":"○","tsunami":"×","kaji":"○","naisui":"×","kazan":"×"}}
,{"type":"Feature","geometry":{"type":"Point","coordinates":[129.8083639,33.16728056]},"properties":{"Name":"平松公園","Jusho":"長崎県佐世保市桑木場町1840-1","kouzui":"×","gake":"×","takashio":"×","jishin":"○","tsunami":"×","kaji":"○","naisui":"×","kazan":"×"}}
,{"type":"Feature","geometry":{"type":"Point","coordinates":[129.8428722,33.160625]},"properties":{"Name":"江永公園","Jusho":"長崎県佐世保市江永町610-1","kouzui":"×","gake":"×","takashio":"×","jishin":"○","tsunami":"×","kaji":"○","naisui":"×","kazan":"×"}}
,{"type":"Feature","geometry":{"type":"Point","coordinates":[129.8329056,33.13023056]},"properties":{"Name":"三川内運動広場","Jusho":"長崎県佐世保市三川内町987","kouzui":"×","gake":"×","takashio":"×","jishin":"○","tsunami":"×","kaji":"○","naisui":"×","kazan":"×"}}
,{"type":"Feature","geometry":{"type":"Point","coordinates":[129.8425444,33.13942222]},"properties":{"Name":"テクノパーク第一公園","Jusho":"長崎県佐世保市三川内新町1-20外","kouzui":"×","gake":"×","takashio":"×","jishin":"○","tsunami":"×","kaji":"○","naisui":"×","kazan":"×"}}
,{"type":"Feature","geometry":{"type":"Point","coordinates":[129.8278556,33.15335556]},"properties":{"Name":"三川内中央運動公園","Jusho":"長崎県佐世保市三川内本町380-1","kouzui":"×","gake":"×","takashio":"×","jishin":"○","tsunami":"×","kaji":"○","naisui":"×","kazan":"×"}}
,{"type":"Feature","geometry":{"type":"Point","coordinates":[129.7929278,33.134375]},"properties":{"Name":"汐見台第一公園","Jusho":"長崎県佐世保市有福町4169-68","kouzui":"×","gake":"×","takashio":"×","jishin":"○","tsunami":"○","kaji":"○","naisui":"×","kazan":"×"}}
,{"type":"Feature","geometry":{"type":"Point","coordinates":[129.7927444,33.12775278]},"properties":{"Name":"汐見台第四公園","Jusho":"長崎県佐世保市有福町4149-31","kouzui":"×","gake":"×","takashio":"×","jishin":"○","tsunami":"×","kaji":"○","naisui":"×","kazan":"×"}}
,{"type":"Feature","geometry":{"type":"Point","coordinates":[129.7883028,33.13246667]},"properties":{"Name":"有福第一公園","Jusho":"長崎県佐世保市有福町589-2","kouzui":"×","gake":"×","takashio":"×","jishin":"○","tsunami":"○","kaji":"○","naisui":"×","kazan":"×"}}
,{"type":"Feature","geometry":{"type":"Point","coordinates":[129.7834056,33.10815833]},"properties":{"Name":"江上公園","Jusho":"長崎県佐世保市指方町2230-2","kouzui":"×","gake":"×","takashio":"×","jishin":"○","tsunami":"×","kaji":"○","naisui":"×","kazan":"×"}}
,{"type":"Feature","geometry":{"type":"Point","coordinates":[129.7700167,33.10365278]},"properties":{"Name":"東明公園","Jusho":"長崎県佐世保市江上町926-3","kouzui":"×","gake":"×","takashio":"×","jishin":"○","tsunami":"×","kaji":"○","naisui":"×","kazan":"×"}}
,{"type":"Feature","geometry":{"type":"Point","coordinates":[129.7905333,33.09728333]},"properties":{"Name":"岩下公園","Jusho":"長崎県佐世保市指方町3788-141","kouzui":"×","gake":"×","takashio":"×","jishin":"○","tsunami":"×","kaji":"○","naisui":"×","kazan":"×"}}
,{"type":"Feature","geometry":{"type":"Point","coordinates":[129.7885194,33.11299167]},"properties":{"Name":"枇杷坂公園","Jusho":"長崎県佐世保市指方町766-5","kouzui":"×","gake":"×","takashio":"×","jishin":"○","tsunami":"×","kaji":"○","naisui":"×","kazan":"×"}}
,{"type":"Feature","geometry":{"type":"Point","coordinates":[129.7569556,33.05546389]},"properties":{"Name":"西海橋公園","Jusho":"長崎県佐世保市針尾東町2678外","kouzui":"×","gake":"×","takashio":"×","jishin":"○","tsunami":"○","kaji":"○","naisui":"×","kazan":"×"}}
,{"type":"Feature","geometry":{"type":"Point","coordinates":[129.74825,33.11850556]},"properties":{"Name":"大崎公園","Jusho":"長崎県佐世保市針尾北町2157-9","kouzui":"×","gake":"×","takashio":"×","jishin":"○","tsunami":"○","kaji":"○","naisui":"×","kazan":"×"}}
,{"type":"Feature","geometry":{"type":"Point","coordinates":[129.7577083,33.10051111]},"properties":{"Name":"浦頭引揚記念平和公園","Jusho":"長崎県佐世保市針尾北町824外","kouzui":"×","gake":"×","takashio":"×","jishin":"○","tsunami":"○","kaji":"○","naisui":"×","kazan":"×"}}
,{"type":"Feature","geometry":{"type":"Point","coordinates":[129.7991861,33.12884167]},"properties":{"Name":"小森公園","Jusho":"長崎県佐世保市広田一丁目129","kouzui":"×","gake":"×","takashio":"×","jishin":"○","tsunami":"×","kaji":"○","naisui":"×","kazan":"×"}}
,{"type":"Feature","geometry":{"type":"Point","coordinates":[129.8021889,33.12014167]},"properties":{"Name":"崎岡第一公園","Jusho":"長崎県佐世保市広田三丁目396","kouzui":"×","gake":"×","takashio":"×","jishin":"○","tsunami":"×","kaji":"○","naisui":"×","kazan":"×"}}
,{"type":"Feature","geometry":{"type":"Point","coordinates":[129.7983639,33.11770833]},"properties":{"Name":"崎岡西公園","Jusho":"長崎県佐世保市崎岡町971-1","kouzui":"×","gake":"×","takashio":"×","jishin":"○","tsunami":"×","kaji":"○","naisui":"×","kazan":"×"}}
,{"type":"Feature","geometry":{"type":"Point","coordinates":[129.8045222,33.12295278]},"properties":{"Name":"広田公園","Jusho":"長崎県佐世保市広田三丁目119","kouzui":"×","gake":"×","takashio":"×","jishin":"○","tsunami":"×","kaji":"○","naisui":"×","kazan":"×"}}
,{"type":"Feature","geometry":{"type":"Point","coordinates":[129.7976278,33.13590556]},"properties":{"Name":"早岐公園","Jusho":"長崎県佐世保市早岐一丁目377-1","kouzui":"×","gake":"×","takashio":"×","jishin":"○","tsunami":"×","kaji":"○","naisui":"×","kazan":"×"}}
,{"type":"Feature","geometry":{"type":"Point","coordinates":[129.8096917,33.14034722]},"properties":{"Name":"花高中央公園","Jusho":"長崎県佐世保市花高三丁目98-11","kouzui":"×","gake":"×","takashio":"×","jishin":"○","tsunami":"×","kaji":"○","naisui":"×","kazan":"×"}}
,{"type":"Feature","geometry":{"type":"Point","coordinates":[129.8048056,33.13750833]},"properties":{"Name":"花高第一公園","Jusho":"長崎県佐世保市花高一丁目269-9","kouzui":"×","gake":"×","takashio":"×","jishin":"○","tsunami":"×","kaji":"○","naisui":"×","kazan":"×"}}
,{"type":"Feature","geometry":{"type":"Point","coordinates":[129.8107667,33.14281944]},"properties":{"Name":"花高第二公園","Jusho":"長崎県佐世保市花高三丁目20-3","kouzui":"×","gake":"×","takashio":"×","jishin":"○","tsunami":"×","kaji":"○","naisui":"×","kazan":"×"}}
,{"type":"Feature","geometry":{"type":"Point","coordinates":[129.8129361,33.14034167]},"properties":{"Name":"花高第三公園","Jusho":"長崎県佐世保市花高四丁目110-142","kouzui":"×","gake":"×","takashio":"×","jishin":"○","tsunami":"×","kaji":"○","naisui":"×","kazan":"×"}}
,{"type":"Feature","geometry":{"type":"Point","coordinates":[129.7999472,33.13224444]},"properties":{"Name":"権常寺公園","Jusho":"長崎県佐世保市権常寺一丁目20","kouzui":"×","gake":"×","takashio":"×","jishin":"○","tsunami":"×","kaji":"○","naisui":"×","kazan":"×"}}
,{"type":"Feature","geometry":{"type":"Point","coordinates":[129.7910472,33.14923611]},"properties":{"Name":"陣の内公園","Jusho":"長崎県佐世保市陣の内町883","kouzui":"×","gake":"×","takashio":"×","jishin":"○","tsunami":"×","kaji":"○","naisui":"×","kazan":"×"}}
,{"type":"Feature","geometry":{"type":"Point","coordinates":[129.7876972,33.14615556]},"properties":{"Name":"若竹台中央公園","Jusho":"長崎県佐世保市若竹台町312","kouzui":"×","gake":"×","takashio":"×","jishin":"○","tsunami":"○","kaji":"○","naisui":"×","kazan":"×"}}
,{"type":"Feature","geometry":{"type":"Point","coordinates":[129.7892556,33.1479]},"properties":{"Name":"若竹台北公園","Jusho":"長崎県佐世保市若竹台町265","kouzui":"×","gake":"×","takashio":"×","jishin":"○","tsunami":"○","kaji":"○","naisui":"×","kazan":"×"}}
,{"type":"Feature","geometry":{"type":"Point","coordinates":[129.803425,33.14598056]},"properties":{"Name":"早苗公園","Jusho":"長崎県佐世保市早苗町771","kouzui":"×","gake":"×","takashio":"×","jishin":"○","tsunami":"×","kaji":"○","naisui":"×","kazan":"×"}}
,{"type":"Feature","geometry":{"type":"Point","coordinates":[129.7795667,33.16507222]},"properties":{"Name":"黒髪第一公園","Jusho":"長崎県佐世保市黒髪町6361-1","kouzui":"×","gake":"×","takashio":"×","jishin":"○","tsunami":"×","kaji":"○","naisui":"×","kazan":"×"}}
,{"type":"Feature","geometry":{"type":"Point","coordinates":[129.7710611,33.17021667]},"properties":{"Name":"黒髪第二公園","Jusho":"長崎県佐世保市黒髪町4899-116","kouzui":"×","gake":"×","takashio":"×","jishin":"○","tsunami":"×","kaji":"○","naisui":"×","kazan":"×"}}
,{"type":"Feature","geometry":{"type":"Point","coordinates":[129.7796444,33.16308889]},"properties":{"Name":"椿ヶ丘公園","Jusho":"長崎県佐世保市黒髪町6233-3","kouzui":"×","gake":"×","takashio":"×","jishin":"○","tsunami":"×","kaji":"○","naisui":"×","kazan":"×"}}
,{"type":"Feature","geometry":{"type":"Point","coordinates":[129.7507528,33.152925]},"properties":{"Name":"白岳公園","Jusho":"長崎県佐世保市白岳町104","kouzui":"×","gake":"×","takashio":"×","jishin":"○","tsunami":"×","kaji":"○","naisui":"×","kazan":"×"}}
,{"type":"Feature","geometry":{"type":"Point","coordinates":[129.7626444,33.148675]},"properties":{"Name":"大岳台第二公園","Jusho":"長崎県佐世保市大岳台町2-389","kouzui":"×","gake":"×","takashio":"×","jishin":"○","tsunami":"×","kaji":"○","naisui":"×","kazan":"×"}}
,{"type":"Feature","geometry":{"type":"Point","coordinates":[129.7640194,33.14568333]},"properties":{"Name":"大岳台第三公園","Jusho":"長崎県佐世保市大岳台町2-605","kouzui":"×","gake":"×","takashio":"×","jishin":"○","tsunami":"○","kaji":"○","naisui":"×","kazan":"×"}}
,{"type":"Feature","geometry":{"type":"Point","coordinates":[129.7751056,33.15031111]},"properties":{"Name":"陽光台第一公園","Jusho":"長崎県佐世保市大塔町648-187","kouzui":"×","gake":"×","takashio":"×","jishin":"○","tsunami":"×","kaji":"○","naisui":"×","kazan":"×"}}
,{"type":"Feature","geometry":{"type":"Point","coordinates":[129.7701417,33.15881111]},"properties":{"Name":"日宇ヶ丘第二公園","Jusho":"長崎県佐世保市日宇町2810-255","kouzui":"×","gake":"×","takashio":"×","jishin":"○","tsunami":"×","kaji":"○","naisui":"×","kazan":"×"}}
,{"type":"Feature","geometry":{"type":"Point","coordinates":[129.7858417,33.17318333]},"properties":{"Name":"上木場公園","Jusho":"長崎県佐世保市黒髪町2406","kouzui":"×","gake":"×","takashio":"×","jishin":"○","tsunami":"×","kaji":"○","naisui":"×","kazan":"×"}}
,{"type":"Feature","geometry":{"type":"Point","coordinates":[129.7797917,33.14500278]},"properties":{"Name":"大塔公園","Jusho":"長崎県佐世保市大塔町2394-9","kouzui":"×","gake":"×","takashio":"×","jishin":"○","tsunami":"×","kaji":"○","naisui":"×","kazan":"×"}}
,{"type":"Feature","geometry":{"type":"Point","coordinates":[129.7721,33.14866111]},"properties":{"Name":"卸本町第二公園","Jusho":"長崎県佐世保市卸本町174","kouzui":"×","gake":"×","takashio":"×","jishin":"○","tsunami":"○","kaji":"○","naisui":"×","kazan":"×"}}
,{"type":"Feature","geometry":{"type":"Point","coordinates":[129.7743528,33.1599]},"properties":{"Name":"もみじが丘中央公園","Jusho":"長崎県佐世保市もみじが丘町2","kouzui":"×","gake":"×","takashio":"×","jishin":"○","tsunami":"×","kaji":"○","naisui":"×","kazan":"×"}}
,{"type":"Feature","geometry":{"type":"Point","coordinates":[129.7777861,33.16172778]},"properties":{"Name":"もみじが丘第一公園","Jusho":"長崎県佐世保市もみじが丘町28-1","kouzui":"×","gake":"×","takashio":"×","jishin":"○","tsunami":"×","kaji":"○","naisui":"×","kazan":"×"}}
,{"type":"Feature","geometry":{"type":"Point","coordinates":[129.7793417,33.15896111]},"properties":{"Name":"もみじが丘第三公園","Jusho":"長崎県佐世保市もみじが丘町47-60","kouzui":"×","gake":"×","takashio":"×","jishin":"○","tsunami":"×","kaji":"○","naisui":"×","kazan":"×"}}
,{"type":"Feature","geometry":{"type":"Point","coordinates":[129.7772806,33.15835556]},"properties":{"Name":"もみじが丘第四公園","Jusho":"長崎県佐世保市もみじが丘町6-4","kouzui":"×","gake":"×","takashio":"×","jishin":"○","tsunami":"×","kaji":"○","naisui":"×","kazan":"×"}}
,{"type":"Feature","geometry":{"type":"Point","coordinates":[129.7541194,33.15653056]},"properties":{"Name":"ひうみの丘公園","Jusho":"長崎県佐世保市大和町545-1","kouzui":"×","gake":"×","takashio":"×","jishin":"○","tsunami":"×","kaji":"○","naisui":"×","kazan":"×"}}
,{"type":"Feature","geometry":{"type":"Point","coordinates":[129.737325,33.21223333]},"properties":{"Name":"池野公園","Jusho":"長崎県佐世保市大野町166-3","kouzui":"×","gake":"×","takashio":"×","jishin":"○","tsunami":"×","kaji":"○","naisui":"×","kazan":"×"}}
,{"type":"Feature","geometry":{"type":"Point","coordinates":[129.7440278,33.21041111]},"properties":{"Name":"矢峰公園","Jusho":"長崎県佐世保市矢峰町100-2","kouzui":"×","gake":"×","takashio":"×","jishin":"○","tsunami":"×","kaji":"○","naisui":"×","kazan":"×"}}
,{"type":"Feature","geometry":{"type":"Point","coordinates":[129.7289056,33.20521389]},"properties":{"Name":"瀬戸越公園","Jusho":"長崎県佐世保市瀬戸越三丁目1666-4","kouzui":"×","gake":"×","takashio":"×","jishin":"○","tsunami":"×","kaji":"○","naisui":"×","kazan":"×"}}
,{"type":"Feature","geometry":{"type":"Point","coordinates":[129.7192833,33.20366389]},"properties":{"Name":"眼鏡岩公園","Jusho":"長崎県佐世保市瀬戸越町1266-1","kouzui":"×","gake":"×","takashio":"×","jishin":"○","tsunami":"×","kaji":"○","naisui":"×","kazan":"×"}}
,{"type":"Feature","geometry":{"type":"Point","coordinates":[129.7214278,33.21943611]},"properties":{"Name":"楠木公園","Jusho":"長崎県佐世保市楠木町619","kouzui":"×","gake":"×","takashio":"×","jishin":"○","tsunami":"×","kaji":"○","naisui":"×","kazan":"×"}}
,{"type":"Feature","geometry":{"type":"Point","coordinates":[129.7365722,33.22393889]},"properties":{"Name":"知見寺公園","Jusho":"長崎県佐世保市知見寺町1143-2外","kouzui":"×","gake":"×","takashio":"×","jishin":"○","tsunami":"×","kaji":"○","naisui":"×","kazan":"×"}}
,{"type":"Feature","geometry":{"type":"Point","coordinates":[129.6813222,33.17004722]},"properties":{"Name":"日野東公園","Jusho":"長崎県佐世保市日野町80-1","kouzui":"×","gake":"×","takashio":"×","jishin":"○","tsunami":"○","kaji":"○","naisui":"×","kazan":"×"}}
,{"type":"Feature","geometry":{"type":"Point","coordinates":[129.6820611,33.17293056]},"properties":{"Name":"日野第二公園","Jusho":"長崎県佐世保市日野町52-176","kouzui":"×","gake":"×","takashio":"×","jishin":"○","tsunami":"×","kaji":"○","naisui":"×","kazan":"×"}}
,{"type":"Feature","geometry":{"type":"Point","coordinates":[129.6770694,33.17493056]},"properties":{"Name":"星和第一公園","Jusho":"長崎県佐世保市星和台町1460-332","kouzui":"×","gake":"×","takashio":"×","jishin":"○","tsunami":"×","kaji":"○","naisui":"×","kazan":"×"}}
,{"type":"Feature","geometry":{"type":"Point","coordinates":[129.6593222,33.18305556]},"properties":{"Name":"大潟公園","Jusho":"長崎県佐世保市大潟町135","kouzui":"×","gake":"×","takashio":"×","jishin":"○","tsunami":"○","kaji":"○","naisui":"×","kazan":"×"}}
,{"type":"Feature","geometry":{"type":"Point","coordinates":[129.6567944,33.17936667]},"properties":{"Name":"美崎が丘第二公園","Jusho":"長崎県佐世保市大潟町254-46","kouzui":"×","gake":"×","takashio":"×","jishin":"○","tsunami":"○","kaji":"○","naisui":"×","kazan":"×"}}
,{"type":"Feature","geometry":{"type":"Point","coordinates":[129.6564639,33.19993611]},"properties":{"Name":"棚方中央公園","Jusho":"長崎県佐世保市棚方町675","kouzui":"×","gake":"×","takashio":"×","jishin":"○","tsunami":"○","kaji":"○","naisui":"×","kazan":"×"}}
,{"type":"Feature","geometry":{"type":"Point","coordinates":[129.6578944,33.20319722]},"properties":{"Name":"棚方第一公園","Jusho":"長崎県佐世保市棚方町405-122","kouzui":"×","gake":"×","takashio":"×","jishin":"○","tsunami":"×","kaji":"○","naisui":"×","kazan":"×"}}
,{"type":"Feature","geometry":{"type":"Point","coordinates":[129.6526278,33.20027222]},"properties":{"Name":"棚方第三公園","Jusho":"長崎県佐世保市棚方町424-223","kouzui":"×","gake":"×","takashio":"×","jishin":"○","tsunami":"○","kaji":"○","naisui":"×","kazan":"×"}}
,{"type":"Feature","geometry":{"type":"Point","coordinates":[129.6550139,33.20841667]},"properties":{"Name":"真申中央公園","Jusho":"長崎県佐世保市棚方町207-21","kouzui":"×","gake":"×","takashio":"×","jishin":"○","tsunami":"×","kaji":"○","naisui":"×","kazan":"×"}}
,{"type":"Feature","geometry":{"type":"Point","coordinates":[129.6700833,33.19526944]},"properties":{"Name":"上相浦公園","Jusho":"長崎県佐世保市新田町67-4","kouzui":"×","gake":"×","takashio":"×","jishin":"○","tsunami":"×","kaji":"○","naisui":"×","kazan":"×"}}
,{"type":"Feature","geometry":{"type":"Point","coordinates":[129.6743083,33.18866944]},"properties":{"Name":"新田公園","Jusho":"長崎県佐世保市新田町403-7","kouzui":"×","gake":"×","takashio":"×","jishin":"○","tsunami":"×","kaji":"○","naisui":"×","kazan":"×"}}
,{"type":"Feature","geometry":{"type":"Point","coordinates":[129.6234472,33.19551944]},"properties":{"Name":"浅子公園","Jusho":"長崎県佐世保市浅子町188-14","kouzui":"×","gake":"×","takashio":"×","jishin":"○","tsunami":"×","kaji":"○","naisui":"×","kazan":"×"}}
,{"type":"Feature","geometry":{"type":"Point","coordinates":[129.6950639,33.20637778]},"properties":{"Name":"吉岡第二公園","Jusho":"長崎県佐世保市吉岡町1023-1","kouzui":"×","gake":"×","takashio":"×","jishin":"○","tsunami":"×","kaji":"○","naisui":"×","kazan":"×"}}
,{"type":"Feature","geometry":{"type":"Point","coordinates":[129.7120583,33.21409167]},"properties":{"Name":"野中東公園","Jusho":"長崎県佐世保市野中町560外","kouzui":"×","gake":"×","takashio":"×","jishin":"○","tsunami":"×","kaji":"○","naisui":"×","kazan":"×"}}
,{"type":"Feature","geometry":{"type":"Point","coordinates":[129.6912194,33.21156944]},"properties":{"Name":"桧台第一公園","Jusho":"長崎県佐世保市上本山町1-460","kouzui":"×","gake":"×","takashio":"×","jishin":"○","tsunami":"×","kaji":"○","naisui":"×","kazan":"×"}}
,{"type":"Feature","geometry":{"type":"Point","coordinates":[129.6880389,33.21195278]},"properties":{"Name":"桧台第二公園","Jusho":"長崎県佐世保市上本山町1-465","kouzui":"×","gake":"×","takashio":"×","jishin":"○","tsunami":"×","kaji":"○","naisui":"×","kazan":"×"}}
,{"type":"Feature","geometry":{"type":"Point","coordinates":[129.773975,33.19158611]},"properties":{"Name":"下宇戸公園","Jusho":"長崎県佐世保市下宇戸町802-1","kouzui":"×","gake":"×","takashio":"×","jishin":"○","tsunami":"×","kaji":"○","naisui":"×","kazan":"×"}}
,{"type":"Feature","geometry":{"type":"Point","coordinates":[129.7003944,33.271725]},"properties":{"Name":"牧の岳公園","Jusho":"長崎県佐世保市吉井町前岳158-1","kouzui":"×","gake":"×","takashio":"×","jishin":"○","tsunami":"×","kaji":"○","naisui":"×","kazan":"×"}}
,{"type":"Feature","geometry":{"type":"Point","coordinates":[129.6860028,33.26724167]},"properties":{"Name":"吉井親水公園","Jusho":"長崎県佐世保市吉井町立石227-3","kouzui":"×","gake":"×","takashio":"×","jishin":"○","tsunami":"×","kaji":"○","naisui":"×","kazan":"×"}}
,{"type":"Feature","geometry":{"type":"Point","coordinates":[129.7494528,33.23174167]},"properties":{"Name":"板山公園","Jusho":"長崎県佐世保市世知原町上野原2395-7外","kouzui":"×","gake":"×","takashio":"×","jishin":"○","tsunami":"×","kaji":"○","naisui":"×","kazan":"×"}}
,{"type":"Feature","geometry":{"type":"Point","coordinates":[129.0860056,33.2669]},"properties":{"Name":"古里公園","Jusho":"長崎県佐世保市宇久町本飯良1307","kouzui":"×","gake":"×","takashio":"×","jishin":"○","tsunami":"○","kaji":"○","naisui":"×","kazan":"×"}}
,{"type":"Feature","geometry":{"type":"Point","coordinates":[129.1308111,33.26830556]},"properties":{"Name":"エビスが丘中央公園","Jusho":"長崎県佐世保市宇久町平2253","kouzui":"×","gake":"×","takashio":"×","jishin":"○","tsunami":"○","kaji":"○","naisui":"×","kazan":"×"}}
,{"type":"Feature","geometry":{"type":"Point","coordinates":[129.1188028,33.26016111]},"properties":{"Name":"宇久町総合公園","Jusho":"長崎県佐世保市宇久町小浜3096-48外","kouzui":"×","gake":"×","takashio":"×","jishin":"○","tsunami":"×","kaji":"○","naisui":"×","kazan":"×"}}
,{"type":"Feature","geometry":{"type":"Point","coordinates":[129.5842417,33.23428056]},"properties":{"Name":"冷水岳園地","Jusho":"長崎県佐世保市小佐々町矢岳1618-12外","kouzui":"×","gake":"×","takashio":"×","jishin":"○","tsunami":"×","kaji":"○","naisui":"×","kazan":"×"}}
,{"type":"Feature","geometry":{"type":"Point","coordinates":[129.63,33.30995278]},"properties":{"Name":"江迎中央公園","Jusho":"長崎県佐世保市江迎町長坂320","kouzui":"×","gake":"×","takashio":"×","jishin":"○","tsunami":"○","kaji":"○","naisui":"×","kazan":"×"}}
,{"type":"Feature","geometry":{"type":"Point","coordinates":[129.68284797249,33.283784114385]},"properties":{"Name":"岩下公園","Jusho":"長崎県佐世保市江迎町田ノ元1008-6","kouzui":"×","gake":"×","takashio":"×","jishin":"○","tsunami":"×","kaji":"○","naisui":"×","kazan":"×"}}
,{"type":"Feature","geometry":{"type":"Point","coordinates":[129.6745639,33.28616111]},"properties":{"Name":"猪調公園","Jusho":"長崎県佐世保市江迎町猪調1312","kouzui":"×","gake":"×","takashio":"×","jishin":"○","tsunami":"×","kaji":"○","naisui":"×","kazan":"×"}}
,{"type":"Feature","geometry":{"type":"Point","coordinates":[129.6377556,33.30109167]},"properties":{"Name":"高岩公園","Jusho":"長崎県佐世保市江迎町北平3-10","kouzui":"×","gake":"×","takashio":"×","jishin":"○","tsunami":"×","kaji":"○","naisui":"×","kazan":"×"}}
,{"type":"Feature","geometry":{"type":"Point","coordinates":[129.6243778,33.31830556]},"properties":{"Name":"才木公園","Jusho":"長崎県佐世保市江迎町末橘1206-1","kouzui":"×","gake":"×","takashio":"×","jishin":"○","tsunami":"×","kaji":"○","naisui":"×","kazan":"×"}}
,{"type":"Feature","geometry":{"type":"Point","coordinates":[129.6643139,33.30724444]},"properties":{"Name":"白岳自然公園","Jusho":"長崎県佐世保市江迎町奥川内253-6","kouzui":"×","gake":"×","takashio":"×","jishin":"○","tsunami":"×","kaji":"○","naisui":"×","kazan":"×"}}
,{"type":"Feature","geometry":{"type":"Point","coordinates":[129.6196833,33.30273889]},"properties":{"Name":"戸石川公園","Jusho":"長崎県佐世保市鹿町町深江553-10","kouzui":"×","gake":"×","takashio":"×","jishin":"○","tsunami":"○","kaji":"○","naisui":"×","kazan":"×"}}
,{"type":"Feature","geometry":{"type":"Point","coordinates":[129.6026472,33.25734167]},"properties":{"Name":"明星公園","Jusho":"長崎県佐世保市鹿町町上歌ヶ浦219-2","kouzui":"×","gake":"×","takashio":"×","jishin":"○","tsunami":"×","kaji":"○","naisui":"×","kazan":"×"}}
,{"type":"Feature","geometry":{"type":"Point","coordinates":[129.5784278,33.25633889]},"properties":{"Name":"長串山公園","Jusho":"長崎県佐世保市鹿町町長串174-12外","kouzui":"×","gake":"×","takashio":"×","jishin":"○","tsunami":"×","kaji":"○","naisui":"×","kazan":"×"}}
,{"type":"Feature","geometry":{"type":"Point","coordinates":[129.6901194,33.15155]},"properties":{"Name":"西海国立公園九十九島動植物園(駐車場)","Jusho":"長崎県佐世保市船越町2172","kouzui":"×","gake":"×","takashio":"×","jishin":"○","tsunami":"×","kaji":"○","naisui":"×","kazan":"×"}}
,{"type":"Feature","geometry":{"type":"Point","coordinates":[129.7275778,33.22043333]},"properties":{"Name":"北部ふれあいスポーツ広場","Jusho":"長崎県佐世保市原分町1578","kouzui":"×","gake":"×","takashio":"×","jishin":"○","tsunami":"×","kaji":"○","naisui":"×","kazan":"×"}}
,{"type":"Feature","geometry":{"type":"Point","coordinates":[129.7187528,33.17378333]},"properties":{"Name":"まちなかコミュニティセンター","Jusho":"長崎県佐世保市常盤町6-1","kouzui":"×","gake":"○","takashio":"×","jishin":"×","tsunami":"×","kaji":"×","naisui":"×","kazan":"×"}}
,{"type":"Feature","geometry":{"type":"Point","coordinates":[129.7975667,33.13631111]},"properties":{"Name":"早岐地区コミュニティセンター","Jusho":"長崎県佐世保市早岐一丁目6-38","kouzui":"×","gake":"○","takashio":"×","jishin":"×","tsunami":"×","kaji":"×","naisui":"×","kazan":"×"}}
,{"type":"Feature","geometry":{"type":"Point","coordinates":[129.8088222,33.14093056]},"properties":{"Name":"早岐地区コミュニティセンター　花高体育室","Jusho":"長崎県佐世保市花高3丁目98-11","kouzui":"×","gake":"×","takashio":"×","jishin":"×","tsunami":"×","kaji":"×","naisui":"×","kazan":"×"}}
,{"type":"Feature","geometry":{"type":"Point","coordinates":[129.66823856129,33.186276287825]},"properties":{"Name":"相浦地区コミュニティセンター","Jusho":"長崎県佐世保市川下町209-5","kouzui":"×","gake":"○","takashio":"×","jishin":"×","tsunami":"×","kaji":"×","naisui":"×","kazan":"×"}}
,{"type":"Feature","geometry":{"type":"Point","coordinates":[129.7583889,33.15776111]},"properties":{"Name":"日宇地区コミュニティセンター","Jusho":"長崎県佐世保市日宇町675-2","kouzui":"×","gake":"○","takashio":"×","jishin":"×","tsunami":"×","kaji":"×","naisui":"×","kazan":"×"}}
,{"type":"Feature","geometry":{"type":"Point","coordinates":[129.8293139,33.15274722]},"properties":{"Name":"三川内地区コミュニティセンター","Jusho":"長崎県佐世保市三川内本町289-1","kouzui":"○","gake":"○","takashio":"×","jishin":"×","tsunami":"×","kaji":"×","naisui":"×","kazan":"×"}}
,{"type":"Feature","geometry":{"type":"Point","coordinates":[129.8302722,33.15457778]},"properties":{"Name":"三川内地区コミュニティセンター　体育室 ","Jusho":"長崎県佐世保市三川内本町358-1 ","kouzui":"×","gake":"○","takashio":"×","jishin":"×","tsunami":"×","kaji":"×","naisui":"×","kazan":"×"}}
,{"type":"Feature","geometry":{"type":"Point","coordinates":[129.7211667,33.20851389]},"properties":{"Name":"大野地区コミュニティセンター","Jusho":"長崎県佐世保市田原町13-29","kouzui":"×","gake":"○","takashio":"×","jishin":"×","tsunami":"×","kaji":"×","naisui":"×","kazan":"×"}}
,{"type":"Feature","geometry":{"type":"Point","coordinates":[129.8148194,33.08686944]},"properties":{"Name":"宮地区コミュニティセンター","Jusho":"長崎県佐世保市城間町345","kouzui":"×","gake":"○","takashio":"×","jishin":"×","tsunami":"×","kaji":"×","naisui":"×","kazan":"×"}}
,{"type":"Feature","geometry":{"type":"Point","coordinates":[129.81540023995,33.086530227589]},"properties":{"Name":"宮地区コミュニティセンター　体育室","Jusho":"長崎県佐世保市萩坂町1782-1","kouzui":"×","gake":"○","takashio":"×","jishin":"×","tsunami":"×","kaji":"×","naisui":"×","kazan":"×"}}
,{"type":"Feature","geometry":{"type":"Point","coordinates":[129.7560833,33.07778333]},"properties":{"Name":"針尾地区コミュニティセンター","Jusho":"長崎県佐世保市針尾中町1538-5","kouzui":"×","gake":"○","takashio":"×","jishin":"×","tsunami":"×","kaji":"×","naisui":"×","kazan":"×"}}
,{"type":"Feature","geometry":{"type":"Point","coordinates":[129.75604929392,33.100259486338]},"properties":{"Name":"針尾地区コミュニティセンター　体育室","Jusho":"長崎県佐世保市針尾北町756","kouzui":"×","gake":"○","takashio":"×","jishin":"×","tsunami":"×","kaji":"×","naisui":"×","kazan":"×"}}
,{"type":"Feature","geometry":{"type":"Point","coordinates":[129.7642083,33.21042222]},"properties":{"Name":"柚木地区コミュニティセンター","Jusho":"長崎県佐世保市柚木町2088-2","kouzui":"×","gake":"○","takashio":"×","jishin":"×","tsunami":"×","kaji":"×","naisui":"×","kazan":"×"}}
,{"type":"Feature","geometry":{"type":"Point","coordinates":[129.7628333,33.209475]},"properties":{"Name":"柚木地区コミュニティセンター　体育室","Jusho":"長崎県佐世保市柚木町1434-1","kouzui":"×","gake":"○","takashio":"×","jishin":"×","tsunami":"×","kaji":"×","naisui":"×","kazan":"×"}}
,{"type":"Feature","geometry":{"type":"Point","coordinates":[129.6955806,33.210625]},"properties":{"Name":"中里皆瀬地区コミュニティセンター","Jusho":"長崎県佐世保市上本山町1228-1","kouzui":"×","gake":"○","takashio":"×","jishin":"×","tsunami":"×","kaji":"×","naisui":"×","kazan":"×"}}
,{"type":"Feature","geometry":{"type":"Point","coordinates":[129.7346611,33.157075]},"properties":{"Name":"南地区コミュニティセンター","Jusho":"長崎県佐世保市稲荷町2-5","kouzui":"×","gake":"○","takashio":"×","jishin":"×","tsunami":"×","kaji":"×","naisui":"×","kazan":"×"}}
,{"type":"Feature","geometry":{"type":"Point","coordinates":[129.7834389,33.10856944]},"properties":{"Name":"江上地区コミュニティセンター","Jusho":"長崎県佐世保市指方町1759","kouzui":"×","gake":"○","takashio":"×","jishin":"×","tsunami":"×","kaji":"×","naisui":"×","kazan":"×"}}
,{"type":"Feature","geometry":{"type":"Point","coordinates":[129.7846722,33.133225]},"properties":{"Name":"江上地区コミュニティセンター　体育室 ","Jusho":"長崎県佐世保市有福町827","kouzui":"×","gake":"○","takashio":"×","jishin":"×","tsunami":"×","kaji":"×","naisui":"×","kazan":"×"}}
,{"type":"Feature","geometry":{"type":"Point","coordinates":[129.72455,33.17314444]},"properties":{"Name":"中部地区コミュニティセンター","Jusho":"長崎県佐世保市光月町6-17","kouzui":"×","gake":"○","takashio":"×","jishin":"×","tsunami":"×","kaji":"×","naisui":"×","kazan":"×"}}
,{"type":"Feature","geometry":{"type":"Point","coordinates":[129.7069306,33.16935278]},"properties":{"Name":"西地区コミュニティセンター","Jusho":"長崎県佐世保市金比良町1-7","kouzui":"×","gake":"○","takashio":"×","jishin":"×","tsunami":"×","kaji":"×","naisui":"×","kazan":"×"}}
,{"type":"Feature","geometry":{"type":"Point","coordinates":[129.6980667,33.13688889]},"properties":{"Name":"九十九地区コミュニティセンター","Jusho":"長崎県佐世保市下船越町306-7","kouzui":"×","gake":"○","takashio":"×","jishin":"×","tsunami":"×","kaji":"×","naisui":"×","kazan":"×"}}
,{"type":"Feature","geometry":{"type":"Point","coordinates":[129.7230917,33.19820833]},"properties":{"Name":"北地区コミュニティセンター","Jusho":"長崎県佐世保市春日町18-9","kouzui":"×","gake":"○","takashio":"×","jishin":"×","tsunami":"×","kaji":"×","naisui":"×","kazan":"×"}}
,{"type":"Feature","geometry":{"type":"Point","coordinates":[129.5344806,33.14178611]},"properties":{"Name":"黒島地区コミュニティセンター","Jusho":"長崎県佐世保市黒島町3175","kouzui":"×","gake":"○","takashio":"×","jishin":"×","tsunami":"×","kaji":"×","naisui":"×","kazan":"×"}}
,{"type":"Feature","geometry":{"type":"Point","coordinates":[129.8074167,33.124475]},"properties":{"Name":"広田地区コミュニティセンター","Jusho":"長崎県佐世保市重尾町63","kouzui":"×","gake":"○","takashio":"×","jishin":"×","tsunami":"×","kaji":"×","naisui":"×","kazan":"×"}}
,{"type":"Feature","geometry":{"type":"Point","coordinates":[129.7289722,33.16422222]},"properties":{"Name":"山澄地区コミュニティセンター","Jusho":"長崎県佐世保市潮見町14-14","kouzui":"×","gake":"○","takashio":"×","jishin":"×","tsunami":"×","kaji":"×","naisui":"×","kazan":"×"}}
,{"type":"Feature","geometry":{"type":"Point","coordinates":[129.6953917,33.15556389]},"properties":{"Name":"愛宕地区コミュニティセンター","Jusho":"長崎県佐世保市赤崎町596-26","kouzui":"×","gake":"○","takashio":"×","jishin":"×","tsunami":"×","kaji":"×","naisui":"×","kazan":"×"}}
,{"type":"Feature","geometry":{"type":"Point","coordinates":[129.6887861,33.270125]},"properties":{"Name":"吉井地区コミュニティセンター","Jusho":"長崎県佐世保市吉井町立石473","kouzui":"×","gake":"○","takashio":"×","jishin":"×","tsunami":"×","kaji":"×","naisui":"×","kazan":"×"}}
,{"type":"Feature","geometry":{"type":"Point","coordinates":[129.75168522588,33.257698563416]},"properties":{"Name":"世知原地区コミュニティセンター","Jusho":"長崎県佐世保市世知原町栗迎246-1","kouzui":"×","gake":"○","takashio":"×","jishin":"×","tsunami":"×","kaji":"×","naisui":"×","kazan":"×"}}
,{"type":"Feature","geometry":{"type":"Point","coordinates":[129.1303361,33.26640278]},"properties":{"Name":"宇久地区コミュニティセンター","Jusho":"長崎県佐世保市宇久町平2691","kouzui":"×","gake":"○","takashio":"×","jishin":"×","tsunami":"×","kaji":"×","naisui":"×","kazan":"×"}}
,{"type":"Feature","geometry":{"type":"Point","coordinates":[129.5985,33.21451667]},"properties":{"Name":"小佐々地区コミュニティセンター","Jusho":"長崎県佐世保市小佐々町西川内143-1","kouzui":"×","gake":"○","takashio":"×","jishin":"×","tsunami":"×","kaji":"×","naisui":"×","kazan":"×"}}
,{"type":"Feature","geometry":{"type":"Point","coordinates":[129.6318611,33.30706389]},"properties":{"Name":"江迎地区コミュニティセンター","Jusho":"長崎県佐世保市江迎町長坂104","kouzui":"×","gake":"○","takashio":"×","jishin":"×","tsunami":"×","kaji":"×","naisui":"×","kazan":"×"}}
,{"type":"Feature","geometry":{"type":"Point","coordinates":[129.5933194,33.27826944]},"properties":{"Name":"鹿町地区コミュニティセンター","Jusho":"長崎県佐世保市鹿町町下歌ヶ浦8-37","kouzui":"×","gake":"○","takashio":"×","jishin":"×","tsunami":"×","kaji":"×","naisui":"×","kazan":"×"}}
,{"type":"Feature","geometry":{"type":"Point","coordinates":[129.7142361,33.18631111]},"properties":{"Name":"清水地区コミュニティセンター","Jusho":"長崎県佐世保市保立町12-31","kouzui":"○","gake":"○","takashio":"×","jishin":"×","tsunami":"×","kaji":"×","naisui":"×","kazan":"×"}}
,{"type":"Feature","geometry":{"type":"Point","coordinates":[129.7395806,33.13830833]},"properties":{"Name":"崎辺地区コミュニティセンター","Jusho":"長崎県佐世保市十郎新町3-7","kouzui":"×","gake":"○","takashio":"×","jishin":"×","tsunami":"×","kaji":"×","naisui":"×","kazan":"×"}}
,{"type":"Feature","geometry":{"type":"Point","coordinates":[129.8181917,33.08846944]},"properties":{"Name":"宮小学校","Jusho":"長崎県佐世保市荻坂町1715","kouzui":"○","gake":"○","takashio":"×","jishin":"○","tsunami":"×","kaji":"○","naisui":"×","kazan":"×"}}
,{"type":"Feature","geometry":{"type":"Point","coordinates":[129.8285639,33.15932222]},"properties":{"Name":"三川内小学校","Jusho":"長崎県佐世保市口の尾町698","kouzui":"○","gake":"○","takashio":"×","jishin":"○","tsunami":"×","kaji":"○","naisui":"×","kazan":"×"}}
,{"type":"Feature","geometry":{"type":"Point","coordinates":[129.8020889,33.127875]},"properties":{"Name":"広田小学校","Jusho":"長崎県佐世保市広田一丁目25-4","kouzui":"×","gake":"○","takashio":"×","jishin":"○","tsunami":"×","kaji":"○","naisui":"×","kazan":"×"}}
,{"type":"Feature","geometry":{"type":"Point","coordinates":[129.8115417,33.140675]},"properties":{"Name":"花高小学校","Jusho":"長崎県佐世保市花高三丁目4-1","kouzui":"○","gake":"○","takashio":"×","jishin":"○","tsunami":"×","kaji":"○","naisui":"×","kazan":"×"}}
,{"type":"Feature","geometry":{"type":"Point","coordinates":[129.7980417,33.13987222]},"properties":{"Name":"早岐小学校","Jusho":"長崎県佐世保市早岐二丁目32-12","kouzui":"×","gake":"○","takashio":"×","jishin":"○","tsunami":"○","kaji":"○","naisui":"×","kazan":"×"}}
,{"type":"Feature","geometry":{"type":"Point","coordinates":[129.7782167,33.10923333]},"properties":{"Name":"江上小学校","Jusho":"長崎県佐世保市指方町2382","kouzui":"×","gake":"○","takashio":"×","jishin":"○","tsunami":"×","kaji":"○","naisui":"×","kazan":"×"}}
,{"type":"Feature","geometry":{"type":"Point","coordinates":[129.7546889,33.082225]},"properties":{"Name":"針尾小学校","Jusho":"長崎県佐世保市針尾中町1863","kouzui":"×","gake":"○","takashio":"×","jishin":"○","tsunami":"○","kaji":"○","naisui":"×","kazan":"×"}}
,{"type":"Feature","geometry":{"type":"Point","coordinates":[129.7743833,33.16146111]},"properties":{"Name":"大塔小学校","Jusho":"長崎県佐世保市もみじが丘町6745","kouzui":"×","gake":"○","takashio":"×","jishin":"○","tsunami":"×","kaji":"○","naisui":"×","kazan":"×"}}
,{"type":"Feature","geometry":{"type":"Point","coordinates":[129.7756694,33.16414444]},"properties":{"Name":"黒髪小学校","Jusho":"長崎県佐世保市黒髪町52-1","kouzui":"×","gake":"○","takashio":"×","jishin":"○","tsunami":"×","kaji":"○","naisui":"×","kazan":"×"}}
,{"type":"Feature","geometry":{"type":"Point","coordinates":[129.7563889,33.16390278]},"properties":{"Name":"日宇小学校","Jusho":"長崎県佐世保市日宇町284","kouzui":"×","gake":"○","takashio":"×","jishin":"○","tsunami":"×","kaji":"○","naisui":"×","kazan":"×"}}
,{"type":"Feature","geometry":{"type":"Point","coordinates":[129.7390278,33.15009444]},"properties":{"Name":"天神小学校","Jusho":"長崎県佐世保市天神一丁目11-13","kouzui":"×","gake":"○","takashio":"×","jishin":"○","tsunami":"×","kaji":"○","naisui":"×","kazan":"×"}}
,{"type":"Feature","geometry":{"type":"Point","coordinates":[129.7296444,33.13964167]},"properties":{"Name":"港小学校","Jusho":"長崎県佐世保市天神町1603","kouzui":"×","gake":"○","takashio":"×","jishin":"○","tsunami":"○","kaji":"○","naisui":"×","kazan":"×"}}
,{"type":"Feature","geometry":{"type":"Point","coordinates":[129.7426583,33.156375]},"properties":{"Name":"福石小学校","Jusho":"長崎県佐世保市大宮町32-1","kouzui":"×","gake":"○","takashio":"×","jishin":"○","tsunami":"×","kaji":"○","naisui":"×","kazan":"×"}}
,{"type":"Feature","geometry":{"type":"Point","coordinates":[129.7416111,33.16707222]},"properties":{"Name":"木風小学校","Jusho":"長崎県佐世保市木風町180","kouzui":"×","gake":"○","takashio":"×","jishin":"○","tsunami":"×","kaji":"○","naisui":"×","kazan":"×"}}
,{"type":"Feature","geometry":{"type":"Point","coordinates":[129.7343389,33.16471667]},"properties":{"Name":"潮見小学校","Jusho":"長崎県佐世保市須田尾町19-44","kouzui":"×","gake":"○","takashio":"×","jishin":"○","tsunami":"×","kaji":"○","naisui":"×","kazan":"×"}}
,{"type":"Feature","geometry":{"type":"Point","coordinates":[129.7331694,33.16787222]},