var shiga={"type":"FeatureCollection","name":"shiga","features":[
{"type":"Feature","geometry":{"type":"Point","coordinates":[135.97376636829,35.254980250597]},"properties":{"Name":"小松市民センター","Jusho":"滋賀県大津市北小松565","kouzui":"○","gake":"○","takashio":"×","jishin":"×","tsunami":"×","kaji":"×","naisui":"×","kazan":"×"}}
,{"type":"Feature","geometry":{"type":"Point","coordinates":[135.95681242713,35.235554127832]},"properties":{"Name":"小松小学校体育館","Jusho":"滋賀県大津市南小松1122","kouzui":"○","gake":"○","takashio":"×","jishin":"○","tsunami":"×","kaji":"×","naisui":"○","kazan":"×"}}
,{"type":"Feature","geometry":{"type":"Point","coordinates":[135.95659248599,35.236288040358]},"properties":{"Name":"小松小学校グラウンド","Jusho":"滋賀県大津市南小松1122","kouzui":"○","gake":"○","takashio":"×","jishin":"○","tsunami":"×","kaji":"×","naisui":"○","kazan":"×"}}
,{"type":"Feature","geometry":{"type":"Point","coordinates":[135.95058009041,35.226663951595]},"properties":{"Name":"びわこ成蹊スポーツ大学グラウンド","Jusho":"滋賀県大津市北比良1204","kouzui":"○","gake":"○","takashio":"×","jishin":"○","tsunami":"×","kaji":"○","naisui":"×","kazan":"×"}}
,{"type":"Feature","geometry":{"type":"Point","coordinates":[135.92112817279,35.206305871013]},"properties":{"Name":"木戸市民センター","Jusho":"滋賀県大津市木戸58","kouzui":"○","gake":"○","takashio":"×","jishin":"○","tsunami":"×","kaji":"×","naisui":"×","kazan":"×"}}
,{"type":"Feature","geometry":{"type":"Point","coordinates":[135.92736031267,35.20606526404]},"properties":{"Name":"木戸小学校体育館","Jusho":"滋賀県大津市荒川1000","kouzui":"○","gake":"○","takashio":"×","jishin":"○","tsunami":"×","kaji":"×","naisui":"○","kazan":"×"}}
,{"type":"Feature","geometry":{"type":"Point","coordinates":[135.92597629281,35.205574346456]},"properties":{"Name":"木戸小学校グラウンド","Jusho":"滋賀県大津市荒川1000","kouzui":"○","gake":"○","takashio":"×","jishin":"○","tsunami":"×","kaji":"×","naisui":"×","kazan":"×"}}
,{"type":"Feature","geometry":{"type":"Point","coordinates":[135.9091481134,35.18045398268]},"properties":{"Name":"志賀中学校体育館","Jusho":"滋賀県大津市南船路1029","kouzui":"○","gake":"○","takashio":"×","jishin":"○","tsunami":"×","kaji":"×","naisui":"○","kazan":"×"}}
,{"type":"Feature","geometry":{"type":"Point","coordinates":[135.90987230984,35.181151124963]},"properties":{"Name":"志賀中学校グラウンド","Jusho":"滋賀県大津市南船路1029","kouzui":"○","gake":"○","takashio":"×","jishin":"○","tsunami":"×","kaji":"×","naisui":"○","kazan":"×"}}
,{"type":"Feature","geometry":{"type":"Point","coordinates":[135.92845326432,35.206100544557]},"properties":{"Name":"志賀北幼稚園","Jusho":"滋賀県大津市荒川880","kouzui":"○","gake":"○","takashio":"×","jishin":"○","tsunami":"×","kaji":"×","naisui":"×","kazan":"×"}}
,{"type":"Feature","geometry":{"type":"Point","coordinates":[135.91997857516,35.157787799182]},"properties":{"Name":"和邇小学校体育館","Jusho":"滋賀県大津市和邇中190","kouzui":"○","gake":"○","takashio":"×","jishin":"○","tsunami":"×","kaji":"×","naisui":"○","kazan":"×"}}
,{"type":"Feature","geometry":{"type":"Point","coordinates":[135.92043991512,35.157292204102]},"properties":{"Name":"和邇小学校グラウンド","Jusho":"滋賀県大津市和邇中190","kouzui":"○","gake":"○","takashio":"×","jishin":"○","tsunami":"×","kaji":"×","naisui":"○","kazan":"×"}}
,{"type":"Feature","geometry":{"type":"Point","coordinates":[135.92172954572,35.15953880573]},"properties":{"Name":"和邇文化センター","Jusho":"滋賀県大津市和邇高城12","kouzui":"○","gake":"○","takashio":"×","jishin":"○","tsunami":"×","kaji":"×","naisui":"○","kazan":"×"}}
,{"type":"Feature","geometry":{"type":"Point","coordinates":[135.92164346806,35.15909303706]},"properties":{"Name":"和邇市民体育館","Jusho":"滋賀県大津市和邇高城27-2","kouzui":"○","gake":"○","takashio":"×","jishin":"×","tsunami":"×","kaji":"×","naisui":"○","kazan":"×"}}
,{"type":"Feature","geometry":{"type":"Point","coordinates":[135.92253141027,35.153915152384]},"properties":{"Name":"志賀南幼稚園","Jusho":"滋賀県大津市和邇今宿482-1","kouzui":"○","gake":"○","takashio":"×","jishin":"○","tsunami":"×","kaji":"×","naisui":"○","kazan":"×"}}
,{"type":"Feature","geometry":{"type":"Point","coordinates":[135.92274396349,35.158470006089]},"properties":{"Name":"和邇市民運動広場","Jusho":"滋賀県大津市和邇今宿851","kouzui":"○","gake":"○","takashio":"×","jishin":"○","tsunami":"×","kaji":"×","naisui":"×","kazan":"×"}}
,{"type":"Feature","geometry":{"type":"Point","coordinates":[135.90134348868,35.160297515582]},"properties":{"Name":"道の駅妹子の郷","Jusho":"滋賀県大津市大津市和邇中528","kouzui":"○","gake":"○","takashio":"×","jishin":"○","tsunami":"×","kaji":"×","naisui":"○","kazan":"×"}}
,{"type":"Feature","geometry":{"type":"Point","coordinates":[135.90134348868,35.160297515582]},"properties":{"Name":"道の駅妹子の郷駐車場","Jusho":"滋賀県大津市大津市和邇中528","kouzui":"○","gake":"○","takashio":"×","jishin":"○","tsunami":"×","kaji":"×","naisui":"○","kazan":"×"}}
,{"type":"Feature","geometry":{"type":"Point","coordinates":[135.92228169696,35.141953768913]},"properties":{"Name":"小野市民センター","Jusho":"滋賀県大津市湖青一丁目1-2","kouzui":"○","gake":"○","takashio":"×","jishin":"○","tsunami":"×","kaji":"×","naisui":"○","kazan":"×"}}
,{"type":"Feature","geometry":{"type":"Point","coordinates":[135.91884939875,35.146224050349]},"properties":{"Name":"小野小学校体育館","Jusho":"滋賀県大津市水明一丁目34-2","kouzui":"○","gake":"○","takashio":"×","jishin":"○","tsunami":"×","kaji":"×","naisui":"○","kazan":"×"}}
,{"type":"Feature","geometry":{"type":"Point","coordinates":[135.91969121459,35.146403772016]},"properties":{"Name":"小野小学校グラウンド","Jusho":"滋賀県大津市水明一丁目34-2","kouzui":"○","gake":"○","takashio":"×","jishin":"○","tsunami":"×","kaji":"×","naisui":"○","kazan":"×"}}
,{"type":"Feature","geometry":{"type":"Point","coordinates":[135.9054990589,35.148449620358]},"properties":{"Name":"比良ゴルフ場","Jusho":"滋賀県大津市小野1611","kouzui":"○","gake":"○","takashio":"×","jishin":"○","tsunami":"×","kaji":"○","naisui":"○","kazan":"×"}}
,{"type":"Feature","geometry":{"type":"Point","coordinates":[135.86655338401,35.246673782321]},"properties":{"Name":"葛川市民センター","Jusho":"滋賀県大津市葛川坊村町237-37","kouzui":"○","gake":"○","takashio":"×","jishin":"○","tsunami":"×","kaji":"×","naisui":"○","kazan":"×"}}
,{"type":"Feature","geometry":{"type":"Point","coordinates":[135.8658497421,35.244209862747]},"properties":{"Name":"葛川少年自然の家","Jusho":"滋賀県大津市葛川坊村町243","kouzui":"○","gake":"○","takashio":"×","jishin":"○","tsunami":"×","kaji":"×","naisui":"○","kazan":"×"}}
,{"type":"Feature","geometry":{"type":"Point","coordinates":[135.86250784843,35.233854960344]},"properties":{"Name":"葛川小学校校舎","Jusho":"滋賀県大津市葛川中村町108-1","kouzui":"○","gake":"○","takashio":"×","jishin":"○","tsunami":"×","kaji":"×","naisui":"○","kazan":"×"}}
,{"type":"Feature","geometry":{"type":"Point","coordinates":[135.86259367911,35.234126623981]},"properties":{"Name":"葛川中学校校舎","Jusho":"滋賀県大津市葛川中村町108-1","kouzui":"○","gake":"○","takashio":"×","jishin":"○","tsunami":"×","kaji":"×","naisui":"○","kazan":"×"}}
,{"type":"Feature","geometry":{"type":"Point","coordinates":[135.86254808157,35.233383928492]},"properties":{"Name":"葛川小・中学校グラウンド","Jusho":"滋賀県大津市葛川中村町108-1","kouzui":"○","gake":"×","takashio":"×","jishin":"○","tsunami":"×","kaji":"×","naisui":"○","kazan":"×"}}
,{"type":"Feature","geometry":{"type":"Point","coordinates":[135.86277606934,35.233754181667]},"properties":{"Name":"葛川保育園","Jusho":"滋賀県大津市葛川中村町108-1","kouzui":"○","gake":"○","takashio":"×","jishin":"○","tsunami":"×","kaji":"×","naisui":"○","kazan":"×"}}
,{"type":"Feature","geometry":{"type":"Point","coordinates":[135.87260615582,35.142260953406]},"properties":{"Name":"伊香立市民センター","Jusho":"滋賀県大津市伊香立生津町133-1","kouzui":"○","gake":"○","takashio":"×","jishin":"○","tsunami":"×","kaji":"×","naisui":"○","kazan":"×"}}
,{"type":"Feature","geometry":{"type":"Point","coordinates":[135.87216090912,35.142335525925]},"properties":{"Name":"伊香立小学校体育館","Jusho":"滋賀県大津市伊香立生津町132-1","kouzui":"○","gake":"○","takashio":"×","jishin":"○","tsunami":"×","kaji":"×","naisui":"○","kazan":"×"}}
,{"type":"Feature","geometry":{"type":"Point","coordinates":[135.87173175567,35.142725933877]},"properties":{"Name":"伊香立小学校グラウンド","Jusho":"滋賀県大津市伊香立生津町132-1","kouzui":"○","gake":"○","takashio":"×","jishin":"○","tsunami":"×","kaji":"×","naisui":"○","kazan":"×"}}
,{"type":"Feature","geometry":{"type":"Point","coordinates":[135.87831879734,35.149543218541]},"properties":{"Name":"伊香立中学校体育館","Jusho":"滋賀県大津市伊香立下在地町414","kouzui":"○","gake":"○","takashio":"×","jishin":"○","tsunami":"×","kaji":"×","naisui":"○","kazan":"×"}}
,{"type":"Feature","geometry":{"type":"Point","coordinates":[135.87908590912,35.149679191503]},"properties":{"Name":"伊香立中学校グラウンド","Jusho":"滋賀県大津市伊香立下在地町414","kouzui":"○","gake":"○","takashio":"×","jishin":"○","tsunami":"×","kaji":"×","naisui":"○","kazan":"×"}}
,{"type":"Feature","geometry":{"type":"Point","coordinates":[135.89405009128,35.149965774029]},"properties":{"Name":"伊香立児童館","Jusho":"滋賀県大津市伊香立下龍華町584-157","kouzui":"○","gake":"○","takashio":"×","jishin":"○","tsunami":"×","kaji":"×","naisui":"○","kazan":"×"}}
,{"type":"Feature","geometry":{"type":"Point","coordinates":[135.89377650597,35.150220173549]},"properties":{"Name":"伊香立ふれあいセンター","Jusho":"滋賀県大津市伊香立下龍華町584-157","kouzui":"○","gake":"○","takashio":"×","jishin":"○","tsunami":"×","kaji":"×","naisui":"○","kazan":"×"}}
,{"type":"Feature","geometry":{"type":"Point","coordinates":[135.87387820314,35.143460956885]},"properties":{"Name":"伊香立環境交流館","Jusho":"滋賀県大津市伊香立下在地町1222-1","kouzui":"○","gake":"○","takashio":"×","jishin":"○","tsunami":"×","kaji":"×","naisui":"○","kazan":"×"}}
,{"type":"Feature","geometry":{"type":"Point","coordinates":[135.87372799944,35.143381998837]},"properties":{"Name":"伊香立児童クラブ","Jusho":"滋賀県大津市伊香立下在地町1222-1","kouzui":"○","gake":"○","takashio":"×","jishin":"○","tsunami":"×","kaji":"×","naisui":"○","kazan":"×"}}
,{"type":"Feature","geometry":{"type":"Point","coordinates":[135.89288721226,35.152993000802]},"properties":{"Name":"伊香立保育園グラウンド","Jusho":"滋賀県大津市伊香立下龍華町566","kouzui":"○","gake":"×","takashio":"×","jishin":"○","tsunami":"×","kaji":"×","naisui":"○","kazan":"×"}}
,{"type":"Feature","geometry":{"type":"Point","coordinates":[135.88443048479,35.137473731738]},"properties":{"Name":"伊香立公園","Jusho":"滋賀県大津市山百合の丘4-1","kouzui":"○","gake":"○","takashio":"×","jishin":"○","tsunami":"×","kaji":"○","naisui":"○","kazan":"×"}}
,{"type":"Feature","geometry":{"type":"Point","coordinates":[135.91273591791,35.131518621579]},"properties":{"Name":"真野市民センター","Jusho":"滋賀県大津市真野四丁目6-2","kouzui":"○","gake":"○","takashio":"×","jishin":"○","tsunami":"×","kaji":"×","naisui":"○","kazan":"×"}}
,{"type":"Feature","geometry":{"type":"Point","coordinates":[135.91214106731,35.132761455911]},"properties":{"Name":"真野小学校体育館","Jusho":"滋賀県大津市真野四丁目6-17","kouzui":"○","gake":"○","takashio":"×","jishin":"○","tsunami":"×","kaji":"×","naisui":"○","kazan":"×"}}
,{"type":"Feature","geometry":{"type":"Point","coordinates":[135.91278479747,35.132077060344]},"properties":{"Name":"真野小学校グラウンド","Jusho":"滋賀県大津市真野四丁目6-17","kouzui":"○","gake":"○","takashio":"×","jishin":"○","tsunami":"×","kaji":"×","naisui":"○","kazan":"×"}}
,{"type":"Feature","geometry":{"type":"Point","coordinates":[135.912226898,35.133287910125]},"properties":{"Name":"真野幼稚園","Jusho":"滋賀県大津市真野四丁目6-27","kouzui":"○","gake":"○","takashio":"×","jishin":"○","tsunami":"×","kaji":"×","naisui":"○","kazan":"×"}}
,{"type":"Feature","geometry":{"type":"Point","coordinates":[135.91227517776,35.133494103765]},"properties":{"Name":"真野幼稚園グラウンド","Jusho":"滋賀県大津市真野四丁目6-27","kouzui":"○","gake":"○","takashio":"×","jishin":"○","tsunami":"×","kaji":"×","naisui":"○","kazan":"×"}}
,{"type":"Feature","geometry":{"type":"Point","coordinates":[135.90881214459,35.141663788241]},"properties":{"Name":"真野北市民センター","Jusho":"滋賀県大津市緑町4-1","kouzui":"○","gake":"○","takashio":"×","jishin":"○","tsunami":"×","kaji":"×","naisui":"○","kazan":"×"}}
,{"type":"Feature","geometry":{"type":"Point","coordinates":[135.90912864526,35.141804161013]},"properties":{"Name":"真野北市民センター前広場","Jusho":"滋賀県大津市緑町4-1","kouzui":"○","gake":"○","takashio":"×","jishin":"○","tsunami":"×","kaji":"×","naisui":"×","kazan":"×"}}
,{"type":"Feature","geometry":{"type":"Point","coordinates":[135.90812247621,35.144058638585]},"properties":{"Name":"真野北小学校体育館","Jusho":"滋賀県大津市緑町15-2","kouzui":"○","gake":"○","takashio":"×","jishin":"○","tsunami":"×","kaji":"×","naisui":"○","kazan":"×"}}
,{"type":"Feature","geometry":{"type":"Point","coordinates":[135.90895932542,35.143887563975]},"properties":{"Name":"真野北小学校グラウンド","Jusho":"滋賀県大津市緑町15-2","kouzui":"○","gake":"○","takashio":"×","jishin":"○","tsunami":"×","kaji":"×","naisui":"○","kazan":"×"}}
,{"type":"Feature","geometry":{"type":"Point","coordinates":[135.90418083324,35.141066999329]},"properties":{"Name":"真野中学校体育館","Jusho":"滋賀県大津市清風町24-1","kouzui":"○","gake":"○","takashio":"×","jishin":"○","tsunami":"×","kaji":"×","naisui":"○","kazan":"×"}}
,{"type":"Feature","geometry":{"type":"Point","coordinates":[135.90535027636,35.140689743538]},"properties":{"Name":"真野中学校グラウンド","Jusho":"滋賀県大津市清風町24-1","kouzui":"○","gake":"○","takashio":"×","jishin":"○","tsunami":"×","kaji":"×","naisui":"○","kazan":"×"}}
,{"type":"Feature","geometry":{"type":"Point","coordinates":[135.91018776142,35.145535736102]},"properties":{"Name":"伊香立・真野北幼稚園","Jusho":"滋賀県大津市緑町16-2","kouzui":"○","gake":"×","takashio":"×","jishin":"○","tsunami":"×","kaji":"×","naisui":"○","kazan":"×"}}
,{"type":"Feature","geometry":{"type":"Point","coordinates":[135.91018776142,35.145535736102]},"properties":{"Name":"伊香立・真野北幼稚園グラウンド","Jusho":"滋賀県大津市緑町16-2","kouzui":"○","gake":"○","takashio":"×","jishin":"○","tsunami":"×","kaji":"×","naisui":"○","kazan":"×"}}
,{"type":"Feature","geometry":{"type":"Point","coordinates":[135.91746799176,35.137713099466]},"properties":{"Name":"真野保育園","Jusho":"滋賀県大津市向陽町4-2","kouzui":"○","gake":"○","takashio":"×","jishin":"○","tsunami":"×","kaji":"×","naisui":"○","kazan":"×"}}
,{"type":"Feature","geometry":{"type":"Point","coordinates":[135.91616148556,35.138978434689]},"properties":{"Name":"麗湖こども園","Jusho":"滋賀県大津市花園町13-36","kouzui":"○","gake":"○","takashio":"×","jishin":"○","tsunami":"×","kaji":"×","naisui":"○","kazan":"×"}}
,{"type":"Feature","geometry":{"type":"Point","coordinates":[135.91616148556,35.138978434689]},"properties":{"Name":"麗湖こども園グラウンド","Jusho":"滋賀県大津市花園町13-36","kouzui":"○","gake":"○","takashio":"×","jishin":"○","tsunami":"×","kaji":"×","naisui":"○","kazan":"×"}}
,{"type":"Feature","geometry":{"type":"Point","coordinates":[135.9154587468,35.1385309801]},"properties":{"Name":"花園児童公園","Jusho":"滋賀県大津市花園町13","kouzui":"○","gake":"○","takashio":"×","jishin":"○","tsunami":"×","kaji":"×","naisui":"○","kazan":"×"}}
,{"type":"Feature","geometry":{"type":"Point","coordinates":[135.90883724397,35.141088212223]},"properties":{"Name":"まんだら公園","Jusho":"滋賀県大津市清風町6","kouzui":"○","gake":"○","takashio":"×","jishin":"○","tsunami":"×","kaji":"×","naisui":"×","kazan":"×"}}
,{"type":"Feature","geometry":{"type":"Point","coordinates":[135.90702592862,35.142210879533]},"properties":{"Name":"陽明公園","Jusho":"滋賀県大津市陽明町6","kouzui":"○","gake":"○","takashio":"×","jishin":"○","tsunami":"×","kaji":"×","naisui":"○","kazan":"×"}}
,{"type":"Feature","geometry":{"type":"Point","coordinates":[135.90478677552,35.145034315296]},"properties":{"Name":"清和公園","Jusho":"滋賀県大津市清和町16","kouzui":"○","gake":"○","takashio":"×","jishin":"○","tsunami":"×","kaji":"×","naisui":"○","kazan":"×"}}
,{"type":"Feature","geometry":{"type":"Point","coordinates":[135.90987551375,35.14459825299]},"properties":{"Name":"みどり公園","Jusho":"滋賀県大津市緑町16","kouzui":"○","gake":"○","takashio":"×","jishin":"○","tsunami":"×","kaji":"×","naisui":"○","kazan":"×"}}
,{"type":"Feature","geometry":{"type":"Point","coordinates":[135.9181695856,35.136599637816]},"properties":{"Name":"びわ湖美空団地一帯（向陽公園含む）","Jusho":"滋賀県大津市美空町","kouzui":"○","gake":"○","takashio":"×","jishin":"○","tsunami":"×","kaji":"○","naisui":"○","kazan":"×"}}
,{"type":"Feature","geometry":{"type":"Point","coordinates":[135.91474964112,35.114272826099]},"properties":{"Name":"堅田市民センター","Jusho":"滋賀県大津市本堅田三丁目8-1","kouzui":"○","gake":"○","takashio":"×","jishin":"○","tsunami":"×","kaji":"×","naisui":"○","kazan":"×"}}
,{"type":"Feature","geometry":{"type":"Point","coordinates":[135.91600491494,35.112473673524]},"properties":{"Name":"堅田小学校体育館","Jusho":"滋賀県大津市本堅田三丁目6-1","kouzui":"○","gake":"○","takashio":"×","jishin":"○","tsunami":"×","kaji":"×","naisui":"○","kazan":"×"}}
,{"type":"Feature","geometry":{"type":"Point","coordinates":[135.91772152871,35.115080237755]},"properties":{"Name":"堅田中学校体育館","Jusho":"滋賀県大津市本堅田三丁目22-1","kouzui":"×","gake":"○","takashio":"×","jishin":"○","tsunami":"×","kaji":"×","naisui":"×","kazan":"×"}}
,{"type":"Feature","geometry":{"type":"Point","coordinates":[135.91772689313,35.114277214228]},"properties":{"Name":"堅田中学校グラウンド","Jusho":"滋賀県大津市本堅田三丁目22-1","kouzui":"×","gake":"○","takashio":"×","jishin":"○","tsunami":"×","kaji":"×","naisui":"×","kazan":"×"}}
,{"type":"Feature","geometry":{"type":"Point","coordinates":[135.91606928795,35.113750637126]},"properties":{"Name":"堅田幼稚園","Jusho":"滋賀県大津市本堅田三丁目7-17","kouzui":"○","gake":"○","takashio":"×","jishin":"○","tsunami":"×","kaji":"×","naisui":"○","kazan":"×"}}
,{"type":"Feature","geometry":{"type":"Point","coordinates":[135.91135932892,35.111942696513]},"properties":{"Name":"北部地域文化センター","Jusho":"滋賀県大津市堅田二丁目1-11","kouzui":"○","gake":"○","takashio":"×","jishin":"○","tsunami":"×","kaji":"×","naisui":"○","kazan":"×"}}
,{"type":"Feature","geometry":{"type":"Point","coordinates":[135.91400935143,35.112969541492]},"properties":{"Name":"滋賀県立堅田高校体育館","Jusho":"滋賀県大津市本堅田三丁目9-1","kouzui":"○","gake":"○","takashio":"×","jishin":"○","tsunami":"×","kaji":"×","naisui":"○","kazan":"×"}}
,{"type":"Feature","geometry":{"type":"Point","coordinates":[135.90730651703,35.11511895807]},"properties":{"Name":"天神山保育園グラウンド","Jusho":"滋賀県大津市本堅田六丁目3-1","kouzui":"○","gake":"○","takashio":"×","jishin":"○","tsunami":"×","kaji":"×","naisui":"○","kazan":"×"}}
,{"type":"Feature","geometry":{"type":"Point","coordinates":[135.91330393639,35.113451469468]},"properties":{"Name":"堅田高校・堅田小学校グラウンド一帯","Jusho":"滋賀県大津市本堅田三丁目9-1他","kouzui":"○","gake":"○","takashio":"×","jishin":"○","tsunami":"×","kaji":"○","naisui":"×","kazan":"×"}}
,{"type":"Feature","geometry":{"type":"Point","coordinates":[135.90956761823,35.11770715563]},"properties":{"Name":"堅田かすがやま翔裕館","Jusho":"滋賀県大津市本堅田六丁目16-8","kouzui":"○","gake":"○","takashio":"×","jishin":"○","tsunami":"×","kaji":"×","naisui":"○","kazan":"×"}}
,{"type":"Feature","geometry":{"type":"Point","coordinates":[135.9198112124,35.111354663176]},"properties":{"Name":"本福寺こども園","Jusho":"滋賀県大津市本堅田一丁目22-30","kouzui":"×","gake":"○","takashio":"×","jishin":"○","tsunami":"×","kaji":"×","naisui":"×","kazan":"×"}}
,{"type":"Feature","geometry":{"type":"Point","coordinates":[135.90905284632,35.11790314376]},"properties":{"Name":"第二本福寺こども園","Jusho":"滋賀県大津市本堅田六丁目14-11","kouzui":"○","gake":"○","takashio":"×","jishin":"○","tsunami":"×","kaji":"×","naisui":"○","kazan":"×"}}
,{"type":"Feature","geometry":{"type":"Point","coordinates":[135.88218836227,35.108111264734]},"properties":{"Name":"仰木市民センター","Jusho":"滋賀県大津市仰木四丁目15-11","kouzui":"○","gake":"○","takashio":"×","jishin":"○","tsunami":"×","kaji":"×","naisui":"○","kazan":"×"}}
,{"type":"Feature","geometry":{"type":"Point","coordinates":[135.88173775117,35.108703704732]},"properties":{"Name":"仰木小学校体育館","Jusho":"滋賀県大津市仰木四丁目15-8","kouzui":"○","gake":"○","takashio":"×","jishin":"○","tsunami":"×","kaji":"×","naisui":"○","kazan":"×"}}
,{"type":"Feature","geometry":{"type":"Point","coordinates":[135.88262288013,35.108515002089]},"properties":{"Name":"仰木小学校グラウンド","Jusho":"滋賀県大津市仰木四丁目15-8","kouzui":"○","gake":"○","takashio":"×","jishin":"○","tsunami":"×","kaji":"×","naisui":"○","kazan":"×"}}
,{"type":"Feature","geometry":{"type":"Point","coordinates":[135.88083652893,35.1088397459]},"properties":{"Name":"旧仰木幼稚園グラウンド","Jusho":"滋賀県大津市仰木四丁目1-30","kouzui":"○","gake":"○","takashio":"×","jishin":"○","tsunami":"×","kaji":"×","naisui":"○","kazan":"×"}}
,{"type":"Feature","geometry":{"type":"Point","coordinates":[135.88026253621,35.108238529986]},"properties":{"Name":"仰木太鼓会館","Jusho":"滋賀県大津市仰木四丁目2-50","kouzui":"○","gake":"○","takashio":"×","jishin":"○","tsunami":"×","kaji":"×","naisui":"○","kazan":"×"}}
,{"type":"Feature","geometry":{"type":"Point","coordinates":[135.89416642238,35.1090798615]},"properties":{"Name":"仰木の里市民センター","Jusho":"滋賀県大津市仰木の里七丁目1-25","kouzui":"○","gake":"○","takashio":"×","jishin":"○","tsunami":"×","kaji":"×","naisui":"○","kazan":"×"}}
,{"type":"Feature","geometry":{"type":"Point","coordinates":[135.89155931522,35.107157716033]},"properties":{"Name":"仰木の里小学校体育館","Jusho":"滋賀県大津市仰木の里四丁目4-1","kouzui":"○","gake":"○","takashio":"×","jishin":"○","tsunami":"×","kaji":"×","naisui":"○","kazan":"×"}}
,{"type":"Feature","geometry":{"type":"Point","coordinates":[135.89198310424,35.106249289045]},"properties":{"Name":"仰木の里小学校グラウンド","Jusho":"滋賀県大津市仰木の里四丁目4-1","kouzui":"○","gake":"○","takashio":"×","jishin":"○","tsunami":"×","kaji":"×","naisui":"○","kazan":"×"}}
,{"type":"Feature","geometry":{"type":"Point","coordinates":[135.90140685783,35.109345984898]},"properties":{"Name":"仰木の里東小学校体育館","Jusho":"滋賀県大津市仰木の里東六丁目1-1","kouzui":"○","gake":"○","takashio":"×","jishin":"○","tsunami":"×","kaji":"×","naisui":"○","kazan":"×"}}
,{"type":"Feature","geometry":{"type":"Point","coordinates":[135.90074703441,35.108551681734]},"properties":{"Name":"仰木の里東小学校グラウンド","Jusho":"滋賀県大津市仰木の里東六丁目1-1","kouzui":"○","gake":"○","takashio":"×","jishin":"○","tsunami":"×","kaji":"×","naisui":"×","kazan":"×"}}
,{"type":"Feature","geometry":{"type":"Point","coordinates":[135.88791098727,35.105620971502]},"properties":{"Name":"仰木の里幼稚園","Jusho":"滋賀県大津市仰木の里三丁目10-1","kouzui":"○","gake":"○","takashio":"×","jishin":"○","tsunami":"×","kaji":"×","naisui":"○","kazan":"×"}}
,{"type":"Feature","geometry":{"type":"Point","coordinates":[135.8882757677,35.105590251335]},"properties":{"Name":"仰木の里幼稚園グラウンド","Jusho":"滋賀県大津市仰木の里三丁目10-1","kouzui":"○","gake":"○","takashio":"×","jishin":"○","tsunami":"×","kaji":"×","naisui":"○","kazan":"×"}}
,{"type":"Feature","geometry":{"type":"Point","coordinates":[135.8994231405,35.109372763386]},"properties":{"Name":"仰木の里東幼稚園","Jusho":"滋賀県大津市仰木の里東六丁目4-1","kouzui":"○","gake":"○","takashio":"×","jishin":"○","tsunami":"×","kaji":"×","naisui":"○","kazan":"×"}}
,{"type":"Feature","geometry":{"type":"Point","coordinates":[135.89960553072,35.109148955065]},"properties":{"Name":"仰木の里東幼稚園グラウンド","Jusho":"滋賀県大津市仰木の里東六丁目4-1","kouzui":"○","gake":"○","takashio":"×","jishin":"○","tsunami":"×","kaji":"×","naisui":"○","kazan":"×"}}
,{"type":"Feature","geometry":{"type":"Point","coordinates":[135.88958941617,35.108357939564]},"properties":{"Name":"仰木中学校体育館","Jusho":"滋賀県大津市仰木の里五丁目1-1","kouzui":"○","gake":"○","takashio":"×","jishin":"○","tsunami":"×","kaji":"×","naisui":"○","kazan":"×"}}
,{"type":"Feature","geometry":{"type":"Point","coordinates":[135.89042090096,35.107467079935]},"properties":{"Name":"仰木中学校グラウンド","Jusho":"滋賀県大津市仰木の里五丁目1-1","kouzui":"○","gake":"○","takashio":"×","jishin":"○","tsunami":"×","kaji":"×","naisui":"○","kazan":"×"}}
,{"type":"Feature","geometry":{"type":"Point","coordinates":[135.89895825883,35.102456670913]},"properties":{"Name":"せんだん保育園駐車場","Jusho":"滋賀県大津市大津市仰木の里東二丁目2番5号","kouzui":"○","gake":"○","takashio":"×","jishin":"○","tsunami":"×","kaji":"×","naisui":"○","kazan":"×"}}
,{"type":"Feature","geometry":{"type":"Point","coordinates":[135.88800389462,35.102288476979]},"properties":{"Name":"認定こども園はぐくみの家仰木星の子 駐車場","Jusho":"滋賀県大津市大津市仰木の里一丁目28番1号","kouzui":"○","gake":"○","takashio":"×","jishin":"○","tsunami":"×","kaji":"×","naisui":"○","kazan":"×"}}
,{"type":"Feature","geometry":{"type":"Point","coordinates":[135.89282626759,35.103009153234]},"properties":{"Name":"滋賀県立北大津高校体育館","Jusho":"滋賀県大津市仰木の里一丁目23-1","kouzui":"○","gake":"○","takashio":"×","jishin":"○","tsunami":"×","kaji":"×","naisui":"○","kazan":"×"}}
,{"type":"Feature","geometry":{"type":"Point","coordinates":[135.89836268602,35.105496700451]},"properties":{"Name":"仰木東公園","Jusho":"滋賀県大津市仰木の里東二丁目15","kouzui":"○","gake":"○","takashio":"×","jishin":"○","tsunami":"×","kaji":"×","naisui":"×","kazan":"×"}}
,{"type":"Feature","geometry":{"type":"Point","coordinates":[135.88935591317,35.103003603126]},"properties":{"Name":"仰木西公園・北大津高校グラウンド","Jusho":"滋賀県大津市仰木の里一丁目28他","kouzui":"○","gake":"○","takashio":"×","jishin":"○","tsunami":"×","kaji":"○","naisui":"○","kazan":"×"}}
,{"type":"Feature","geometry":{"type":"Point","coordinates":[135.89562855203,35.090026077109]},"properties":{"Name":"雄琴市民センター","Jusho":"滋賀県大津市雄琴一丁目17-2","kouzui":"○","gake":"○","takashio":"×","jishin":"○","tsunami":"×","kaji":"×","naisui":"○","kazan":"×"}}
,{"type":"Feature","geometry":{"type":"Point","coordinates":[135.89374208941,35.092839214766]},"properties":{"Name":"雄琴小学校体育館","Jusho":"滋賀県大津市雄琴二丁目16-1","kouzui":"○","gake":"○","takashio":"×","jishin":"○","tsunami":"×","kaji":"×","naisui":"○","kazan":"×"}}
,{"type":"Feature","geometry":{"type":"Point","coordinates":[135.89286768928,35.092707536183]},"properties":{"Name":"雄琴小学校グラウンド","Jusho":"滋賀県大津市雄琴二丁目16-1","kouzui":"○","gake":"○","takashio":"×","jishin":"○","tsunami":"×","kaji":"×","naisui":"○","kazan":"×"}}
,{"type":"Feature","geometry":{"type":"Point","coordinates":[135.893908,35.092381]},"properties":{"Name":"旧雄琴幼稚園グラウンド","Jusho":"滋賀県大津市雄琴二丁目16-1","kouzui":"○","gake":"○","takashio":"×","jishin":"○","tsunami":"×","kaji":"×","naisui":"○","kazan":"×"}}
,{"type":"Feature","geometry":{"type":"Point","coordinates":[135.89454933268,35.088168133748]},"properties":{"Name":"雄琴湖岸緑地","Jusho":"滋賀県大津市雄琴六丁目1","kouzui":"×","gake":"○","takashio":"×","jishin":"○","tsunami":"×","kaji":"×","naisui":"×","kazan":"×"}}
,{"type":"Feature","geometry":{"type":"Point","coordinates":[135.88947249203,35.07928993298]},"properties":{"Name":"湖西浄化センター","Jusho":"滋賀県大津市苗鹿三丁目1-1","kouzui":"○","gake":"○","takashio":"×","jishin":"○","tsunami":"×","kaji":"○","naisui":"×","kazan":"×"}}
,{"type":"Feature","geometry":{"type":"Point","coordinates":[135.87077185335,35.071408087434]},"properties":{"Name":"坂本市民センター","Jusho":"滋賀県大津市坂本六丁目1-12","kouzui":"○","gake":"○","takashio":"×","jishin":"○","tsunami":"×","kaji":"×","naisui":"○","kazan":"×"}}
,{"type":"Feature","geometry":{"type":"Point","coordinates":[135.87310253227,35.069205255054]},"properties":{"Name":"坂本小学校体育館","Jusho":"滋賀県大津市坂本三丁目12-57","kouzui":"○","gake":"○","takashio":"×","jishin":"○","tsunami":"×","kaji":"×","naisui":"○","kazan":"×"}}
,{"type":"Feature","geometry":{"type":"Point","coordinates":[135.87259291256,35.06835787367]},"properties":{"Name":"坂本小学校グラウンド","Jusho":"滋賀県大津市坂本三丁目12-57","kouzui":"○","gake":"○","takashio":"×","jishin":"○","tsunami":"×","kaji":"×","naisui":"×","kazan":"×"}}
,{"type":"Feature","geometry":{"type":"Point","coordinates":[135.87082013311,35.071899814763]},"properties":{"Name":"坂本幼稚園","Jusho":"滋賀県大津市坂本六丁目1-12","kouzui":"○","gake":"○","takashio":"×","jishin":"○","tsunami":"×","kaji":"×","naisui":"○","kazan":"×"}}
,{"type":"Feature","geometry":{"type":"Point","coordinates":[135.87076112451,35.071754931125]},"properties":{"Name":"坂本幼稚園グラウンド","Jusho":"滋賀県大津市坂本六丁目1-12","kouzui":"○","gake":"○","takashio":"×","jishin":"○","tsunami":"×","kaji":"×","naisui":"○","kazan":"×"}}
,{"type":"Feature","geometry":{"type":"Point","coordinates":[135.87471968119,35.077087416759]},"properties":{"Name":"坂本市民体育館","Jusho":"滋賀県大津市坂本六丁目33-19","kouzui":"○","gake":"○","takashio":"×","jishin":"×","tsunami":"×","kaji":"×","naisui":"○","kazan":"×"}}
,{"type":"Feature","geometry":{"type":"Point","coordinates":[135.87435490077,35.077140098305]},"properties":{"Name":"比叡ふれあいセンター","Jusho":"滋賀県大津市坂本六丁目33-19","kouzui":"○","gake":"○","takashio":"×","jishin":"×","tsunami":"×","kaji":"×","naisui":"○","kazan":"×"}}
,{"type":"Feature","geometry":{"type":"Point","coordinates":[135.87122832644,35.071724550726]},"properties":{"Name":"坂本市民格技場","Jusho":"滋賀県大津市坂本六丁目1-11","kouzui":"○","gake":"○","takashio":"×","jishin":"○","tsunami":"×","kaji":"×","naisui":"○","kazan":"×"}}
,{"type":"Feature","geometry":{"type":"Point","coordinates":[135.86944016369,35.078123522857]},"properties":{"Name":"坂本市民運動広場","Jusho":"滋賀県大津市坂本五丁目16","kouzui":"○","gake":"×","takashio":"×","jishin":"○","tsunami":"×","kaji":"×","naisui":"○","kazan":"×"}}
,{"type":"Feature","geometry":{"type":"Point","coordinates":[135.87116931784,35.071329412079]},"properties":{"Name":"坂本市民センター前広場","Jusho":"滋賀県大津市坂本六丁目1-12","kouzui":"○","gake":"○","takashio":"×","jishin":"○","tsunami":"×","kaji":"×","naisui":"○","kazan":"×"}}
,{"type":"Feature","geometry":{"type":"Point","coordinates":[135.87339875595,35.080233611549]},"properties":{"Name":"坂本天満宮多目的広場","Jusho":"滋賀県大津市坂本八丁目30","kouzui":"○","gake":"○","takashio":"×","jishin":"○","tsunami":"×","kaji":"×","naisui":"○","kazan":"×"}}
,{"type":"Feature","geometry":{"type":"Point","coordinates":[135.86737874193,35.070649562651]},"properties":{"Name":"比叡山中学校体育館","Jusho":"滋賀県大津市坂本四丁目5","kouzui":"○","gake":"○","takashio":"×","jishin":"○","tsunami":"×","kaji":"×","naisui":"○","kazan":"×"}}
,{"type":"Feature","geometry":{"type":"Point","coordinates":[135.86466971083,35.069951473882]},"properties":{"Name":"比叡山高等学校本館","Jusho":"滋賀県大津市坂本四丁目3-1","kouzui":"○","gake":"○","takashio":"×","jishin":"○","tsunami":"×","kaji":"×","naisui":"○","kazan":"×"}}
,{"type":"Feature","geometry":{"type":"Point","coordinates":[135.865326,35.058233]},"properties":{"Name":"比叡山高等学校グラウンド","Jusho":"滋賀県大津市滋賀県大津市坂本一丁目２","kouzui":"○","gake":"○","takashio":"×","jishin":"○","tsunami":"×","kaji":"×","naisui":"○","kazan":"×"}}
,{"type":"Feature","geometry":{"type":"Point","coordinates":[135.87856008863,35.079035822251]},"properties":{"Name":"日吉台市民センター","Jusho":"滋賀県大津市日吉台一丁目15-1","kouzui":"○","gake":"○","takashio":"×","jishin":"○","tsunami":"×","kaji":"×","naisui":"○","kazan":"×"}}
,{"type":"Feature","geometry":{"type":"Point","coordinates":[135.8756852615,35.083242862855]},"properties":{"Name":"日吉台小学校体育館","Jusho":"滋賀県大津市日吉台三丁目33-3","kouzui":"○","gake":"○","takashio":"×","jishin":"○","tsunami":"×","kaji":"×","naisui":"○","kazan":"×"}}
,{"type":"Feature","geometry":{"type":"Point","coordinates":[135.87638263584,35.082553661494]},"properties":{"Name":"日吉台小学校グラウンド","Jusho":"滋賀県大津市日吉台三丁目33-3","kouzui":"○","gake":"○","takashio":"×","jishin":"○","tsunami":"×","kaji":"×","naisui":"○","kazan":"×"}}
,{"type":"Feature","geometry":{"type":"Point","coordinates":[135.87665322426,35.08179172132]},"properties":{"Name":"日吉台至明こども園グラウンド","Jusho":"滋賀県大津市大津市日吉台三丁目33番2号","kouzui":"○","gake":"○","takashio":"×","jishin":"○","tsunami":"×","kaji":"×","naisui":"○","kazan":"×"}}
,{"type":"Feature","geometry":{"type":"Point","coordinates":[135.88103634361,35.079854698762]},"properties":{"Name":"日吉台第９公園","Jusho":"滋賀県大津市日吉台一丁目14","kouzui":"○","gake":"○","takashio":"×","jishin":"○","tsunami":"×","kaji":"×","naisui":"○","kazan":"×"}}
,{"type":"Feature","geometry":{"type":"Point","coordinates":[135.87622280476,35.062361453898]},"properties":{"Name":"下阪本市民センター","Jusho":"滋賀県大津市下阪本三丁目14-30","kouzui":"○","gake":"○","takashio":"×","jishin":"○","tsunami":"×","kaji":"×","naisui":"○","kazan":"×"}}
,{"type":"Feature","geometry":{"type":"Point","coordinates":[135.87709162836,35.062822162591]},"properties":{"Name":"下阪本小学校体育館","Jusho":"滋賀県大津市下阪本四丁目10-1","kouzui":"○","gake":"○","takashio":"×","jishin":"○","tsunami":"×","kaji":"×","naisui":"○","kazan":"×"}}
,{"type":"Feature","geometry":{"type":"Point","coordinates":[135.87664101725,35.063199778917]},"properties":{"Name":"下阪本小学校グラウンド","Jusho":"滋賀県大津市下阪本四丁目10-1","kouzui":"○","gake":"○","takashio":"×","jishin":"○","tsunami":"×","kaji":"×","naisui":"×","kazan":"×"}}
,{"type":"Feature","geometry":{"type":"Point","coordinates":[135.87911531773,35.068736925696]},"properties":{"Name":"日吉中学校体育館","Jusho":"滋賀県大津市下阪本六丁目38-26","kouzui":"○","gake":"○","takashio":"×","jishin":"○","tsunami":"×","kaji":"×","naisui":"○","kazan":"×"}}
,{"type":"Feature","geometry":{"type":"Point","coordinates":[135.8786325201,35.068117851637]},"properties":{"Name":"日吉中学校グラウンド","Jusho":"滋賀県大津市下阪本六丁目38-26","kouzui":"○","gake":"○","takashio":"×","jishin":"○","tsunami":"×","kaji":"×","naisui":"×","kazan":"×"}}
,{"type":"Feature","geometry":{"type":"Point","coordinates":[135.8764009222,35.064952158406]},"properties":{"Name":"下阪本幼稚園","Jusho":"滋賀県大津市下阪本四丁目15-12","kouzui":"○","gake":"○","takashio":"×","jishin":"○","tsunami":"×","kaji":"×","naisui":"○","kazan":"×"}}
,{"type":"Feature","geometry":{"type":"Point","coordinates":[135.87656185475,35.064657975408]},"properties":{"Name":"下阪本幼稚園グラウンド","Jusho":"滋賀県大津市下阪本四丁目15-12","kouzui":"○","gake":"○","takashio":"×","jishin":"○","tsunami":"×","kaji":"×","naisui":"○","kazan":"×"}}
,{"type":"Feature","geometry":{"type":"Point","coordinates":[135.88526627478,35.066181373581]},"properties":{"Name":"新唐崎公園","Jusho":"滋賀県大津市下阪本六丁目2","kouzui":"×","gake":"○","takashio":"×","jishin":"○","tsunami":"×","kaji":"×","naisui":"×","kazan":"×"}}
,{"type":"Feature","geometry":{"type":"Point","coordinates":[135.88284280572,35.073350656182]},"properties":{"Name":"下阪本市民運動広場","Jusho":"滋賀県大津市比叡辻二丁目14","kouzui":"○","gake":"○","takashio":"×","jishin":"○","tsunami":"×","kaji":"×","naisui":"×","kazan":"×"}}
,{"type":"Feature","geometry":{"type":"Point","coordinates":[135.86563029458,35.048559968688]},"properties":{"Name":"唐崎市民センター","Jusho":"滋賀県大津市唐崎二丁目10-1","kouzui":"○","gake":"○","takashio":"×","jishin":"○","tsunami":"×","kaji":"×","naisui":"○","kazan":"×"}}
,{"type":"Feature","geometry":{"type":"Point","coordinates":[135.86710166942,35.044770678923]},"properties":{"Name":"唐崎小学校体育館","Jusho":"滋賀県大津市際川四丁目7-1","kouzui":"○","gake":"○","takashio":"×","jishin":"○","tsunami":"×","kaji":"×","naisui":"○","kazan":"×"}}
,{"type":"Feature","geometry":{"type":"Point","coordinates":[135.86653304111,35.044950745328]},"properties":{"Name":"唐崎小学校グラウンド","Jusho":"滋賀県大津市際川四丁目7-1","kouzui":"○","gake":"○","takashio":"×","jishin":"○","tsunami":"×","kaji":"×","naisui":"×","kazan":"×"}}
,{"type":"Feature","geometry":{"type":"Point","coordinates":[135.86822130849,35.047413736174]},"properties":{"Name":"唐崎中学校体育館","Jusho":"滋賀県大津市唐崎二丁目9-1","kouzui":"○","gake":"○","takashio":"×","jishin":"○","tsunami":"×","kaji":"×","naisui":"○","kazan":"×"}}
,{"type":"Feature","geometry":{"type":"Point","coordinates":[135.86725571325,35.047655280762]},"properties":{"Name":"唐崎中学校グラウンド","Jusho":"滋賀県大津市唐崎二丁目9-1","kouzui":"○","gake":"○","takashio":"×","jishin":"○","tsunami":"×","kaji":"×","naisui":"×","kazan":"×"}}
,{"type":"Feature","geometry":{"type":"Point","coordinates":[135.86542299209,35.043579578051]},"properties":{"Name":"唐崎幼稚園","Jusho":"滋賀県大津市際川三丁目38-2","kouzui":"○","gake":"○","takashio":"×","jishin":"×","tsunami":"×","kaji":"×","naisui":"○","kazan":"×"}}
,{"type":"Feature","geometry":{"type":"Point","coordinates":[135.86559465347,35.043496131292]},"properties":{"Name":"唐崎幼稚園グラウンド","Jusho":"滋賀県大津市際川三丁目38-2","kouzui":"○","gake":"○","takashio":"×","jishin":"○","tsunami":"×","kaji":"×","naisui":"×","kazan":"×"}}
,{"type":"Feature","geometry":{"type":"Point","coordinates":[135.85565880917,35.043254589648]},"properties":{"Name":"埋蔵文化財調査センター","Jusho":"滋賀県大津市滋賀里一丁目17-23","kouzui":"○","gake":"○","takashio":"×","jishin":"○","tsunami":"×","kaji":"×","naisui":"○","kazan":"×"}}
,{"type":"Feature","geometry":{"type":"Point","coordinates":[135.8580179651,35.043905302391]},"properties":{"Name":"滋賀里コミュニティセンター","Jusho":"滋賀県大津市滋賀里一丁目9-11","kouzui":"○","gake":"○","takashio":"×","jishin":"○","tsunami":"×","kaji":"×","naisui":"○","kazan":"×"}}
,{"type":"Feature","geometry":{"type":"Point","coordinates":[135.85703054961,35.035660359563]},"properties":{"Name":"滋賀市民センター","Jusho":"滋賀県大津市南志賀一丁目8-32","kouzui":"○","gake":"○","takashio":"×","jishin":"○","tsunami":"×","kaji":"×","naisui":"○","kazan":"×"}}
,{"type":"Feature","geometry":{"type":"Point","coordinates":[135.85588283541,35.034990741519]},"properties":{"Name":"志賀小学校体育館","Jusho":"滋賀県大津市南志賀一丁目5-1","kouzui":"○","gake":"○","takashio":"×","jishin":"○","tsunami":"×","kaji":"×","naisui":"○","kazan":"×"}}
,{"type":"Feature","geometry":{"type":"Point","coordinates":[135.85538930896,35.034305525166]},"properties":{"Name":"志賀小学校グラウンド","Jusho":"滋賀県大津市南志賀一丁目5-1","kouzui":"○","gake":"○","takashio":"×","jishin":"○","tsunami":"×","kaji":"×","naisui":"○","kazan":"×"}}
,{"type":"Feature","geometry":{"type":"Point","coordinates":[135.85778720382,35.03481943797]},"properties":{"Name":"志賀幼稚園","Jusho":"滋賀県大津市勧学一丁目8-1","kouzui":"○","gake":"○","takashio":"×","jishin":"○","tsunami":"×","kaji":"×","naisui":"○","kazan":"×"}}
,{"type":"Feature","geometry":{"type":"Point","coordinates":[135.85738487247,35.034634956822]},"properties":{"Name":"志賀幼稚園グラウンド","Jusho":"滋賀県大津市勧学一丁目8-1","kouzui":"○","gake":"○","takashio":"×","jishin":"○","tsunami":"×","kaji":"×","naisui":"×","kazan":"×"}}
,{"type":"Feature","geometry":{"type":"Point","coordinates":[135.85454446599,35.023845660284]},"properties":{"Name":"皇子が丘公園体育館","Jusho":"滋賀県大津市皇子が丘一丁目1-1","kouzui":"○","gake":"○","takashio":"×","jishin":"○","tsunami":"×","kaji":"×","naisui":"○","kazan":"×"}}
,{"type":"Feature","geometry":{"type":"Point","coordinates":[135.85220268353,35.024637134744]},"properties":{"Name":"皇子が丘第２体育館","Jusho":"滋賀県大津市皇子が丘一丁目1-50","kouzui":"○","gake":"○","takashio":"×","jishin":"○","tsunami":"×","kaji":"×","naisui":"○","kazan":"×"}}
,{"type":"Feature","geometry":{"type":"Point","coordinates":[135.8535286377,35.025753099376]},"properties":{"Name":"中ふれあいセンター","Jusho":"滋賀県大津市皇子が丘一丁目9-10","kouzui":"○","gake":"○","takashio":"×","jishin":"×","tsunami":"×","kaji":"×","naisui":"○","kazan":"×"}}
,{"type":"Feature","geometry":{"type":"Point","coordinates":[135.86840487307,35.026694186624]},"properties":{"Name":"柳が崎湖畔公園芝生広場","Jusho":"滋賀県大津市柳が崎5","kouzui":"×","gake":"○","takashio":"×","jishin":"○","tsunami":"×","kaji":"×","naisui":"○","kazan":"×"}}
,{"type":"Feature","geometry":{"type":"Point","coordinates":[135.86631811445,35.028143810966]},"properties":{"Name":"柳が崎湖畔公園駐車場","Jusho":"滋賀県大津市柳が崎7","kouzui":"○","gake":"○","takashio":"×","jishin":"○","tsunami":"×","kaji":"×","naisui":"×","kazan":"×"}}
,{"type":"Feature","geometry":{"type":"Point","coordinates":[135.85235725252,35.02642949511]},"properties":{"Name":"皇子が丘保育園グラウンド","Jusho":"滋賀県大津市皇子が丘一丁目20-20","kouzui":"○","gake":"○","takashio":"×","jishin":"○","tsunami":"×","kaji":"×","naisui":"×","kazan":"×"}}
,{"type":"Feature","geometry":{"type":"Point","coordinates":[135.85139020628,35.023980315192]},"properties":{"Name":"皇子が丘公園","Jusho":"滋賀県大津市皇子が丘一丁目1","kouzui":"○","gake":"×","takashio":"×","jishin":"○","tsunami":"×","kaji":"○","naisui":"×","kazan":"×"}}
,{"type":"Feature","geometry":{"type":"Point","coordinates":[135.86776477619,35.026644140617]},"properties":{"Name":"びわ湖大津館","Jusho":"滋賀県大津市柳が崎5-35","kouzui":"×","gake":"○","takashio":"×","jishin":"○","tsunami":"×","kaji":"×","naisui":"○","kazan":"×"}}
,{"type":"Feature","geometry":{"type":"Point","coordinates":[135.865028,35.029026]},"properties":{"Name":"近江神宮外苑公園","Jusho":"滋賀県大津市二本松1-2","kouzui":"○","gake":"○","takashio":"×","jishin":"○","tsunami":"×","kaji":"×","naisui":"×","kazan":"×"}}
,{"type":"Feature","geometry":{"type":"Point","coordinates":[135.83134331418,35.031302348961]},"properties":{"Name":"山中比叡平市民センター","Jusho":"滋賀県大津市比叡平三丁目57-1","kouzui":"○","gake":"○","takashio":"×","jishin":"○","tsunami":"×","kaji":"×","naisui":"○","kazan":"×"}}
,{"type":"Feature","geometry":{"type":"Point","coordinates":[135.83487787593,35.032934731375]},"properties":{"Name":"比叡平小学校体育館","Jusho":"滋賀県大津市比叡平一丁目45-1","kouzui":"○","gake":"○","takashio":"×","jishin":"○","tsunami":"×","kaji":"×","naisui":"○","kazan":"×"}}
,{"type":"Feature","geometry":{"type":"Point","coordinates":[135.83540207107,35.032665825411]},"properties":{"Name":"比叡平小学校グラウンド","Jusho":"滋賀県大津市比叡平一丁目45-1","kouzui":"○","gake":"○","takashio":"×","jishin":"○","tsunami":"×","kaji":"×","naisui":"○","kazan":"×"}}
,{"type":"Feature","geometry":{"type":"Point","coordinates":[135.83471426225,35.032524145018]},"properties":{"Name":"やまのこひろば（比叡平幼稚園・ ひえい平保育園）グラウンド","Jusho":"滋賀県大津市比叡平一丁目45-3","kouzui":"○","gake":"○","takashio":"×","jishin":"○","tsunami":"×","kaji":"×","naisui":"○","kazan":"×"}}
,{"type":"Feature","geometry":{"type":"Point","coordinates":[135.82821817843,35.028516960046]},"properties":{"Name":"住民交流・まちづくりセンター","Jusho":"滋賀県大津市比叡平二丁目39-4","kouzui":"○","gake":"○","takashio":"×","jishin":"×","tsunami":"×","kaji":"×","naisui":"○","kazan":"×"}}
,{"type":"Feature","geometry":{"type":"Point","coordinates":[135.82816989866,35.028328071921]},"properties":{"Name":"住民交流・まちづくりセンター中庭","Jusho":"滋賀県大津市比叡平二丁目39-4","kouzui":"○","gake":"×","takashio":"×","jishin":"○","tsunami":"×","kaji":"×","naisui":"○","kazan":"×"}}
,{"type":"Feature","geometry":{"type":"Point","coordinates":[135.83425828672,35.032045358208]},"properties":{"Name":"比叡平市民運動広場","Jusho":"滋賀県大津市比叡平一丁目1063-9","kouzui":"○","gake":"○","takashio":"×","jishin":"○","tsunami":"×","kaji":"×","naisui":"○","kazan":"×"}}
,{"type":"Feature","geometry":{"type":"Point","coordinates":[135.82269819226,35.039537606735]},"properties":{"Name":"山中会館","Jusho":"滋賀県大津市山中町1-12","kouzui":"○","gake":"○","takashio":"×","jishin":"×","tsunami":"×","kaji":"×","naisui":"○","kazan":"×"}}
,{"type":"Feature","geometry":{"type":"Point","coordinates":[135.82268746342,35.039322391116]},"properties":{"Name":"山中市民運動広場","Jusho":"滋賀県大津市山中町1-12","kouzui":"○","gake":"×","takashio":"×","jishin":"○","tsunami":"×","kaji":"×","naisui":"○","kazan":"×"}}
,{"type":"Feature","geometry":{"type":"Point","coordinates":[135.83287707177,34.993043520435]},"properties":{"Name":"藤尾市民センター","Jusho":"滋賀県大津市横木二丁目4-1","kouzui":"○","gake":"○","takashio":"×","jishin":"○","tsunami":"×","kaji":"×","naisui":"○","kazan":"×"}}
,{"type":"Feature","geometry":{"type":"Point","coordinates":[135.83232169337,34.995015671096]},"properties":{"Name":"藤尾小学校体育館","Jusho":"滋賀県大津市茶戸町10-1","kouzui":"○","gake":"○","takashio":"×","jishin":"○","tsunami":"×","kaji":"×","naisui":"○","kazan":"×"}}
,{"type":"Feature","geometry":{"type":"Point","coordinates":[135.83308880515,34.994602583139]},"properties":{"Name":"藤尾小学校グラウンド","Jusho":"滋賀県大津市茶戸町10-1","kouzui":"○","gake":"○","takashio":"×","jishin":"○","tsunami":"×","kaji":"×","naisui":"○","kazan":"×"}}
,{"type":"Feature","geometry":{"type":"Point","coordinates":[135.82990655111,34.994075303169]},"properties":{"Name":"永興藤尾こども園グラウンド","Jusho":"滋賀県大津市茶戸町22-6","kouzui":"○","gake":"○","takashio":"×","jishin":"○","tsunami":"×","kaji":"×","naisui":"○","kazan":"×"}}
,{"type":"Feature","geometry":{"type":"Point","coordinates":[135.85529786176,34.999749262477]},"properties":{"Name":"市営大谷団地一帯","Jusho":"滋賀県大津市大谷町6","kouzui":"○","gake":"×","takashio":"×","jishin":"○","tsunami":"×","kaji":"×","naisui":"○","kazan":"×"}}
,{"type":"Feature","geometry":{"type":"Point","coordinates":[135.85786423168,35.014907618043]},"properties":{"Name":"長等市民センター","Jusho":"滋賀県大津市大門通16-40","kouzui":"○","gake":"○","takashio":"×","jishin":"○","tsunami":"×","kaji":"×","naisui":"○","kazan":"×"}}
,{"type":"Feature","geometry":{"type":"Point","coordinates":[135.8557621522,35.012119803469]},"properties":{"Name":"長等小学校体育館","Jusho":"滋賀県大津市大門通5-1","kouzui":"○","gake":"○","takashio":"×","jishin":"○","tsunami":"×","kaji":"×","naisui":"○","kazan":"×"}}
,{"type":"Feature","geometry":{"type":"Point","coordinates":[135.85643806887,35.012282367359]},"properties":{"Name":"長等小学校グラウンド","Jusho":"滋賀県大津市大門通5-1","kouzui":"○","gake":"○","takashio":"×","jishin":"○","tsunami":"×","kaji":"×","naisui":"×","kazan":"×"}}
,{"type":"Feature","geometry":{"type":"Point","coordinates":[135.85865969875,35.020853520692]},"properties":{"Name":"皇子山中学校体育館","Jusho":"滋賀県大津市尾花川12-1","kouzui":"×","gake":"○","takashio":"×","jishin":"○","tsunami":"×","kaji":"×","naisui":"○","kazan":"×"}}
,{"type":"Feature","geometry":{"type":"Point","coordinates":[135.8590030215,35.021354338694]},"properties":{"Name":"皇子山中学校グラウンド","Jusho":"滋賀県大津市尾花川12-1","kouzui":"×","gake":"○","takashio":"×","jishin":"○","tsunami":"×","kaji":"×","naisui":"×","kazan":"×"}}
,{"type":"Feature","geometry":{"type":"Point","coordinates":[135.8568996946,35.011291565668]},"properties":{"Name":"長等幼稚園","Jusho":"滋賀県大津市三井寺町10-30","kouzui":"○","gake":"○","takashio":"×","jishin":"○","tsunami":"×","kaji":"×","naisui":"○","kazan":"×"}}
,{"type":"Feature","geometry":{"type":"Point","coordinates":[135.85691042343,35.011010370463]},"properties":{"Name":"長等幼稚園グラウンド","Jusho":"滋賀県大津市三井寺町10-30","kouzui":"○","gake":"○","takashio":"×","jishin":"○","tsunami":"×","kaji":"×","naisui":"○","kazan":"×"}}
,{"type":"Feature","geometry":{"type":"Point","coordinates":[135.85361403525,35.016242772001]},"properties":{"Name":"滋賀県立大津商業高校体育館","Jusho":"滋賀県大津市御陵町2-1","kouzui":"○","gake":"○","takashio":"×","jishin":"○","tsunami":"×","kaji":"×","naisui":"○","kazan":"×"}}
,{"type":"Feature","geometry":{"type":"Point","coordinates":[135.8543435961,35.015662840941]},"properties":{"Name":"滋賀県立大津商業高校グラウンド","Jusho":"滋賀県大津市御陵町2-1","kouzui":"○","gake":"○","takashio":"×","jishin":"○","tsunami":"×","kaji":"×","naisui":"×","kazan":"×"}}
,{"type":"Feature","geometry":{"type":"Point","coordinates":[135.85280400812,35.015983560899]},"properties":{"Name":"市民文化会館","Jusho":"滋賀県大津市御陵町2-3","kouzui":"○","gake":"○","takashio":"×","jishin":"○","tsunami":"×","kaji":"×","naisui":"○","kazan":"×"}}
,{"type":"Feature","geometry":{"type":"Point","coordinates":[135.85577852446,35.021505514849]},"properties":{"Name":"県立スポーツ会館","Jusho":"滋賀県大津市御陵町4-1","kouzui":"○","gake":"○","takashio":"×","jishin":"○","tsunami":"×","kaji":"×","naisui":"○","kazan":"×"}}
,{"type":"Feature","geometry":{"type":"Point","coordinates":[135.86068472517,35.018632996307]},"properties":{"Name":"尾花川公園","Jusho":"滋賀県大津市尾花川1","kouzui":"×","gake":"○","takashio":"×","jishin":"○","tsunami":"×","kaji":"×","naisui":"×","kazan":"×"}}
,{"type":"Feature","geometry":{"type":"Point","coordinates":[135.85673543092,35.01904794008]},"properties":{"Name":"皇子山総合運動公園","Jusho":"滋賀県大津市御陵町4","kouzui":"×","gake":"○","takashio":"×","jishin":"○","tsunami":"×","kaji":"○","naisui":"×","kazan":"×"}}
,{"type":"Feature","geometry":{"type":"Point","coordinates":[135.86550785326,35.004342070772]},"properties":{"Name":"逢坂市民センター","Jusho":"滋賀県大津市京町三丁目1-3","kouzui":"○","gake":"○","takashio":"×","jishin":"○","tsunami":"×","kaji":"×","naisui":"○","kazan":"×"}}
,{"type":"Feature","geometry":{"type":"Point","coordinates":[135.86438143022,35.001912485958]},"properties":{"Name":"逢坂小学校体育館","Jusho":"滋賀県大津市音羽台6-1","kouzui":"○","gake":"○","takashio":"×","jishin":"○","tsunami":"×","kaji":"×","naisui":"○","kazan":"×"}}
,{"type":"Feature","geometry":{"type":"Point","coordinates":[135.86523437268,35.001424731492]},"properties":{"Name":"逢坂小学校グラウンド","Jusho":"滋賀県大津市音羽台6-1","kouzui":"○","gake":"○","takashio":"×","jishin":"○","tsunami":"×","kaji":"×","naisui":"×","kazan":"×"}}
,{"type":"Feature","geometry":{"type":"Point","coordinates":[135.86379722929,35.001955321226]},"properties":{"Name":"逢坂幼稚園","Jusho":"滋賀県大津市音羽台6-2","kouzui":"○","gake":"○","takashio":"×","jishin":"○","tsunami":"×","kaji":"×","naisui":"○","kazan":"×"}}
,{"type":"Feature","geometry":{"type":"Point","coordinates":[135.86395279741,35.001805919345]},"properties":{"Name":"逢坂幼稚園グラウンド","Jusho":"滋賀県大津市音羽台6-2","kouzui":"○","gake":"○","takashio":"×","jishin":"○","tsunami":"×","kaji":"×","naisui":"○","kazan":"×"}}
,{"type":"Feature","geometry":{"type":"Point","coordinates":[135.86593763208,35.001414836656]},"properties":{"Name":"逢坂保育園グラウンド","Jusho":"滋賀県大津市音羽台6-20","kouzui":"○","gake":"○","takashio":"×","jishin":"○","tsunami":"×","kaji":"×","naisui":"×","kazan":"×"}}
,{"type":"Feature","geometry":{"type":"Point","coordinates":[135.87216882631,34.997188293846]},"properties":{"Name":"打出中学校体育館","Jusho":"滋賀県大津市本宮二丁目46-1","kouzui":"○","gake":"○","takashio":"×","jishin":"○","tsunami":"×","kaji":"×","naisui":"○","kazan":"×"}}
,{"type":"Feature","geometry":{"type":"Point","coordinates":[135.87161092684,34.997816694206]},"properties":{"Name":"打出中学校グラウンド","Jusho":"滋賀県大津市本宮二丁目46-1","kouzui":"○","gake":"○","takashio":"×","jishin":"○","tsunami":"×","kaji":"×","naisui":"○","kazan":"×"}}
,{"type":"Feature","geometry":{"type":"Point","coordinates":[135.8699335729,34.999574469216]},"properties":{"Name":"滋賀短期大学附属高校グラウンド","Jusho":"滋賀県大津市朝日が丘一丁目18-1","kouzui":"○","gake":"○","takashio":"×","jishin":"○","tsunami":"×","kaji":"×","naisui":"○","kazan":"×"}}
,{"type":"Feature","geometry":{"type":"Point","coordinates":[135.86903235068,34.999451428812]},"properties":{"Name":"滋賀短期大学附属高校体育館","Jusho":"滋賀県大津市朝日が丘一丁目18-1","kouzui":"○","gake":"○","takashio":"×","jishin":"○","tsunami":"×","kaji":"×","naisui":"○","kazan":"×"}}
,{"type":"Feature","geometry":{"type":"Point","coordinates":[135.87010587497,35.00143342673]},"properties":{"Name":"朝日が丘保育園グラウンド","Jusho":"滋賀県大津市朝日が丘一丁目23-33","kouzui":"○","gake":"○","takashio":"×","jishin":"○","tsunami":"×","kaji":"×","naisui":"○","kazan":"×"}}
,{"type":"Feature","geometry":{"type":"Point","coordinates":[135.86546210406,35.008372279094]},"properties":{"Name":"中央市民センター","Jusho":"滋賀県大津市中央二丁目2-5","kouzui":"○","gake":"○","takashio":"×","jishin":"○","tsunami":"×","kaji":"×","naisui":"○","kazan":"×"}}
,{"type":"Feature","geometry":{"type":"Point","coordinates":[135.86967166895,35.007848814655]},"properties":{"Name":"中央小学校体育館","Jusho":"滋賀県大津市島の関1-60","kouzui":"○","gake":"○","takashio":"×","jishin":"○","tsunami":"×","kaji":"×","naisui":"○","kazan":"×"}}
,{"type":"Feature","geometry":{"type":"Point","coordinates":[135.86909231181,35.008178352926]},"properties":{"Name":"中央小学校グラウンド","Jusho":"滋賀県大津市島の関1-60","kouzui":"○","gake":"○","takashio":"×","jishin":"○","tsunami":"×","kaji":"×","naisui":"×","kazan":"×"}}
,{"type":"Feature","geometry":{"type":"Point","coordinates":[135.86937662597,35.007563213747]},"properties":{"Name":"大津幼稚園","Jusho":"滋賀県大津市島の関1-50","kouzui":"○","gake":"○","takashio":"×","jishin":"○","tsunami":"×","kaji":"×","naisui":"○","kazan":"×"}}
,{"type":"Feature","geometry":{"type":"Point","coordinates":[135.86924787993,35.007374277214]},"properties":{"Name":"大津幼稚園グラウンド","Jusho":"滋賀県大津市島の関1-50","kouzui":"○","gake":"○","takashio":"×","jishin":"○","tsunami":"×","kaji":"×","naisui":"×","kazan":"×"}}
,{"type":"Feature","geometry":{"type":"Point","coordinates":[135.86976776869,35.009452528617]},"properties":{"Name":"市民会館","Jusho":"滋賀県大津市島の関14-1","kouzui":"×","gake":"○","takashio":"×","jishin":"○","tsunami":"×","kaji":"×","naisui":"○","kazan":"×"}}
,{"type":"Feature","geometry":{"type":"Point","coordinates":[135.86985871093,35.010269954316]},"properties":{"Name":"大津湖岸なぎさ公園おまつり広場","Jusho":"滋賀県大津市島の関13地先","kouzui":"×","gake":"○","takashio":"×","jishin":"○","tsunami":"×","kaji":"×","naisui":"×","kazan":"×"}}
,{"type":"Feature","geometry":{"type":"Point","coordinates":[135.86616262691,35.012594200445]},"properties":{"Name":"大津港","Jusho":"滋賀県大津市浜大津五丁目5","kouzui":"×","gake":"○","takashio":"×","jishin":"○","tsunami":"×","kaji":"○","naisui":"×","kazan":"×"}}
,{"type":"Feature","geometry":{"type":"Point","coordinates":[135.88201416181,34.998515091274]},"properties":{"Name":"平野市民センター","Jusho":"滋賀県大津市馬場三丁目15-45","kouzui":"○","gake":"○","takashio":"×","jishin":"○","tsunami":"×","kaji":"×","naisui":"○","kazan":"×"}}
,{"type":"Feature","geometry":{"type":"Point","coordinates":[135.88193369553,35.001454861116]},"properties":{"Name":"平野小学校体育館","Jusho":"滋賀県大津市馬場一丁目2-1","kouzui":"○","gake":"○","takashio":"×","jishin":"○","tsunami":"×","kaji":"×","naisui":"○","kazan":"×"}}
,{"type":"Feature","geometry":{"type":"Point","coordinates":[135.88264746158,35.001570849381]},"properties":{"Name":"平野小学校グラウンド","Jusho":"滋賀県大津市馬場一丁目2-1","kouzui":"○","gake":"○","takashio":"×","jishin":"○","tsunami":"×","kaji":"×","naisui":"×","kazan":"×"}}
,{"type":"Feature","geometry":{"type":"Point","coordinates":[135.87995516427,35.00270770238]},"properties":{"Name":"平野幼稚園","Jusho":"滋賀県大津市馬場一丁目5-28","kouzui":"○","gake":"○","takashio":"×","jishin":"×","tsunami":"×","kaji":"×","naisui":"○","kazan":"×"}}
,{"type":"Feature","geometry":{"type":"Point","coordinates":[135.87992297776,35.002527542909]},"properties":{"Name":"平野幼稚園グラウンド","Jusho":"滋賀県大津市馬場一丁目5-28","kouzui":"○","gake":"○","takashio":"×","jishin":"○","tsunami":"×","kaji":"×","naisui":"○","kazan":"×"}}
,{"type":"Feature","geometry":{"type":"Point","coordinates":[135.88303313309,35.001016750162]},"properties":{"Name":"滋賀県立大津高校体育館","Jusho":"滋賀県大津市馬場一丁目1-1","kouzui":"○","gake":"○","takashio":"×","jishin":"○","tsunami":"×","kaji":"×","naisui":"○","kazan":"×"}}
,{"type":"Feature","geometry":{"type":"Point","coordinates":[135.882606,35.000217]},"properties":{"Name":"滋賀県立大津高校グラウンド","Jusho":"滋賀県大津市馬場一丁目1-1","kouzui":"○","gake":"○","takashio":"×","jishin":"○","tsunami":"×","kaji":"×","naisui":"×","kazan":"×"}}
,{"type":"Feature","geometry":{"type":"Point","coordinates":[135.87408714235,34.995521788285]},"properties":{"Name":"滋賀短期大学","Jusho":"滋賀県大津市竜が丘24-4","kouzui":"○","gake":"○","takashio":"×","jishin":"○","tsunami":"×","kaji":"×","naisui":"×","kazan":"×"}}
,{"type":"Feature","geometry":{"type":"Point","coordinates":[135.87337903917,34.995921688124]},"properties":{"Name":"滋賀短期大学グラウンド","Jusho":"滋賀県大津市竜が丘24-4","kouzui":"○","gake":"○","takashio":"×","jishin":"○","tsunami":"×","kaji":"×","naisui":"×","kazan":"×"}}
,{"type":"Feature","geometry":{"type":"Point","coordinates":[135.87704592491,35.002219504314]},"properties":{"Name":"市民病院付属看護専門学校","Jusho":"滋賀県大津市石場10-53","kouzui":"○","gake":"○","takashio":"×","jishin":"○","tsunami":"×","kaji":"×","naisui":"○","kazan":"×"}}
,{"type":"Feature","geometry":{"type":"Point","coordinates":[135.87516189742,35.00684409385]},"properties":{"Name":"勤労福祉センター","Jusho":"滋賀県大津市打出浜1-6","kouzui":"×","gake":"○","takashio":"×","jishin":"○","tsunami":"×","kaji":"×","naisui":"○","kazan":"×"}}
,{"type":"Feature","geometry":{"type":"Point","coordinates":[135.87568761039,35.007591054531]},"properties":{"Name":"大津湖岸なぎさ公園打出の森","Jusho":"滋賀県大津市打出浜15","kouzui":"×","gake":"○","takashio":"×","jishin":"○","tsunami":"×","kaji":"×","naisui":"○","kazan":"×"}}
,{"type":"Feature","geometry":{"type":"Point","coordinates":[135.87688588915,35.006967173168]},"properties":{"Name":"滋賀県立芸術劇場びわ湖ホール","Jusho":"滋賀県大津市打出浜15-1","kouzui":"×","gake":"○","takashio":"×","jishin":"○","tsunami":"×","kaji":"×","naisui":"×","kazan":"×"}}
,{"type":"Feature","geometry":{"type":"Point","coordinates":[135.87852552832,35.006638700433]},"properties":{"Name":"滋賀県立県民交流センター（ピアザ淡海）","Jusho":"滋賀県大津市におの浜一丁目1-20","kouzui":"×","gake":"○","takashio":"×","jishin":"○","tsunami":"×","kaji":"×","naisui":"○","kazan":"×"}}
,{"type":"Feature","geometry":{"type":"Point","coordinates":[135.88635464723,35.005294115239]},"properties":{"Name":"県立武道館","Jusho":"滋賀県大津市におの浜四丁目2-15","kouzui":"×","gake":"○","takashio":"×","jishin":"○","tsunami":"×","kaji":"×","naisui":"○","kazan":"×"}}
,{"type":"Feature","geometry":{"type":"Point","coordinates":[135.88741143758,35.00499092939]},"properties":{"Name":"県立体育館","Jusho":"滋賀県大津市におの浜四丁目2-12","kouzui":"×","gake":"○","takashio":"×","jishin":"○","tsunami":"×","kaji":"×","naisui":"○","kazan":"×"}}
,{"type":"Feature","geometry":{"type":"Point","coordinates":[135.89369486513,34.994680972746]},"properties":{"Name":"膳所市民センター","Jusho":"滋賀県大津市本丸町6-40","kouzui":"○","gake":"○","takashio":"×","jishin":"○","tsunami":"×","kaji":"×","naisui":"○","kazan":"×"}}
,{"type":"Feature","geometry":{"type":"Point","coordinates":[135.88791468696,34.991758559741]},"properties":{"Name":"膳所小学校体育館","Jusho":"滋賀県大津市中庄二丁目8-37","kouzui":"○","gake":"○","takashio":"×","jishin":"○","tsunami":"×","kaji":"×","naisui":"○","kazan":"×"}}
,{"type":"Feature","geometry":{"type":"Point","coordinates":[135.8884296711,34.991152086613]},"properties":{"Name":"膳所小学校グラウンド","Jusho":"滋賀県大津市中庄二丁目8-37","kouzui":"○","gake":"○","takashio":"×","jishin":"○","tsunami":"×","kaji":"×","naisui":"×","kazan":"×"}}
,{"type":"Feature","geometry":{"type":"Point","coordinates":[135.88831701832,34.990624715022]},"properties":{"Name":"膳所幼稚園","Jusho":"滋賀県大津市中庄二丁目6-5","kouzui":"○","gake":"○","takashio":"×","jishin":"○","tsunami":"×","kaji":"×","naisui":"○","kazan":"×"}}
,{"type":"Feature","geometry":{"type":"Point","coordinates":[135.88844576435,34.990488476809]},"properties":{"Name":"膳所幼稚園グラウンド","Jusho":"滋賀県大津市中庄二丁目6-5","kouzui":"○","gake":"○","takashio":"×","jishin":"○","tsunami":"×","kaji":"×","naisui":"○","kazan":"×"}}
,{"type":"Feature","geometry":{"type":"Point","coordinates":[135.889431345,34.996450016371]},"properties":{"Name":"滋賀県立膳所高校体育館","Jusho":"滋賀県大津市膳所二丁目11-1","kouzui":"○","gake":"○","takashio":"×","jishin":"○","tsunami":"×","kaji":"×","naisui":"×","kazan":"×"}}
,{"type":"Feature","geometry":{"type":"Point","coordinates":[135.890035,34.997012]},"properties":{"Name":"滋賀県立膳所高校グラウンド","Jusho":"滋賀県大津市膳所二丁目11-1","kouzui":"○","gake":"○","takashio":"×","jishin":"○","tsunami":"×","kaji":"×","naisui":"×","kazan":"×"}}
,{"type":"Feature","geometry":{"type":"Point","coordinates":[135.88693710248,34.994988955249]},"properties":{"Name":"滋賀県立膳所高校第２グラウンド","Jusho":"滋賀県大津市相模町4","kouzui":"○","gake":"○","takashio":"×","jishin":"○","tsunami":"×","kaji":"×","naisui":"×","kazan":"×"}}
,{"type":"Feature","geometry":{"type":"Point","coordinates":[135.8953600874,34.995142357243]},"properties":{"Name":"膳所城跡公園","Jusho":"滋賀県大津市本丸町7","kouzui":"○","gake":"○","takashio":"×","jishin":"○","tsunami":"×","kaji":"×","naisui":"×","kazan":"×"}}
,{"type":"Feature","geometry":{"type":"Point","coordinates":[135.89370784666,34.994030532376]},"properties":{"Name":"生涯学習センター","Jusho":"滋賀県大津市本丸町6-50","kouzui":"○","gake":"○","takashio":"×","jishin":"○","tsunami":"×","kaji":"×","naisui":"×","kazan":"×"}}
,{"type":"Feature","geometry":{"type":"Point","coordinates":[135.88781829952,34.99813923263]},"properties":{"Name":"膳所児童館","Jusho":"滋賀県大津市昭和町15-15","kouzui":"○","gake":"○","takashio":"×","jishin":"×","tsunami":"×","kaji":"×","naisui":"○","kazan":"×"}}
,{"type":"Feature","geometry":{"type":"Point","coordinates":[135.88752862095,34.998209542582]},"properties":{"Name":"膳所ふれあいセンター","Jusho":"滋賀県大津市昭和町15-25","kouzui":"○","gake":"○","takashio":"×","jishin":"○","tsunami":"×","kaji":"×","naisui":"○","kazan":"×"}}
,{"type":"Feature","geometry":{"type":"Point","coordinates":[135.88839765667,34.998521542267]},"properties":{"Name":"膳所保育園グラウンド","Jusho":"滋賀県大津市昭和町17-32","kouzui":"○","gake":"○","takashio":"×","jishin":"○","tsunami":"×","kaji":"×","naisui":"×","kazan":"×"}}
,{"type":"Feature","geometry":{"type":"Point","coordinates":[135.88563327624,34.998493939607]},"properties":{"Name":"滋賀大学教育学部附属学校グラウンド","Jusho":"滋賀県大津市昭和町10-3","kouzui":"○","gake":"○","takashio":"×","jishin":"○","tsunami":"×","kaji":"×","naisui":"×","kazan":"×"}}
,{"type":"Feature","geometry":{"type":"Point","coordinates":[135.87957041957,34.994372374505]},"properties":{"Name":"湖城が丘街区公園","Jusho":"滋賀県大津市湖城が丘33","kouzui":"○","gake":"○","takashio":"×","jishin":"○","tsunami":"×","kaji":"×","naisui":"○","kazan":"×"}}
,{"type":"Feature","geometry":{"type":"Point","coordinates":[135.88603907477,34.9806098138]},"properties":{"Name":"富士見市民センター","Jusho":"滋賀県大津市園山二丁目15-33","kouzui":"○","gake":"○","takashio":"×","jishin":"○","tsunami":"×","kaji":"×","naisui":"○","kazan":"×"}}
,{"type":"Feature","geometry":{"type":"Point","coordinates":[135.88254050885,34.97921971191]},"properties":{"Name":"富士見小学校体育館","Jusho":"滋賀県大津市富士見台42-16","kouzui":"○","gake":"×","takashio":"×","jishin":"○","tsunami":"×","kaji":"×","naisui":"○","kazan":"×"}}
,{"type":"Feature","geometry":{"type":"Point","coordinates":[135.88281945859,34.98004164565]},"properties":{"Name":"富士見小学校グラウンド","Jusho":"滋賀県大津市富士見台42-16","kouzui":"○","gake":"○","takashio":"×","jishin":"○","tsunami":"×","kaji":"×","naisui":"○","kazan":"×"}}
,{"type":"Feature","geometry":{"type":"Point","coordinates":[135.88395671522,34.979580133069]},"properties":{"Name":"富士見幼稚園","Jusho":"滋賀県大津市富士見台45-5","kouzui":"○","gake":"○","takashio":"×","jishin":"○","tsunami":"×","kaji":"×","naisui":"○","kazan":"×"}}
,{"type":"Feature","geometry":{"type":"Point","coordinates":[135.88382796919,34.979377945785]},"properties":{"Name":"富士見幼稚園グラウンド","Jusho":"滋賀県大津市富士見台45-5","kouzui":"○","gake":"○","takashio":"×","jishin":"○","tsunami":"×","kaji":"×","naisui":"○","kazan":"×"}}
,{"type":"Feature","geometry":{"type":"Point","coordinates":[135.887709,34.985965]},"properties":{"Name":"富士見台一区防災広場","Jusho":"滋賀県大津市富士見台3-30","kouzui":"○","gake":"○","takashio":"×","jishin":"○","tsunami":"×","kaji":"×","naisui":"○","kazan":"×"}}
,{"type":"Feature","geometry":{"type":"Point","coordinates":[135.88282842422,34.98934271511]},"properties":{"Name":"茶臼山公園","Jusho":"滋賀県大津市秋葉台34","kouzui":"○","gake":"○","takashio":"×","jishin":"○","tsunami":"×","kaji":"○","naisui":"○","kazan":"×"}}
,{"type":"Feature","geometry":{"type":"Point","coordinates":[135.879277,34.975044]},"properties":{"Name":"若葉台公園","Jusho":"滋賀県大津市大津市若葉台28番地","kouzui":"○","gake":"○","takashio":"×","jishin":"○","tsunami":"×","kaji":"○","naisui":"○","kazan":"×"}}
,{"type":"Feature","geometry":{"type":"Point","coordinates":[135.88718750114,34.978343327625]},"properties":{"Name":"園山公園","Jusho":"滋賀県大津市園山二丁目11","kouzui":"○","gake":"○","takashio":"×","jishin":"○","tsunami":"×","kaji":"○","naisui":"○","kazan":"×"}}
,{"type":"Feature","geometry":{"type":"Point","coordinates":[135.8992135677,34.975754732443]},"properties":{"Name":"晴嵐市民センター","Jusho":"滋賀県大津市北大路一丁目9-5","kouzui":"○","gake":"○","takashio":"×","jishin":"○","tsunami":"×","kaji":"×","naisui":"○","kazan":"×"}}
,{"type":"Feature","geometry":{"type":"Point","coordinates":[135.89831298044,34.972083990631]},"properties":{"Name":"晴嵐小学校体育館","Jusho":"滋賀県大津市光が丘町4-70","kouzui":"○","gake":"○","takashio":"×","jishin":"○","tsunami":"×","kaji":"×","naisui":"○","kazan":"×"}}
,{"type":"Feature","geometry":{"type":"Point","coordinates":[135.89747613122,34.972083990631]},"properties":{"Name":"晴嵐小学校グラウンド","Jusho":"滋賀県大津市光が丘町4-70","kouzui":"○","gake":"○","takashio":"×","jishin":"○","tsunami":"×","kaji":"×","naisui":"○","kazan":"×"}}
,{"type":"Feature","geometry":{"type":"Point","coordinates":[135.89971206604,34.984815492388]},"properties":{"Name":"粟津中学校体育館","Jusho":"滋賀県大津市晴嵐一丁目20-20","kouzui":"○","gake":"○","takashio":"×","jishin":"○","tsunami":"×","kaji":"×","naisui":"○","kazan":"×"}}
,{"type":"Feature","geometry":{"type":"Point","coordinates":[135.90090833126,34.984626503331]},"properties":{"Name":"粟津中学校グラウンド","Jusho":"滋賀県大津市晴嵐一丁目20-20","kouzui":"×","gake":"○","takashio":"×","jishin":"○","tsunami":"×","kaji":"×","naisui":"×","kazan":"×"}}
,{"type":"Feature","geometry":{"type":"Point","coordinates":[135.8865649374,34.969377901867]},"properties":{"Name":"北大路中学校体育館","Jusho":"滋賀県大津市北大路三丁目22-1","kouzui":"○","gake":"○","takashio":"×","jishin":"○","tsunami":"×","kaji":"×","naisui":"○","kazan":"×"}}
,{"type":"Feature","geometry":{"type":"Point","coordinates":[135.88723012523,34.970476873955]},"properties":{"Name":"北大路中学校グラウンド","Jusho":"滋賀県大津市北大路三丁目22-1","kouzui":"○","gake":"×","takashio":"×","jishin":"○","tsunami":"×","kaji":"×","naisui":"×","kazan":"×"}}
,{"type":"Feature","geometry":{"type":"Point","coordinates":[135.90263025074,34.972850532894]},"properties":{"Name":"晴嵐幼稚園","Jusho":"滋賀県大津市鳥居川町15-22","kouzui":"○","gake":"○","takashio":"×","jishin":"○","tsunami":"×","kaji":"×","naisui":"○","kazan":"×"}}
,{"type":"Feature","geometry":{"type":"Point","coordinates":[135.90268389492,34.972520852369]},"properties":{"Name":"晴嵐幼稚園グラウンド","Jusho":"滋賀県大津市鳥居川町15-22","kouzui":"○","gake":"○","takashio":"×","jishin":"○","tsunami":"×","kaji":"×","naisui":"×","kazan":"×"}}
,{"type":"Feature","geometry":{"type":"Point","coordinates":[135.89749113827,34.971294429167]},"properties":{"Name":"晴嵐保育園グラウンド","Jusho":"滋賀県大津市光が丘町5-10","kouzui":"○","gake":"○","takashio":"×","jishin":"○","tsunami":"×","kaji":"×","naisui":"○","kazan":"×"}}
,{"type":"Feature","geometry":{"type":"Point","coordinates":[135.89624409932,34.968415535664]},"properties":{"Name":"滋賀県立石山高校体育館","Jusho":"滋賀県大津市国分一丁目15-1","kouzui":"○","gake":"○","takashio":"×","jishin":"○","tsunami":"×","kaji":"×","naisui":"○","kazan":"×"}}
,{"type":"Feature","geometry":{"type":"Point","coordinates":[135.897244,34.969355]},"properties":{"Name":"滋賀県立石山高校グラウンド","Jusho":"滋賀県大津市国分一丁目15-1","kouzui":"○","gake":"○","takashio":"×","jishin":"○","tsunami":"×","kaji":"×","naisui":"○","kazan":"×"}}
,{"type":"Feature","geometry":{"type":"Point","coordinates":[135.89923681919,34.97777493777]},"properties":{"Name":"東レスタジアム","Jusho":"滋賀県大津市粟津町13","kouzui":"○","gake":"○","takashio":"×","jishin":"○","tsunami":"×","kaji":"×","naisui":"○","kazan":"×"}}
,{"type":"Feature","geometry":{"type":"Point","coordinates":[135.90833963702,34.954079884997]},"properties":{"Name":"石山市民センター","Jusho":"滋賀県大津市石山寺三丁目15-15","kouzui":"○","gake":"○","takashio":"×","jishin":"○","tsunami":"×","kaji":"×","naisui":"○","kazan":"×"}}
,{"type":"Feature","geometry":{"type":"Point","coordinates":[135.90948762248,34.955631919025]},"properties":{"Name":"石山小学校体育館","Jusho":"滋賀県大津市石山寺三丁目11-20","kouzui":"○","gake":"○","takashio":"×","jishin":"○","tsunami":"×","kaji":"×","naisui":"○","kazan":"×"}}
,{"type":"Feature","geometry":{"type":"Point","coordinates":[135.90874196837,34.955209839026]},"properties":{"Name":"石山小学校グラウンド","Jusho":"滋賀県大津市石山寺三丁目11-20","kouzui":"○","gake":"○","takashio":"×","jishin":"○","tsunami":"×","kaji":"×","naisui":"×","kazan":"×"}}
,{"type":"Feature","geometry":{"type":"Point","coordinates":[135.90962173293,34.947444937954]},"properties":{"Name":"石山中学校体育館","Jusho":"滋賀県大津市平津一丁目23-1","kouzui":"○","gake":"○","takashio":"×","jishin":"○","tsunami":"×","kaji":"×","naisui":"○","kazan":"×"}}
,{"type":"Feature","geometry":{"type":"Point","coordinates":[135.90834500143,34.946807356778]},"properties":{"Name":"石山中学校グラウンド","Jusho":"滋賀県大津市平津一丁目23-1","kouzui":"○","gake":"○","takashio":"×","jishin":"○","tsunami":"×","kaji":"×","naisui":"×","kazan":"×"}}
,{"type":"Feature","geometry":{"type":"Point","coordinates":[135.90746238206,34.954210102682]},"properties":{"Name":"石山幼稚園","Jusho":"滋賀県大津市石山寺三丁目17-8","kouzui":"○","gake":"○","takashio":"×","jishin":"×","tsunami":"×","kaji":"×","naisui":"○","kazan":"×"}}
,{"type":"Feature","geometry":{"type":"Point","coordinates":[135.90762867902,34.954016646264]},"properties":{"Name":"石山幼稚園グラウンド","Jusho":"滋賀県大津市石山寺三丁目17-8","kouzui":"○","gake":"○","takashio":"×","jishin":"○","tsunami":"×","kaji":"×","naisui":"×","kazan":"×"}}
,{"type":"Feature","geometry":{"type":"Point","coordinates":[135.89438780492,34.949920790583]},"properties":{"Name":"大平保育園グラウンド","Jusho":"滋賀県大津市大平二丁目33-22","kouzui":"○","gake":"○","takashio":"×","jishin":"○","tsunami":"×","kaji":"×","naisui":"○","kazan":"×"}}
,{"type":"Feature","geometry":{"type":"Point","coordinates":[135.90866720324,34.956105550934]},"properties":{"Name":"石山市民体育館","Jusho":"滋賀県大津市石山寺三丁目10-35","kouzui":"○","gake":"○","takashio":"×","jishin":"○","tsunami":"×","kaji":"×","naisui":"○","kazan":"×"}}
,{"type":"Feature","geometry":{"type":"Point","coordinates":[135.891781,34.95258]},"properties":{"Name":"滋賀県立大津清陵高校体育館","Jusho":"滋賀県大津市大平一丁目14-1","kouzui":"○","gake":"○","takashio":"×","jishin":"○","tsunami":"×","kaji":"×","naisui":"○","kazan":"×"}}
,{"type":"Feature","geometry":{"type":"Point","coordinates":[135.892859,34.953285]},"properties":{"Name":"滋賀県立大津清陵高校グラウンド","Jusho":"滋賀県大津市大平一丁目14-1","kouzui":"○","gake":"○","takashio":"×","jishin":"○","tsunami":"×","kaji":"×","naisui":"○","kazan":"×"}}
,{"type":"Feature","geometry":{"type":"Point","coordinates":[135.90895209868,34.960034077555]},"properties":{"Name":"石山公園（石山寺駐車場含む）","Jusho":"滋賀県大津市石山寺三丁目2","kouzui":"○","gake":"○","takashio":"×","jishin":"○","tsunami":"×","kaji":"×","naisui":"×","kazan":"×"}}
,{"type":"Feature","geometry":{"type":"Point","coordinates":[135.90527809031,34.951019983821]},"properties":{"Name":"滋賀大学教育学部","Jusho":"滋賀県大津市平津二丁目5-1他","kouzui":"○","gake":"○","takashio":"×","jishin":"○","tsunami":"×","kaji":"○","naisui":"○","kazan":"×"}}
,{"type":"Feature","geometry":{"type":"Point","coordinates":[135.90824052478,34.942341820984]},"properties":{"Name":"南郷市民センター","Jusho":"滋賀県大津市南郷一丁目12-13","kouzui":"○","gake":"○","takashio":"×","jishin":"○","tsunami":"×","kaji":"×","naisui":"○","kazan":"×"}}
,{"type":"Feature","geometry":{"type":"Point","coordinates":[135.90723490281,34.940886407632]},"properties":{"Name":"南郷小学校体育館","Jusho":"滋賀県大津市南郷一丁目15-9","kouzui":"○","gake":"○","takashio":"×","jishin":"○","tsunami":"×","kaji":"×","naisui":"○","kazan":"×"}}
,{"type":"Feature","geometry":{"type":"Point","coordinates":[135.90668236776,34.939778243707]},"properties":{"Name":"南郷小学校グラウンド","Jusho":"滋賀県大津市南郷一丁目15-9","kouzui":"○","gake":"○","takashio":"×","jishin":"○","tsunami":"×","kaji":"×","naisui":"×","kazan":"×"}}
,{"type":"Feature","geometry":{"type":"Point","coordinates":[135.89368243663,34.940278738405]},"properties":{"Name":"南郷中学校体育館","Jusho":"滋賀県大津市赤尾町57-1","kouzui":"○","gake":"○","takashio":"×","jishin":"○","tsunami":"×","kaji":"×","naisui":"×","kazan":"×"}}
,{"type":"Feature","geometry":{"type":"Point","coordinates":[135.89483042209,34.940067659153]},"properties":{"Name":"南郷中学校グラウンド","Jusho":"滋賀県大津市赤尾町57-1","kouzui":"○","gake":"○","takashio":"×","jishin":"○","tsunami":"×","kaji":"×","naisui":"×","kazan":"×"}}
,{"type":"Feature","geometry":{"type":"Point","coordinates":[135.90215865334,34.93861220886]},"properties":{"Name":"南郷幼稚園","Jusho":"滋賀県大津市南郷三丁目15-1","kouzui":"○","gake":"○","takashio":"×","jishin":"○","tsunami":"×","kaji":"×","naisui":"○","kazan":"×"}}
,{"type":"Feature","geometry":{"type":"Point","coordinates":[135.90249124726,34.93842751079]},"properties":{"Name":"南郷幼稚園グラウンド","Jusho":"滋賀県大津市南郷三丁目15-1","kouzui":"○","gake":"×","takashio":"×","jishin":"○","tsunami":"×","kaji":"×","naisui":"×","kazan":"×"}}
,{"type":"Feature","geometry":{"type":"Point","coordinates":[135.90874713828,34.940037977925]},"properties":{"Name":"南郷公園","Jusho":"滋賀県大津市南郷一丁目17","kouzui":"×","gake":"○","takashio":"×","jishin":"○","tsunami":"×","kaji":"×","naisui":"×","kazan":"×"}}
,{"type":"Feature","geometry":{"type":"Point","coordinates":[135.913746,34.911317]},"properties":{"Name":"大石市民センター","Jusho":"滋賀県大津市大石中一丁目7-4","kouzui":"○","gake":"○","takashio":"×","jishin":"○","tsunami":"×","kaji":"×","naisui":"○","kazan":"×"}}
,{"type":"Feature","geometry":{"type":"Point","coordinates":[135.91547717602,34.911076294873]},"properties":{"Name":"大石小学校体育館","Jusho":"滋賀県大津市大石東七丁目4-1","kouzui":"○","gake":"○","takashio":"×","jishin":"○","tsunami":"×","kaji":"×","naisui":"○","kazan":"×"}}
,{"type":"Feature","geometry":{"type":"Point","coordinates":[135.91482271701,34.910829948035]},"properties":{"Name":"大石小学校グラウンド","Jusho":"滋賀県大津市大石東七丁目4-1","kouzui":"○","gake":"○","takashio":"×","jishin":"○","tsunami":"×","kaji":"×","naisui":"×","kazan":"×"}}
,{"type":"Feature","geometry":{"type":"Point","coordinates":[135.91205467731,34.910403238369]},"properties":{"Name":"大石幼稚園","Jusho":"滋賀県大津市大石中一丁目5-9","kouzui":"○","gake":"○","takashio":"×","jishin":"○","tsunami":"×","kaji":"×","naisui":"○","kazan":"×"}}
,{"type":"Feature","geometry":{"type":"Point","coordinates":[135.91211905033,34.910156889511]},"properties":{"Name":"大石幼稚園グラウンド","Jusho":"滋賀県大津市大石中一丁目5-9","kouzui":"○","gake":"○","takashio":"×","jishin":"○","tsunami":"×","kaji":"×","naisui":"○","kazan":"×"}}
,{"type":"Feature","geometry":{"type":"Point","coordinates":[135.90729078956,34.909623815846]},"properties":{"Name":"大石緑地グラウンド","Jusho":"滋賀県大津市大石淀一丁目","kouzui":"○","gake":"○","takashio":"×","jishin":"○","tsunami":"×","kaji":"×","naisui":"×","kazan":"×"}}
,{"type":"Feature","geometry":{"type":"Point","coordinates":[135.92882010727,34.938238189022]},"properties":{"Name":"田上市民センター","Jusho":"滋賀県大津市里三丁目9-1","kouzui":"×","gake":"○","takashio":"×","jishin":"○","tsunami":"×","kaji":"×","naisui":"○","kazan":"×"}}
,{"type":"Feature","geometry":{"type":"Point","coordinates":[135.9310707754,34.936980036143]},"properties":{"Name":"田上小学校体育館","Jusho":"滋賀県大津市里五丁目8-1","kouzui":"○","gake":"○","takashio":"×","jishin":"○","tsunami":"×","kaji":"×","naisui":"○","kazan":"×"}}
,{"type":"Feature","geometry":{"type":"Point","coordinates":[135.93191835345,34.93725269034]},"properties":{"Name":"田上小学校グラウンド","Jusho":"滋賀県大津市里五丁目8-1","kouzui":"○","gake":"○","takashio":"×","jishin":"○","tsunami":"×","kaji":"×","naisui":"×","kazan":"×"}}
,{"type":"Feature","geometry":{"type":"Point","coordinates":[135.92968675555,34.934163289339]},"properties":{"Name":"田上幼稚園","Jusho":"滋賀県大津市関津六丁目19-8","kouzui":"○","gake":"○","takashio":"×","jishin":"○","tsunami":"×","kaji":"×","naisui":"○","kazan":"×"}}
,{"type":"Feature","geometry":{"type":"Point","coordinates":[135.92978331507,34.933895022695]},"properties":{"Name":"田上幼稚園グラウンド","Jusho":"滋賀県大津市関津六丁目19-8","kouzui":"○","gake":"○","takashio":"×","jishin":"○","tsunami":"×","kaji":"×","naisui":"○","kazan":"×"}}
,{"type":"Feature","geometry":{"type":"Point","coordinates":[135.91355651993,34.946372979624]},"properties":{"Name":"田上児童館","Jusho":"滋賀県大津市稲津一丁目14-30","kouzui":"○","gake":"○","takashio":"×","jishin":"○","tsunami":"×","kaji":"×","naisui":"×","kazan":"×"}}
,{"type":"Feature","geometry":{"type":"Point","coordinates":[135.91483675279,34.946939150122]},"properties":{"Name":"南ふれあいセンター","Jusho":"滋賀県大津市稲津一丁目10-20","kouzui":"○","gake":"○","takashio":"×","jishin":"×","tsunami":"×","kaji":"×","naisui":"○","kazan":"×"}}
,{"type":"Feature","geometry":{"type":"Point","coordinates":[135.91456316748,34.946899576019]},"properties":{"Name":"田上市民体育館","Jusho":"滋賀県大津市稲津一丁目10-18","kouzui":"○","gake":"○","takashio":"×","jishin":"×","tsunami":"×","kaji":"×","naisui":"○","kazan":"×"}}
,{"type":"Feature","geometry":{"type":"Point","coordinates":[135.92044823978,34.944626014229]},"properties":{"Name":"湖南台地東児童公園","Jusho":"滋賀県大津市稲津三丁目6","kouzui":"○","gake":"×","takashio":"×","jishin":"○","tsunami":"×","kaji":"×","naisui":"×","kazan":"×"}}
,{"type":"Feature","geometry":{"type":"Point","coordinates":[135.91390255024,34.946049284294]},"properties":{"Name":"稲津南児童公園","Jusho":"滋賀県大津市稲津一丁目14","kouzui":"○","gake":"○","takashio":"×","jishin":"○","tsunami":"×","kaji":"×","naisui":"×","kazan":"×"}}
,{"type":"Feature","geometry":{"type":"Point","coordinates":[135.91803961609,34.944102740328]},"properties":{"Name":"湖南台地西児童公園","Jusho":"滋賀県大津市稲津三丁目18","kouzui":"○","gake":"○","takashio":"×","jishin":"○","tsunami":"×","kaji":"×","naisui":"○","kazan":"×"}}
,{"type":"Feature","geometry":{"type":"Point","coordinates":[135.93435435986,34.938610432318]},"properties":{"Name":"田上公園多目的グラウンド","Jusho":"滋賀県大津市枝三丁目1","kouzui":"○","gake":"○","takashio":"×","jishin":"○","tsunami":"×","kaji":"×","naisui":"×","kazan":"×"}}
,{"type":"Feature","geometry":{"type":"Point","coordinates":[135.91234607775,34.940366644619]},"properties":{"Name":"南郷水産センター駐車場","Jusho":"滋賀県大津市黒津四丁目3","kouzui":"×","gake":"○","takashio":"×","jishin":"○","tsunami":"×","kaji":"×","naisui":"×","kazan":"×"}}
,{"type":"Feature","geometry":{"type":"Point","coordinates":[135.96192244042,34.959519866103]},"properties":{"Name":"上田上市民センター","Jusho":"滋賀県大津市牧一丁目1-24","kouzui":"○","gake":"○","takashio":"×","jishin":"○","tsunami":"×","kaji":"×","naisui":"○","kazan":"×"}}
,{"type":"Feature","geometry":{"type":"Point","coordinates":[135.95960501183,34.959559434114]},"properties":{"Name":"上田上小学校体育館","Jusho":"滋賀県大津市平野一丁目18-5","kouzui":"×","gake":"○","takashio":"×","jishin":"○","tsunami":"×","kaji":"×","naisui":"○","kazan":"×"}}
,{"type":"Feature","geometry":{"type":"Point","coordinates":[135.96029702176,34.959656155839]},"properties":{"Name":"上田上小学校グラウンド","Jusho":"滋賀県大津市平野一丁目18-5","kouzui":"×","gake":"○","takashio":"×","jishin":"○","tsunami":"×","kaji":"×","naisui":"×","kazan":"×"}}
,{"type":"Feature","geometry":{"type":"Point","coordinates":[135.9498692425,34.949862772899]},"properties":{"Name":"田上中学校体育館","Jusho":"滋賀県大津市新免一丁目1-12","kouzui":"×","gake":"○","takashio":"×","jishin":"○","tsunami":"×","kaji":"×","naisui":"×","kazan":"×"}}
,{"type":"Feature","geometry":{"type":"Point","coordinates":[135.94889291841,34.949370311363]},"properties":{"Name":"田上中学校グラウンド","Jusho":"滋賀県大津市新免一丁目1-12","kouzui":"×","gake":"○","takashio":"×","jishin":"○","tsunami":"×","kaji":"×","naisui":"×","kazan":"×"}}
,{"type":"Feature","geometry":{"type":"Point","coordinates":[135.96077082101,34.959632128059]},"properties":{"Name":"上田上幼稚園","Jusho":"滋賀県大津市平野一丁目18-20","kouzui":"×","gake":"○","takashio":"×","jishin":"○","tsunami":"×","kaji":"×","naisui":"○","kazan":"×"}}
,{"type":"Feature","geometry":{"type":"Point","coordinates":[135.9609156603,34.959390323461]},"properties":{"Name":"上田上幼稚園グラウンド","Jusho":"滋賀県大津市平野一丁目18-20","kouzui":"×","gake":"○","takashio":"×","jishin":"○","tsunami":"×","kaji":"×","naisui":"×","kazan":"×"}}
,{"type":"Feature","geometry":{"type":"Point","coordinates":[135.9693928587,34.977396876796]},"properties":{"Name":"青山市民センター","Jusho":"滋賀県大津市青山五丁目13-36","kouzui":"○","gake":"○","takashio":"×","jishin":"○","tsunami":"×","kaji":"×","naisui":"○","kazan":"×"}}
,{"type":"Feature","geometry":{"type":"Point","coordinates":[135.97444318626,34.981079168555]},"properties":{"Name":"青山小学校体育館","Jusho":"滋賀県大津市青山三丁目16-1","kouzui":"○","gake":"○","takashio":"×","jishin":"○","tsunami":"×","kaji":"×","naisui":"○","kazan":"×"}}
,{"type":"Feature","geometry":{"type":"Point","coordinates":[135.97471677157,34.980160547825]},"properties":{"Name":"青山小学校グラウンド","Jusho":"滋賀県大津市青山三丁目16-1","kouzui":"○","gake":"○","takashio":"×","jishin":"○","tsunami":"×","kaji":"×","naisui":"×","kazan":"×"}}
,{"type":"Feature","geometry":{"type":"Point","coordinates":[135.97222094664,34.973952882205]},"properties":{"Name":"青山中学校体育館","Jusho":"滋賀県大津市青山八丁目24-1","kouzui":"○","gake":"○","takashio":"×","jishin":"○","tsunami":"×","kaji":"×","naisui":"○","kazan":"×"}}
,{"type":"Feature","geometry":{"type":"Point","coordinates":[135.97238187918,34.972739667658]},"properties":{"Name":"青山中学校グラウンド","Jusho":"滋賀県大津市青山八丁目24-1","kouzui":"○","gake":"○","takashio":"×","jishin":"○","tsunami":"×","kaji":"×","naisui":"○","kazan":"×"}}
,{"type":"Feature","geometry":{"type":"Point","coordinates":[135.97421054166,34.979579652075]},"properties":{"Name":"青山幼稚園","Jusho":"滋賀県大津市青山三丁目16-2","kouzui":"○","gake":"○","takashio":"×","jishin":"○","tsunami":"×","kaji":"×","naisui":"○","kazan":"×"}}
,{"type":"Feature","geometry":{"type":"Point","coordinates":[135.97430173677,34.979320324815]},"properties":{"Name":"青山幼稚園グラウンド","Jusho":"滋賀県大津市青山三丁目16-2","kouzui":"○","gake":"○","takashio":"×","jishin":"○","tsunami":"×","kaji":"×","naisui":"○","kazan":"×"}}
,{"type":"Feature","geometry":{"type":"Point","coordinates":[135.91984085188,34.981418216981]},"properties":{"Name":"瀬田市民センター","Jusho":"滋賀県大津市大江三丁目2-1","kouzui":"○","gake":"○","takashio":"×","jishin":"○","tsunami":"×","kaji":"×","naisui":"○","kazan":"×"}}
,{"type":"Feature","geometry":{"type":"Point","coordinates":[135.92099956617,34.981919276416]},"properties":{"Name":"瀬田小学校体育館","Jusho":"滋賀県大津市大江四丁目2-1","kouzui":"○","gake":"○","takashio":"×","jishin":"○","tsunami":"×","kaji":"×","naisui":"○","kazan":"×"}}
,{"type":"Feature","geometry":{"type":"Point","coordinates":[135.92158428774,34.98139624062]},"properties":{"Name":"瀬田小学校グラウンド","Jusho":"滋賀県大津市大江四丁目2-1","kouzui":"○","gake":"○","takashio":"×","jishin":"○","tsunami":"×","kaji":"×","naisui":"×","kazan":"×"}}
,{"type":"Feature","geometry":{"type":"Point","coordinates":[135.92899529042,34.977500967556]},"properties":{"Name":"瀬田中学校体育館","Jusho":"滋賀県大津市大江七丁目1-1","kouzui":"○","gake":"○","takashio":"×","jishin":"○","tsunami":"×","kaji":"×","naisui":"○","kazan":"×"}}
,{"type":"Feature","geometry":{"type":"Point","coordinates":[135.92796532216,34.97717570125]},"properties":{"Name":"瀬田中学校グラウンド","Jusho":"滋賀県大津市大江七丁目1-1","kouzui":"○","gake":"○","takashio":"×","jishin":"○","tsunami":"×","kaji":"×","naisui":"×","kazan":"×"}}
,{"type":"Feature","geometry":{"type":"Point","coordinates":[135.92108482838,34.982578321637]},"properties":{"Name":"瀬田幼稚園","Jusho":"滋賀県大津市大江四丁目3-6","kouzui":"○","gake":"○","takashio":"×","jishin":"○","tsunami":"×","kaji":"×","naisui":"○","kazan":"×"}}
,{"type":"Feature","geometry":{"type":"Point","coordinates":[135.92124576093,34.982406908291]},"properties":{"Name":"瀬田幼稚園グラウンド","Jusho":"滋賀県大津市大江四丁目3-6","kouzui":"○","gake":"○","takashio":"×","jishin":"○","tsunami":"×","kaji":"×","naisui":"○","kazan":"×"}}
,{"type":"Feature","geometry":{"type":"Point","coordinates":[135.92434948844,34.991372733535]},"properties":{"Name":"瀬田北市民センター","Jusho":"滋賀県大津市大将軍一丁目14-30","kouzui":"○","gake":"○","takashio":"×","jishin":"○","tsunami":"×","kaji":"×","naisui":"○","kazan":"×"}}
,{"type":"Feature","geometry":{"type":"Point","coordinates":[135.92593735618,34.992036336169]},"properties":{"Name":"瀬田北小学校体育館","Jusho":"滋賀県大津市大将軍一丁目14-5","kouzui":"○","gake":"○","takashio":"×","jishin":"○","tsunami":"×","kaji":"×","naisui":"○","kazan":"×"}}
,{"type":"Feature","geometry":{"type":"Point","coordinates":[135.92504149837,34.991675969843]},"properties":{"Name":"瀬田北小学校グラウンド","Jusho":"滋賀県大津市大将軍一丁目14-5","kouzui":"○","gake":"○","takashio":"×","jishin":"○","tsunami":"×","kaji":"×","naisui":"×","kazan":"×"}}
,{"type":"Feature","geometry":{"type":"Point","coordinates":[135.92296546859,34.992480199829]},"properties":{"Name":"瀬田北中学校体育館","Jusho":"滋賀県大津市大将軍一丁目13-1","kouzui":"○","gake":"○","takashio":"×","jishin":"○","tsunami":"×","kaji":"×","naisui":"○","kazan":"×"}}
,{"type":"Feature","geometry":{"type":"Point","coordinates":[135.92303520603,34.99153973338]},"properties":{"Name":"瀬田北中学校グラウンド","Jusho":"滋賀県大津市大将軍一丁目13-1","kouzui":"○","gake":"○","takashio":"×","jishin":"○","tsunami":"×","kaji":"×","naisui":"×","kazan":"×"}}
,{"type":"Feature","geometry":{"type":"Point","coordinates":[135.92412329797,34.991111168405]},"properties":{"Name":"瀬田北幼稚園","Jusho":"滋賀県大津市大将軍一丁目14-1","kouzui":"○","gake":"○","takashio":"×","jishin":"○","tsunami":"×","kaji":"×","naisui":"○","kazan":"×"}}
,{"type":"Feature","geometry":{"type":"Point","coordinates":[135.92385507706,34.990904614834]},"properties":{"Name":"瀬田北幼稚園グラウンド","Jusho":"滋賀県大津市大将軍一丁目14-1","kouzui":"○","gake":"○","takashio":"×","jishin":"○","tsunami":"×","kaji":"×","naisui":"○","kazan":"×"}}
,{"type":"Feature","geometry":{"type":"Point","coordinates":[135.9141754666,34.971245209477]},"properties":{"Name":"瀬田南市民センター","Jusho":"滋賀県大津市神領三丁目8-9","kouzui":"○","gake":"○","takashio":"×","jishin":"○","tsunami":"×","kaji":"×","naisui":"○","kazan":"×"}}
,{"type":"Feature","geometry":{"type":"Point","coordinates":[135.91498012929,34.974317828374]},"properties":{"Name":"瀬田南小学校体育館","Jusho":"滋賀県大津市三大寺1-1","kouzui":"○","gake":"○","takashio":"×","jishin":"○","tsunami":"×","kaji":"×","naisui":"○","kazan":"×"}}
,{"type":"Feature","geometry":{"type":"Point","coordinates":[135.91610665709,34.975583766579]},"properties":{"Name":"瀬田南小学校グラウンド","Jusho":"滋賀県大津市三大寺1-1","kouzui":"○","gake":"○","takashio":"×","jishin":"○","tsunami":"×","kaji":"×","naisui":"○","kazan":"×"}}
,{"type":"Feature","geometry":{"type":"Point","coordinates":[135.91560776621,34.974572775836]},"properties":{"Name":"みなみっこひろば（瀬田南幼稚園・瀬田南保育園）","Jusho":"滋賀県大津市三大寺1-3","kouzui":"○","gake":"○","takashio":"×","jishin":"○","tsunami":"×","kaji":"×","naisui":"○","kazan":"×"}}
,{"type":"Feature","geometry":{"type":"Point","coordinates":[135.91560776621,34.974572775836]},"properties":{"Name":"みなみっこひろば（瀬田南幼稚園・瀬田南保育園）グラウンド","Jusho":"滋賀県大津市三大寺1-3","kouzui":"○","gake":"○","takashio":"×","jishin":"○","tsunami":"×","kaji":"×","naisui":"○","kazan":"×"}}
,{"type":"Feature","geometry":{"type":"Point","coordinates":[135.91314549833,34.970462750201]},"properties":{"Name":"滋賀県立瀬田工業高校体育館","Jusho":"滋賀県大津市神領三丁目18-1","kouzui":"○","gake":"○","takashio":"×","jishin":"○","tsunami":"×","kaji":"×","naisui":"○","kazan":"×"}}
,{"type":"Feature","geometry":{"type":"Point","coordinates":[135.912107,34.970079]},"properties":{"Name":"滋賀県立瀬田工業高校グラウンド","Jusho":"滋賀県大津市神領三丁目18-1","kouzui":"○","gake":"○","takashio":"×","jishin":"○","tsunami":"×","kaji":"×","naisui":"○","kazan":"×"}}
,{"type":"Feature","geometry":{"type":"Point","coordinates":[135.91556008776,34.968106175099]},"properties":{"Name":"野郷原児童遊園地","Jusho":"滋賀県大津市野郷原一丁目2","kouzui":"○","gake":"○","takashio":"×","jishin":"○","tsunami":"×","kaji":"×","naisui":"○","kazan":"×"}}
,{"type":"Feature","geometry":{"type":"Point","coordinates":[135.90841438165,34.977225577164]},"properties":{"Name":"唐橋公園","Jusho":"滋賀県大津市瀬田一丁目","kouzui":"×","gake":"○","takashio":"×","jishin":"○","tsunami":"×","kaji":"×","naisui":"×","kazan":"×"}}
,{"type":"Feature","geometry":{"type":"Point","coordinates":[135.93446613595,34.984806680887]},"properties":{"Name":"瀬田東市民センター","Jusho":"滋賀県大津市一里山三丁目16-1","kouzui":"○","gake":"○","takashio":"×","jishin":"○","tsunami":"×","kaji":"×","naisui":"○","kazan":"×"}}
,{"type":"Feature","geometry":{"type":"Point","coordinates":[135.93062735433,34.982465686327]},"properties":{"Name":"瀬田東小学校体育館","Jusho":"滋賀県大津市一里山二丁目20-2","kouzui":"○","gake":"○","takashio":"×","jishin":"○","tsunami":"×","kaji":"×","naisui":"○","kazan":"×"}}
,{"type":"Feature","geometry":{"type":"Point","coordinates":[135.93059516783,34.983480974794]},"properties":{"Name":"瀬田東小学校グラウンド","Jusho":"滋賀県大津市一里山二丁目20-2","kouzui":"○","gake":"○","takashio":"×","jishin":"○","tsunami":"×","kaji":"×","naisui":"×","kazan":"×"}}
,{"type":"Feature","geometry":{"type":"Point","coordinates":[135.92977476224,34.984200052454]},"properties":{"Name":"瀬田東幼稚園","Jusho":"滋賀県大津市一里山二丁目20-1","kouzui":"○","gake":"○","takashio":"×","jishin":"○","tsunami":"×","kaji":"×","naisui":"○","kazan":"×"}}
,{"type":"Feature","geometry":{"type":"Point","coordinates":[135.92984449967,34.983883603036]},"properties":{"Name":"瀬田東幼稚園グラウンド","Jusho":"滋賀県大津市一里山二丁目20-1","kouzui":"○","gake":"○","takashio":"×","jishin":"○","tsunami":"×","kaji":"×","naisui":"○","kazan":"×"}}
,{"type":"Feature","geometry":{"type":"Point","coordinates":[135.94659010182,34.972005544647]},"properties":{"Name":"滋賀県立東大津高校体育館","Jusho":"滋賀県大津市瀬田南大萱町1732-2","kouzui":"○","gake":"○","takashio":"×","jishin":"○","tsunami":"×","kaji":"×","naisui":"○","kazan":"×"}}
,{"type":"Feature","geometry":{"type":"Point","coordinates":[135.945281,34.972241]},"properties":{"Name":"滋賀県立東大津高校グラウンド","Jusho":"滋賀県大津市瀬田南大萱町1732-2","kouzui":"○","gake":"○","takashio":"×","jishin":"○","tsunami":"×","kaji":"×","naisui":"○","kazan":"×"}}
,{"type":"Feature","geometry":{"type":"Point","coordinates":[135.93466461943,34.985079175998]},"properties":{"Name":"一里山公園緑のふれあいセンター","Jusho":"滋賀県大津市一里山三丁目16-1","kouzui":"○","gake":"○","takashio":"×","jishin":"○","tsunami":"×","kaji":"×","naisui":"○","kazan":"×"}}
,{"type":"Feature","geometry":{"type":"Point","coordinates":[135.93851213461,34.976618177033]},"properties":{"Name":"瀬田公園体育館","Jusho":"滋賀県大津市一里山六丁目9","kouzui":"○","gake":"○","takashio":"×","jishin":"○","tsunami":"×","kaji":"×","naisui":"○","kazan":"×"}}
,{"type":"Feature","geometry":{"type":"Point","coordinates":[135.93181478341,34.989517619749]},"properties":{"Name":"月輪自動車教習所","Jusho":"滋賀県大津市月輪一丁目6-1","kouzui":"○","gake":"○","takashio":"×","jishin":"○","tsunami":"×","kaji":"×","naisui":"○","kazan":"×"}}
,{"type":"Feature","geometry":{"type":"Point","coordinates":[135.93528798428,34.984657652567]},"properties":{"Name":"一里山公園","Jusho":"滋賀県大津市一里山三丁目１６","kouzui":"○","gake":"○","takashio":"×","jishin":"○","tsunami":"×","kaji":"×","naisui":"×","kazan":"×"}}
,{"type":"Feature","geometry":{"type":"Point","coordinates":[135.94648922426,34.979955062475]},"properties":{"Name":"月輪大池公園","Jusho":"滋賀県大津市月輪四丁目１","kouzui":"○","gake":"○","takashio":"×","jishin":"○","tsunami":"×","kaji":"×","naisui":"×","kazan":"×"}}
,{"type":"Feature","geometry":{"type":"Point","coordinates":[135.94252643055,34.971335521199]},"properties":{"Name":"びわこ文化公園","Jusho":"滋賀県大津市瀬田南大萱町1740-1","kouzui":"○","gake":"○","takashio":"×","jishin":"○","tsunami":"×","kaji":"○","naisui":"○","kazan":"×"}}
,{"type":"Feature","geometry":{"type":"Point","coordinates":[135.9353381104,34.976460878548]},"properties":{"Name":"瀬田公園","Jusho":"滋賀県大津市一里山六丁目9他","kouzui":"○","gake":"○","takashio":"×","jishin":"○","tsunami":"×","kaji":"○","naisui":"×","kazan":"×"}}
,{"type":"Feature","geometry":{"type":"Point","coordinates":[136.2576916,35.26942422]},"properties":{"Name":"彦根市立城東小学校","Jusho":" 滋賀県彦根市京町2-2-19","kouzui":"○","gake":"○","takashio":"×","jishin":"○","tsunami":"×","kaji":"×","naisui":"○","kazan":"×"}}
,{"type":"Feature","geometry":{"type":"Point","coordinates":[136.2614367,35.2714402]},"properties":{"Name":"彦根市東地区公民館","Jusho":" 滋賀県彦根市大東町1-26","kouzui":"○","gake":"○","takashio":"×","jishin":"○","tsunami":"×","kaji":"×","naisui":"○","kazan":"×"}}
,{"type":"Feature","geometry":{"type":"Point","coordinates":[136.256324,35.27024572]},"properties":{"Name":"彦根商工会議所","Jusho":" 滋賀県彦根市中央町3-8","kouzui":"○","gake":"○","takashio":"×","jishin":"×","tsunami":"×","kaji":"×","naisui":"○","kazan":"×"}}
,{"type":"Feature","geometry":{"type":"Point","coordinates":[136.261943,35.26967765]},"properties":{"Name":"彦根勤労福祉会館","Jusho":" 滋賀県彦根市大東町4-28","kouzui":"○","gake":"○","takashio":"×","jishin":"○","tsunami":"×","kaji":"×","naisui":"○","kazan":"×"}}
,{"type":"Feature","geometry":{"type":"Point","coordinates":[136.2486427,35.27187707]},"properties":{"Name":"彦根市立城西小学校","Jusho":" 滋賀県彦根市本町3-3-22","kouzui":"○","gake":"○","takashio":"×","jishin":"○","tsunami":"×","kaji":"×","naisui":"○","kazan":"×"}}
,{"type":"Feature","geometry":{"type":"Point","coordinates":[136.2484588,35.2776225]},"properties":{"Name":"彦根市立西中学校","Jusho":" 滋賀県彦根市金亀町8-1","kouzui":"○","gake":"○","takashio":"×","jishin":"○","tsunami":"×","kaji":"×","naisui":"○","kazan":"×"}}
,{"type":"Feature","geometry":{"type":"Point","coordinates":[136.2465106,35.27069677]},"properties":{"Name":"滋賀県立彦根翔西館高等学校　第二体育館・第二グラウンド","Jusho":" 滋賀県彦根市池州町9-73","kouzui":"×","gake":"○","takashio":"×","jishin":"○","tsunami":"×","kaji":"×","naisui":"×","kazan":"×"}}
,{"type":"Feature","geometry":{"type":"Point","coordinates":[136.2537636,35.27286793]},"properties":{"Name":"滋賀県立彦根東高等学校","Jusho":" 滋賀県彦根市金亀町4-7","kouzui":"○","gake":"○","takashio":"×","jishin":"○","tsunami":"×","kaji":"×","naisui":"○","kazan":"×"}}
,{"type":"Feature","geometry":{"type":"Point","coordinates":[136.2526837,35.2694718]},"properties":{"Name":"彦根市西地区公民館","Jusho":" 滋賀県彦根市本町1-9-1","kouzui":"○","gake":"○","takashio":"×","jishin":"○","tsunami":"×","kaji":"×","naisui":"○","kazan":"×"}}
,{"type":"Feature","geometry":{"type":"Point","coordinates":[136.2534369,35.2709385]},"properties":{"Name":"彦根市立彦根幼稚園","Jusho":" 滋賀県彦根市本町1-3-33","kouzui":"○","gake":"○","takashio":"×","jishin":"○","tsunami":"×","kaji":"×","naisui":"○","kazan":"×"}}
,{"type":"Feature","geometry":{"type":"Point","coordinates":[136.2346682,35.26919567]},"properties":{"Name":"彦根市立金城小学校","Jusho":" 滋賀県彦根市大薮町391","kouzui":"○","gake":"○","takashio":"×","jishin":"○","tsunami":"×","kaji":"×","naisui":"○","kazan":"×"}}
,{"type":"Feature","geometry":{"type":"Point","coordinates":[136.2364824,35.26086924]},"properties":{"Name":"彦根市立中央中学校","Jusho":" 滋賀県彦根市西今町1207","kouzui":"○","gake":"○","takashio":"×","jishin":"○","tsunami":"×","kaji":"×","naisui":"○","kazan":"×"}}
,{"type":"Feature","geometry":{"type":"Point","coordinates":[136.2311959,35.25929925]},"properties":{"Name":"彦根市中老人福祉センター","Jusho":" 滋賀県彦根市開出今町1361","kouzui":"○","gake":"○","takashio":"×","jishin":"○","tsunami":"×","kaji":"×","naisui":"○","kazan":"×"}}
,{"type":"Feature","geometry":{"type":"Point","coordinates":[136.257197,35.28423543]},"properties":{"Name":"彦根市立城北小学校","Jusho":" 滋賀県彦根市松原町3751-3","kouzui":"○","gake":"○","takashio":"×","jishin":"○","tsunami":"×","kaji":"×","naisui":"○","kazan":"×"}}
,{"type":"Feature","geometry":{"type":"Point","coordinates":[136.2586357,35.28318739]},"properties":{"Name":"近江高等学校","Jusho":" 滋賀県彦根市松原町3511-1","kouzui":"○","gake":"○","takashio":"×","jishin":"○","tsunami":"×","kaji":"×","naisui":"○","kazan":"×"}}
,{"type":"Feature","geometry":{"type":"Point","coordinates":[136.2511124,35.28466662]},"properties":{"Name":"千松会館","Jusho":" 滋賀県彦根市松原1-12-13","kouzui":"○","gake":"○","takashio":"×","jishin":"○","tsunami":"×","kaji":"×","naisui":"○","kazan":"×"}}
,{"type":"Feature","geometry":{"type":"Point","coordinates":[136.2559299,35.2811117]},"properties":{"Name":"滋賀県立彦根総合運動場（県立彦根球場）","Jusho":" 滋賀県彦根市松原町3028","kouzui":"○","gake":"○","takashio":"×","jishin":"○","tsunami":"×","kaji":"×","naisui":"○","kazan":"×"}}
,{"type":"Feature","geometry":{"type":"Point","coordinates":[136.2464637,35.27819993]},"properties":{"Name":"滋賀大学","Jusho":" 滋賀県彦根市馬場1-1-1","kouzui":"○","gake":"○","takashio":"×","jishin":"○","tsunami":"×","kaji":"×","naisui":"○","kazan":"×"}}
,{"type":"Feature","geometry":{"type":"Point","coordinates":[136.2495235,35.28734434]},"properties":{"Name":"かんぽの宿彦根","Jusho":" 滋賀県彦根市松原町3759","kouzui":"○","gake":"○","takashio":"×","jishin":"○","tsunami":"×","kaji":"×","naisui":"○","kazan":"×"}}
,{"type":"Feature","geometry":{"type":"Point","coordinates":[136.248348,35.28081707]},"properties":{"Name":"彦根市北老人福祉センター","Jusho":" 滋賀県彦根市馬場1-5-5","kouzui":"○","gake":"○","takashio":"×","jishin":"○","tsunami":"×","kaji":"×","naisui":"○","kazan":"×"}}
,{"type":"Feature","geometry":{"type":"Point","coordinates":[136.2595658,35.26417185]},"properties":{"Name":"彦根市立佐和山小学校","Jusho":" 滋賀県彦根市安清町11-32","kouzui":"○","gake":"○","takashio":"×","jishin":"○","tsunami":"×","kaji":"×","naisui":"○","kazan":"×"}}
,{"type":"Feature","geometry":{"type":"Point","coordinates":[136.2641624,35.26048819]},"properties":{"Name":"彦根市立東中学校","Jusho":" 滋賀県彦根市芹川町443","kouzui":"○","gake":"○","takashio":"×","jishin":"○","tsunami":"×","kaji":"×","naisui":"○","kazan":"×"}}
,{"type":"Feature","geometry":{"type":"Point","coordinates":[136.268932,35.26790029]},"properties":{"Name":"彦根市民交流センター","Jusho":" 滋賀県彦根市里根町163-1","kouzui":"○","gake":"○","takashio":"×","jishin":"○","tsunami":"×","kaji":"×","naisui":"○","kazan":"×"}}
,{"type":"Feature","geometry":{"type":"Point","coordinates":[136.2597958,35.25524261]},"properties":{"Name":"滋賀県立彦根翔西館高等学校","Jusho":" 滋賀県彦根市芹川町580","kouzui":"○","gake":"○","takashio":"×","jishin":"○","tsunami":"×","kaji":"×","naisui":"○","kazan":"×"}}
,{"type":"Feature","geometry":{"type":"Point","coordinates":[136.2619769,35.2647919]},"properties":{"Name":"彦根総合高等学校","Jusho":" 滋賀県彦根市芹川町328","kouzui":"○","gake":"○","takashio":"×","jishin":"○","tsunami":"×","kaji":"×","naisui":"○","kazan":"×"}}
,{"type":"Feature","geometry":{"type":"Point","coordinates":[136.2647941,35.24947958]},"properties":{"Name":"彦根市立旭森小学校","Jusho":" 滋賀県彦根市東沼波町300","kouzui":"○","gake":"○","takashio":"×","jishin":"○","tsunami":"×","kaji":"×","naisui":"○","kazan":"×"}}
,{"type":"Feature","geometry":{"type":"Point","coordinates":[136.2705738,35.24956957]},"properties":{"Name":"彦根市旭森地区公民館","Jusho":" 滋賀県彦根市正法寺町642-1","kouzui":"○","gake":"○","takashio":"×","jishin":"○","tsunami":"×","kaji":"×","naisui":"○","kazan":"×"}}
,{"type":"Feature","geometry":{"type":"Point","coordinates":[136.2436542,35.2596671]},"properties":{"Name":"彦根市立平田小学校","Jusho":" 滋賀県彦根市平田町267","kouzui":"○","gake":"○","takashio":"×","jishin":"○","tsunami":"×","kaji":"×","naisui":"○","kazan":"×"}}
,{"type":"Feature","geometry":{"type":"Point","coordinates":[136.2400564,35.2558542]},"properties":{"Name":"彦根市福祉センター","Jusho":" 滋賀県彦根市平田町670","kouzui":"○","gake":"○","takashio":"×","jishin":"○","tsunami":"×","kaji":"×","naisui":"○","kazan":"×"}}
,{"type":"Feature","geometry":{"type":"Point","coordinates":[136.2459579,35.25377637]},"properties":{"Name":"東びわこ農業協同組合彦根中央支店","Jusho":" 滋賀県彦根市平田町792-1","kouzui":"○","gake":"○","takashio":"×","jishin":"×","tsunami":"×","kaji":"×","naisui":"○","kazan":"×"}}
,{"type":"Feature","geometry":{"type":"Point","coordinates":[136.2429774,35.24828192]},"properties":{"Name":"彦根市立城南小学校","Jusho":" 滋賀県彦根市西今町380","kouzui":"○","gake":"○","takashio":"×","jishin":"○","tsunami":"×","kaji":"×","naisui":"○","kazan":"×"}}
,{"type":"Feature","geometry":{"type":"Point","coordinates":[136.2446691,35.24840753]},"properties":{"Name":"ひこね燦ぱれす","Jusho":" 滋賀県彦根市小泉町648-3","kouzui":"○","gake":"○","takashio":"×","jishin":"○","tsunami":"×","kaji":"×","naisui":"○","kazan":"×"}}
,{"type":"Feature","geometry":{"type":"Point","coordinates":[136.2330285,35.25591619]},"properties":{"Name":"ひこね市文化プラザ","Jusho":" 滋賀県彦根市野瀬町187-4","kouzui":"○","gake":"○","takashio":"×","jishin":"○","tsunami":"×","kaji":"×","naisui":"○","kazan":"×"}}
,{"type":"Feature","geometry":{"type":"Point","coordinates":[136.2258338,35.24701105]},"properties":{"Name":"彦根市立城陽小学校","Jusho":" 滋賀県彦根市甘呂町430","kouzui":"○","gake":"○","takashio":"×","jishin":"○","tsunami":"×","kaji":"×","naisui":"○","kazan":"×"}}
,{"type":"Feature","geometry":{"type":"Point","coordinates":[136.228487,35.24567277]},"properties":{"Name":"彦根市立南中学校","Jusho":" 滋賀県彦根市甘呂町156","kouzui":"○","gake":"○","takashio":"×","jishin":"○","tsunami":"×","kaji":"×","naisui":"○","kazan":"×"}}
,{"type":"Feature","geometry":{"type":"Point","coordinates":[136.1940966,35.24644586]},"properties":{"Name":"三津屋町民会館","Jusho":" 滋賀県彦根市三津屋町1451","kouzui":"○","gake":"○","takashio":"×","jishin":"○","tsunami":"×","kaji":"×","naisui":"○","kazan":"×"}}
,{"type":"Feature","geometry":{"type":"Point","coordinates":[136.2192121,35.25988776]},"properties":{"Name":"滋賀県立大学","Jusho":" 滋賀県彦根市八坂町2500","kouzui":"○","gake":"○","takashio":"×","jishin":"○","tsunami":"×","kaji":"×","naisui":"○","kazan":"×"}}
,{"type":"Feature","geometry":{"type":"Point","coordinates":[136.2245948,35.23350157]},"properties":{"Name":"彦根市立若葉小学校","Jusho":" 滋賀県彦根市蓮台寺町180","kouzui":"○","gake":"○","takashio":"×","jishin":"○","tsunami":"×","kaji":"×","naisui":"○","kazan":"×"}}
,{"type":"Feature","geometry":{"type":"Point","coordinates":[136.2858382,35.28170497]},"properties":{"Name":"彦根市立鳥居本小学校","Jusho":" 滋賀県彦根市鳥居本町1550-1","kouzui":"○","gake":"○","takashio":"×","jishin":"○","tsunami":"×","kaji":"×","naisui":"○","kazan":"×"}}
,{"type":"Feature","geometry":{"type":"Point","coordinates":[136.287258,35.28072681]},"properties":{"Name":"彦根市鳥居本地区公民館","Jusho":" 滋賀県彦根市鳥居本町1491-6","kouzui":"○","gake":"○","takashio":"×","jishin":"○","tsunami":"×","kaji":"×","naisui":"○","kazan":"×"}}
,{"type":"Feature","geometry":{"type":"Point","coordinates":[136.2854076,35.28407961]},"properties":{"Name":"彦根市立鳥居本中学校","Jusho":" 滋賀県彦根市鳥居本町788","kouzui":"○","gake":"○","takashio":"×","jishin":"○","tsunami":"×","kaji":"×","naisui":"○","kazan":"×"}}
,{"type":"Feature","geometry":{"type":"Point","coordinates":[136.2583253,35.23248213]},"properties":{"Name":"彦根市立高宮小学校","Jusho":" 滋賀県彦根市高宮町2447","kouzui":"○","gake":"○","takashio":"×","jishin":"○","tsunami":"×","kaji":"×","naisui":"○","kazan":"×"}}
,{"type":"Feature","geometry":{"type":"Point","coordinates":[136.2568177,35.23485039]},"properties":{"Name":"彦根市高宮地域文化センター","Jusho":" 滋賀県彦根市高宮町2311","kouzui":"○","gake":"○","takashio":"×","jishin":"○","tsunami":"×","kaji":"×","naisui":"○","kazan":"×"}}
,{"type":"Feature","geometry":{"type":"Point","coordinates":[136.2396985,35.22813891]},"properties":{"Name":"彦根市立河瀬小学校","Jusho":" 滋賀県彦根市極楽寺町118","kouzui":"○","gake":"○","takashio":"×","jishin":"○","tsunami":"×","kaji":"×","naisui":"○","kazan":"×"}}
,{"type":"Feature","geometry":{"type":"Point","coordinates":[136.2450807,35.22726328]},"properties":{"Name":"彦根市立彦根中学校","Jusho":" 滋賀県彦根市西葛籠町553","kouzui":"○","gake":"○","takashio":"×","jishin":"○","tsunami":"×","kaji":"×","naisui":"○","kazan":"×"}}
,{"type":"Feature","geometry":{"type":"Point","coordinates":[136.2398223,35.22879577]},"properties":{"Name":"彦根市河瀬地区公民館","Jusho":" 滋賀県彦根市森堂町131","kouzui":"○","gake":"○","takashio":"×","jishin":"○","tsunami":"×","kaji":"×","naisui":"○","kazan":"×"}}
,{"type":"Feature","geometry":{"type":"Point","coordinates":[136.2422789,35.23748793]},"properties":{"Name":"彦根市人権・福祉交流会館","Jusho":" 滋賀県彦根市犬方町848-1","kouzui":"○","gake":"○","takashio":"×","jishin":"○","tsunami":"×","kaji":"×","naisui":"○","kazan":"×"}}
,{"type":"Feature","geometry":{"type":"Point","coordinates":[136.2266801,35.22536352]},"properties":{"Name":"東びわこ農業協同組合本店","Jusho":" 滋賀県彦根市川瀬馬場町922-1","kouzui":"○","gake":"○","takashio":"×","jishin":"○","tsunami":"×","kaji":"×","naisui":"○","kazan":"×"}}
,{"type":"Feature","geometry":{"type":"Point","coordinates":[136.2243863,35.21900022]},