var kyoto={"type":"FeatureCollection","name":"kyoto","features":[
{"type":"Feature","geometry":{"type":"Point","coordinates":[135.7569455,35.04305168]},"properties":{"Name":"京都市立紫明小学校","Jusho":"京都府京都市北区小山東大野町55","kouzui":"○","gake":"×","takashio":"×","jishin":"○","tsunami":"×","kaji":"×","naisui":"○","kazan":"×"}}
,{"type":"Feature","geometry":{"type":"Point","coordinates":[135.7541563,35.05033593]},"properties":{"Name":"京都市立元町小学校","Jusho":"京都府京都市北区小山西元町14","kouzui":"○","gake":"×","takashio":"×","jishin":"○","tsunami":"×","kaji":"×","naisui":"○","kazan":"×"}}
,{"type":"Feature","geometry":{"type":"Point","coordinates":[135.7576444,35.05671792]},"properties":{"Name":"京都市立上賀茂小学校","Jusho":"京都府京都市北区上賀茂烏帽子ヶ垣内町1","kouzui":"○","gake":"○","takashio":"×","jishin":"○","tsunami":"×","kaji":"×","naisui":"○","kazan":"×"}}
,{"type":"Feature","geometry":{"type":"Point","coordinates":[135.7453445,35.06952295]},"properties":{"Name":"京都市立柊野小学校","Jusho":"京都府京都市北区上賀茂女夫岩町21","kouzui":"○","gake":"○","takashio":"×","jishin":"○","tsunami":"×","kaji":"×","naisui":"○","kazan":"×"}}
,{"type":"Feature","geometry":{"type":"Point","coordinates":[135.7462922,35.05904166]},"properties":{"Name":"京都市立大宮小学校","Jusho":"京都府京都市北区大宮中ノ社町37","kouzui":"○","gake":"○","takashio":"×","jishin":"○","tsunami":"×","kaji":"×","naisui":"○","kazan":"×"}}
,{"type":"Feature","geometry":{"type":"Point","coordinates":[135.7465148,35.04901642]},"properties":{"Name":"京都市立待鳳小学校","Jusho":"京都府京都市北区紫竹西北町1-3","kouzui":"×","gake":"×","takashio":"×","jishin":"○","tsunami":"×","kaji":"×","naisui":"×","kazan":"×"}}
,{"type":"Feature","geometry":{"type":"Point","coordinates":[135.7457044,35.03990958]},"properties":{"Name":"京都市立紫野小学校","Jusho":"京都府京都市北区紫野下築山町21","kouzui":"×","gake":"○","takashio":"×","jishin":"○","tsunami":"×","kaji":"×","naisui":"×","kazan":"×"}}
,{"type":"Feature","geometry":{"type":"Point","coordinates":[135.7522981,35.04517623]},"properties":{"Name":"京都市立鳳徳小学校","Jusho":"京都府京都市北区紫野上鳥田町30","kouzui":"○","gake":"×","takashio":"×","jishin":"○","tsunami":"×","kaji":"×","naisui":"○","kazan":"×"}}
,{"type":"Feature","geometry":{"type":"Point","coordinates":[135.73682040006,35.037421619979]},"properties":{"Name":"京都市立柏野小学校","Jusho":"京都府京都市北区紫野郷ノ上町36","kouzui":"○","gake":"×","takashio":"×","jishin":"○","tsunami":"×","kaji":"×","naisui":"○","kazan":"×"}}
,{"type":"Feature","geometry":{"type":"Point","coordinates":[135.7505997,35.05317639]},"properties":{"Name":"京都市立紫竹小学校","Jusho":"京都府京都市北区紫竹下園生町26","kouzui":"○","gake":"×","takashio":"×","jishin":"○","tsunami":"×","kaji":"×","naisui":"○","kazan":"×"}}
,{"type":"Feature","geometry":{"type":"Point","coordinates":[135.7320032,35.03018619]},"properties":{"Name":"京都市立衣笠小学校","Jusho":"京都府京都市北区平野宮本町19-6","kouzui":"○","gake":"○","takashio":"×","jishin":"○","tsunami":"×","kaji":"×","naisui":"○","kazan":"×"}}
,{"type":"Feature","geometry":{"type":"Point","coordinates":[135.7283181,35.03662166]},"properties":{"Name":"京都市立金閣小学校","Jusho":"京都府京都市北区平野上柳町61-1","kouzui":"○","gake":"○","takashio":"×","jishin":"○","tsunami":"×","kaji":"×","naisui":"○","kazan":"×"}}
,{"type":"Feature","geometry":{"type":"Point","coordinates":[135.7284799,35.02443061]},"properties":{"Name":"京都市立大将軍小学校","Jusho":"京都府京都市北区大将軍南一条町48-2","kouzui":"○","gake":"×","takashio":"×","jishin":"○","tsunami":"×","kaji":"×","naisui":"○","kazan":"×"}}
,{"type":"Feature","geometry":{"type":"Point","coordinates":[135.73075443722,35.054454971365]},"properties":{"Name":"京都市立鷹峯小学校","Jusho":"京都府京都市北区鷹峯北鷹峯町12","kouzui":"×","gake":"○","takashio":"×","jishin":"○","tsunami":"×","kaji":"×","naisui":"×","kazan":"×"}}
,{"type":"Feature","geometry":{"type":"Point","coordinates":[135.68807053206,35.089974885422]},"properties":{"Name":"京都市立中川小学校(休校中)","Jusho":"京都府京都市北区中川北山町46","kouzui":"○","gake":"○","takashio":"×","jishin":"○","tsunami":"×","kaji":"×","naisui":"○","kazan":"×"}}
,{"type":"Feature","geometry":{"type":"Point","coordinates":[135.70208724427,35.121384650871]},"properties":{"Name":"京都市立中川小学校真弓分校(休校中)","Jusho":"京都府京都市北区真弓八幡町195","kouzui":"×","gake":"×","takashio":"×","jishin":"○","tsunami":"×","kaji":"×","naisui":"×","kazan":"×"}}
,{"type":"Feature","geometry":{"type":"Point","coordinates":[135.683635,35.141752]},"properties":{"Name":"元京都市立小野郷小学校大森分校","Jusho":"京都府京都市北区大森中町157","kouzui":"×","gake":"×","takashio":"×","jishin":"○","tsunami":"×","kaji":"×","naisui":"×","kazan":"×"}}
,{"type":"Feature","geometry":{"type":"Point","coordinates":[135.71973291342,35.113022075092]},"properties":{"Name":"京都市立雲ヶ畑小・中学校(休校中)","Jusho":"京都府京都市北区雲ヶ畑中畑町76","kouzui":"○","gake":"○","takashio":"×","jishin":"○","tsunami":"×","kaji":"×","naisui":"○","kazan":"×"}}
,{"type":"Feature","geometry":{"type":"Point","coordinates":[135.67384030832,35.110947950093]},"properties":{"Name":"京都市立小野郷小・中学校(休校中)","Jusho":"京都府京都市北区小野中ノ町30","kouzui":"○","gake":"○","takashio":"×","jishin":"○","tsunami":"×","kaji":"×","naisui":"○","kazan":"×"}}
,{"type":"Feature","geometry":{"type":"Point","coordinates":[135.754519,35.04039687]},"properties":{"Name":"京都教育大学附属京都小中学校(初等部)","Jusho":"京都府京都市北区紫野東御所田町37","kouzui":"×","gake":"○","takashio":"×","jishin":"○","tsunami":"×","kaji":"×","naisui":"×","kazan":"×"}}
,{"type":"Feature","geometry":{"type":"Point","coordinates":[135.7552467,35.0397275]},"properties":{"Name":"京都教育大学附属京都小中学校(中・高等部)","Jusho":"京都府京都市北区小山南大野町1","kouzui":"○","gake":"×","takashio":"×","jishin":"○","tsunami":"×","kaji":"×","naisui":"○","kazan":"×"}}
,{"type":"Feature","geometry":{"type":"Point","coordinates":[135.7520072,35.05476036]},"properties":{"Name":"京都市立加茂川中学校","Jusho":"京都府京都市北区紫竹上長目町5","kouzui":"×","gake":"×","takashio":"×","jishin":"○","tsunami":"×","kaji":"×","naisui":"×","kazan":"×"}}
,{"type":"Feature","geometry":{"type":"Point","coordinates":[135.7398425,35.07067641]},"properties":{"Name":"京都市立西賀茂中学校","Jusho":"京都府京都市北区西賀茂円峰2-26","kouzui":"○","gake":"×","takashio":"×","jishin":"○","tsunami":"×","kaji":"×","naisui":"○","kazan":"×"}}
,{"type":"Feature","geometry":{"type":"Point","coordinates":[135.7403043,35.04681588]},"properties":{"Name":"京都市立旭丘中学校","Jusho":"京都府京都市北区紫野東蓮台野町1","kouzui":"×","gake":"×","takashio":"×","jishin":"○","tsunami":"×","kaji":"×","naisui":"×","kazan":"×"}}
,{"type":"Feature","geometry":{"type":"Point","coordinates":[135.7269209,35.03675104]},"properties":{"Name":"京都市立衣笠中学校","Jusho":"京都府京都市北区衣笠衣笠山町2","kouzui":"○","gake":"○","takashio":"×","jishin":"○","tsunami":"×","kaji":"×","naisui":"○","kazan":"×"}}
,{"type":"Feature","geometry":{"type":"Point","coordinates":[135.7413378,35.04320295]},"properties":{"Name":"京都市立紫野高等学校","Jusho":"京都府京都市北区紫野大徳寺町22","kouzui":"×","gake":"×","takashio":"×","jishin":"○","tsunami":"×","kaji":"×","naisui":"×","kazan":"×"}}
,{"type":"Feature","geometry":{"type":"Point","coordinates":[135.7256797,35.0231198]},"properties":{"Name":"京都府立山城高等学校","Jusho":"京都府京都市北区大将軍坂田町29","kouzui":"○","gake":"×","takashio":"×","jishin":"○","tsunami":"×","kaji":"×","naisui":"○","kazan":"×"}}
,{"type":"Feature","geometry":{"type":"Point","coordinates":[135.7276881,35.02293672]},"properties":{"Name":"京都府立医科大学花園学舎","Jusho":"京都府京都市北区大将軍西鷹司町13-2","kouzui":"○","gake":"×","takashio":"×","jishin":"○","tsunami":"×","kaji":"×","naisui":"○","kazan":"×"}}
,{"type":"Feature","geometry":{"type":"Point","coordinates":[135.75834049854,35.043138726172]},"properties":{"Name":"大谷大学","Jusho":"京都府京都市北区小山上総町","kouzui":"○","gake":"×","takashio":"×","jishin":"○","tsunami":"×","kaji":"×","naisui":"○","kazan":"×"}}
,{"type":"Feature","geometry":{"type":"Point","coordinates":[135.7571825,35.06883804]},"properties":{"Name":"京都産業大学","Jusho":"京都府京都市北区上賀茂本山","kouzui":"○","gake":"×","takashio":"×","jishin":"○","tsunami":"×","kaji":"×","naisui":"○","kazan":"×"}}
,{"type":"Feature","geometry":{"type":"Point","coordinates":[135.73716619782,35.043102049182]},"properties":{"Name":"佛教大学","Jusho":"京都府京都市北区紫野北花ノ坊町96","kouzui":"×","gake":"×","takashio":"×","jishin":"○","tsunami":"×","kaji":"×","naisui":"×","kazan":"×"}}
,{"type":"Feature","geometry":{"type":"Point","coordinates":[135.72369936857,35.03256065227]},"properties":{"Name":"立命館大学","Jusho":"京都府京都市北区等持院北町56-1","kouzui":"○","gake":"○","takashio":"×","jishin":"○","tsunami":"×","kaji":"×","naisui":"○","kazan":"×"}}
,{"type":"Feature","geometry":{"type":"Point","coordinates":[135.73731,35.040047]},"properties":{"Name":"京都府立盲学校(花ノ坊校地)","Jusho":"京都府京都市北区紫野花ノ坊町1","kouzui":"×","gake":"×","takashio":"×","jishin":"○","tsunami":"×","kaji":"×","naisui":"×","kazan":"×"}}
,{"type":"Feature","geometry":{"type":"Point","coordinates":[135.73889926608,35.043859980472]},"properties":{"Name":"京都府立盲学校(大徳寺校地)","Jusho":"京都府京都市北区紫野大徳寺町27","kouzui":"×","gake":"×","takashio":"×","jishin":"○","tsunami":"×","kaji":"×","naisui":"×","kazan":"×"}}
,{"type":"Feature","geometry":{"type":"Point","coordinates":[135.7645238,35.03891363]},"properties":{"Name":"京都市交響楽団練習場","Jusho":"京都府京都市北区出雲路立テ本町103","kouzui":"×","gake":"×","takashio":"×","jishin":"○","tsunami":"×","kaji":"×","naisui":"×","kazan":"×"}}
,{"type":"Feature","geometry":{"type":"Point","coordinates":[135.700535,35.09461]},"properties":{"Name":"杉阪公民館","Jusho":"京都府京都市北区杉阪道風町87","kouzui":"×","gake":"×","takashio":"×","jishin":"○","tsunami":"×","kaji":"×","naisui":"×","kazan":"×"}}
,{"type":"Feature","geometry":{"type":"Point","coordinates":[135.75139,35.045614]},"properties":{"Name":"鳳徳会館","Jusho":"京都府京都市北区紫竹東高縄町1","kouzui":"○","gake":"×","takashio":"×","jishin":"○","tsunami":"×","kaji":"×","naisui":"○","kazan":"×"}}
,{"type":"Feature","geometry":{"type":"Point","coordinates":[135.687777,35.089318]},"properties":{"Name":"中川自治会館","Jusho":"京都府京都市北区中川北山町46","kouzui":"○","gake":"○","takashio":"×","jishin":"○","tsunami":"×","kaji":"×","naisui":"○","kazan":"×"}}
,{"type":"Feature","geometry":{"type":"Point","coordinates":[135.71545819213,35.044621902237]},"properties":{"Name":"やまびこくらぶ","Jusho":"京都府京都市北区大北山原谷乾町93","kouzui":"×","gake":"○","takashio":"×","jishin":"○","tsunami":"×","kaji":"×","naisui":"×","kazan":"×"}}
,{"type":"Feature","geometry":{"type":"Point","coordinates":[135.71697791204,35.044295963254]},"properties":{"Name":"金閣原谷会館","Jusho":"京都府京都市北区大北山原谷乾町90","kouzui":"×","gake":"○","takashio":"×","jishin":"○","tsunami":"×","kaji":"×","naisui":"×","kazan":"×"}}
,{"type":"Feature","geometry":{"type":"Point","coordinates":[135.736479,35.064243]},"properties":{"Name":"京都ゴルフ場舟山コ-ス（西賀茂）","Jusho":"京都府京都市北区西賀茂船山","kouzui":"×","gake":"×","takashio":"×","jishin":"○","tsunami":"×","kaji":"○","naisui":"×","kazan":"×"}}
,{"type":"Feature","geometry":{"type":"Point","coordinates":[135.748678,35.061591]},"properties":{"Name":"賀茂川右岸（御薗橋より上流）","Jusho":"京都府京都市北区大宮榿ノ木町","kouzui":"×","gake":"×","takashio":"×","jishin":"○","tsunami":"×","kaji":"○","naisui":"×","kazan":"×"}}
,{"type":"Feature","geometry":{"type":"Point","coordinates":[135.743357,35.053459]},"properties":{"Name":"大宮交通公園","Jusho":"京都府京都市北区大宮西脇台町","kouzui":"×","gake":"×","takashio":"×","jishin":"○","tsunami":"×","kaji":"○","naisui":"×","kazan":"×"}}
,{"type":"Feature","geometry":{"type":"Point","coordinates":[135.760796,35.045984]},"properties":{"Name":"賀茂川右岸（上賀茂橋～葵橋）","Jusho":"京都府京都市北区小山北玄以町","kouzui":"×","gake":"×","takashio":"×","jishin":"○","tsunami":"×","kaji":"○","naisui":"×","kazan":"×"}}
,{"type":"Feature","geometry":{"type":"Point","coordinates":[135.731309,35.039225]},"properties":{"Name":"金閣寺境内","Jusho":"京都府京都市北区衣笠金閣寺町","kouzui":"×","gake":"×","takashio":"×","jishin":"○","tsunami":"×","kaji":"○","naisui":"×","kazan":"×"}}
,{"type":"Feature","geometry":{"type":"Point","coordinates":[135.72324,35.033308]},"properties":{"Name":"立命館大学衣笠キャンパス中央広場","Jusho":"京都府京都市北区等持院北町","kouzui":"×","gake":"×","takashio":"×","jishin":"○","tsunami":"×","kaji":"○","naisui":"×","kazan":"×"}}
,{"type":"Feature","geometry":{"type":"Point","coordinates":[135.728787,35.028195]},"properties":{"Name":"洛星高等学校グラウンド","Jusho":"京都府京都市北区小松原南町","kouzui":"×","gake":"×","takashio":"×","jishin":"○","tsunami":"×","kaji":"○","naisui":"×","kazan":"×"}}
,{"type":"Feature","geometry":{"type":"Point","coordinates":[135.756724,35.06607]},"properties":{"Name":"京都ゴルフ場上賀茂コ-ス","Jusho":"京都府京都市北区上賀茂本山","kouzui":"×","gake":"×","takashio":"×","jishin":"○","tsunami":"×","kaji":"○","naisui":"×","kazan":"×"}}
,{"type":"Feature","geometry":{"type":"Point","coordinates":[135.71461617367,35.041568806678]},"properties":{"Name":"立命館大学原谷グラウンド第三尚友館及び尚友館","Jusho":"京都府京都市右京区鳴滝宇多野谷17","kouzui":"×","gake":"×","takashio":"×","jishin":"○","tsunami":"×","kaji":"×","naisui":"×","kazan":"×"}}
,{"type":"Feature","geometry":{"type":"Point","coordinates":[135.73979290167,35.039923337783]},"properties":{"Name":"京都市北いきいき市民活動センター（ふれあい共生館内）","Jusho":"京都府京都市北区紫野西舟岡町2","kouzui":"×","gake":"×","takashio":"×","jishin":"○","tsunami":"×","kaji":"×","naisui":"×","kazan":"×"}}
,{"type":"Feature","geometry":{"type":"Point","coordinates":[135.7583868,35.03346523]},"properties":{"Name":"京都市立室町小学校","Jusho":"京都府京都市上京区室町通上立売上ル室町頭町261","kouzui":"○","gake":"×","takashio":"×","jishin":"○","tsunami":"×","kaji":"×","naisui":"○","kazan":"×"}}
,{"type":"Feature","geometry":{"type":"Point","coordinates":[135.7478752,35.0305486]},"properties":{"Name":"京都市立西陣中央小学校","Jusho":"京都府京都市上京区大宮通今出川上ル観世町135-1","kouzui":"○","gake":"×","takashio":"×","jishin":"○","tsunami":"×","kaji":"×","naisui":"○","kazan":"×"}}
,{"type":"Feature","geometry":{"type":"Point","coordinates":[135.7673016,35.02765016]},"properties":{"Name":"京都市立京極小学校","Jusho":"京都府京都市上京区寺町通石薬師下ル西側染殿町658","kouzui":"○","gake":"×","takashio":"×","jishin":"○","tsunami":"×","kaji":"×","naisui":"○","kazan":"×"}}
,{"type":"Feature","geometry":{"type":"Point","coordinates":[135.7560202,35.02526959]},"properties":{"Name":"京都市立新町小学校","Jusho":"京都府京都市上京区中立売通室町西入三丁町457","kouzui":"○","gake":"×","takashio":"×","jishin":"○","tsunami":"×","kaji":"×","naisui":"○","kazan":"×"}}
,{"type":"Feature","geometry":{"type":"Point","coordinates":[135.7453171,35.01915341]},"properties":{"Name":"京都市立二条城北小学校","Jusho":"京都府京都市上京区浄福寺通下立売下ル中務町487","kouzui":"○","gake":"×","takashio":"×","jishin":"○","tsunami":"×","kaji":"×","naisui":"○","kazan":"×"}}
,{"type":"Feature","geometry":{"type":"Point","coordinates":[135.74262277091,35.033735460836]},"properties":{"Name":"京都市立乾隆小学校","Jusho":"京都府京都市上京区寺之内通千本東入1丁目下ル姥ヶ寺之前町919-3","kouzui":"×","gake":"×","takashio":"×","jishin":"○","tsunami":"×","kaji":"×","naisui":"×","kazan":"×"}}
,{"type":"Feature","geometry":{"type":"Point","coordinates":[135.7382173,35.03192543]},"properties":{"Name":"京都市立翔鸞小学校","Jusho":"京都府京都市上京区御前通今出川上ル鳥居前町671","kouzui":"○","gake":"×","takashio":"×","jishin":"○","tsunami":"×","kaji":"×","naisui":"○","kazan":"×"}}
,{"type":"Feature","geometry":{"type":"Point","coordinates":[135.73699898836,35.025077685712]},"properties":{"Name":"京都市立仁和小学校","Jusho":"京都府京都市上京区御前通一条下ル東竪町132-1","kouzui":"○","gake":"×","takashio":"×","jishin":"○","tsunami":"×","kaji":"×","naisui":"○","kazan":"×"}}
,{"type":"Feature","geometry":{"type":"Point","coordinates":[135.74538830727,35.024641578924]},"properties":{"Name":"京都市立正親小学校","Jusho":"京都府京都市上京区浄福寺通中立売下ル菱丸町173","kouzui":"○","gake":"×","takashio":"×","jishin":"○","tsunami":"×","kaji":"×","naisui":"○","kazan":"×"}}
,{"type":"Feature","geometry":{"type":"Point","coordinates":[135.768498,35.018101]},"properties":{"Name":"京都市立御所東小学校","Jusho":"京都府京都市上京区新烏丸通丸太町上ル錦砂町290-2","kouzui":"○","gake":"×","takashio":"×","jishin":"○","tsunami":"×","kaji":"×","naisui":"○","kazan":"×"}}
,{"type":"Feature","geometry":{"type":"Point","coordinates":[135.7510257,35.02441738]},"properties":{"Name":"元京都市立聚楽小学校","Jusho":"京都府京都市上京区葭屋町通中立売下る北俵町317","kouzui":"○","gake":"×","takashio":"×","jishin":"○","tsunami":"×","kaji":"×","naisui":"○","kazan":"×"}}
,{"type":"Feature","geometry":{"type":"Point","coordinates":[135.7499786,35.01716085]},"properties":{"Name":"元京都市立待賢小学校","Jusho":"京都府京都市上京区丸太町通黒門東入藁屋町536-1","kouzui":"○","gake":"×","takashio":"×","jishin":"○","tsunami":"×","kaji":"×","naisui":"○","kazan":"×"}}
,{"type":"Feature","geometry":{"type":"Point","coordinates":[135.75029583321,35.032358091993]},"properties":{"Name":"元京都市立西陣小学校","Jusho":"京都府京都市上京区上立売通堀川西入幸在町689","kouzui":"○","gake":"×","takashio":"×","jishin":"○","tsunami":"×","kaji":"×","naisui":"○","kazan":"×"}}
,{"type":"Feature","geometry":{"type":"Point","coordinates":[135.7599446,35.03468575]},"properties":{"Name":"京都市立烏丸中学校","Jusho":"京都府京都市上京区烏丸通上立売上ル相国寺門前町647-23","kouzui":"○","gake":"×","takashio":"×","jishin":"○","tsunami":"×","kaji":"×","naisui":"○","kazan":"×"}}
,{"type":"Feature","geometry":{"type":"Point","coordinates":[135.7575615,35.02577948]},"properties":{"Name":"京都市立上京中学校","Jusho":"京都府京都市上京区一条通室町西入東日野殿町395・396","kouzui":"○","gake":"×","takashio":"×","jishin":"○","tsunami":"×","kaji":"×","naisui":"○","kazan":"×"}}
,{"type":"Feature","geometry":{"type":"Point","coordinates":[135.743723,35.030833]},"properties":{"Name":"京都市立嘉楽中学校","Jusho":"京都府京都市上京区今出川通千本東入般舟院前町148","kouzui":"×","gake":"×","takashio":"×","jishin":"○","tsunami":"×","kaji":"×","naisui":"×","kazan":"×"}}
,{"type":"Feature","geometry":{"type":"Point","coordinates":[135.7445964,35.01546083]},"properties":{"Name":"京都市立二条中学校","Jusho":"京都府京都市上京区竹屋町通千本東入主税町911","kouzui":"○","gake":"×","takashio":"×","jishin":"○","tsunami":"×","kaji":"×","naisui":"○","kazan":"×"}}
,{"type":"Feature","geometry":{"type":"Point","coordinates":[135.7680081,35.02071292]},"properties":{"Name":"京都府立鴨沂高等学校","Jusho":"京都府京都市上京区寺町通荒神口下ル松蔭町131","kouzui":"○","gake":"×","takashio":"×","jishin":"○","tsunami":"×","kaji":"×","naisui":"○","kazan":"×"}}
,{"type":"Feature","geometry":{"type":"Point","coordinates":[135.750674,35.03535118]},"properties":{"Name":"京都市立北総合支援学校","Jusho":"京都府京都市上京区堀川通寺之内上ル2丁目下天神町650-1","kouzui":"○","gake":"×","takashio":"×","jishin":"○","tsunami":"×","kaji":"×","naisui":"○","kazan":"×"}}
,{"type":"Feature","geometry":{"type":"Point","coordinates":[135.7539916,35.02915775]},"properties":{"Name":"京都市立みつば幼稚園","Jusho":"京都府京都市上京区小川通今出川下ル針屋町370","kouzui":"○","gake":"×","takashio":"×","jishin":"○","tsunami":"×","kaji":"×","naisui":"○","kazan":"×"}}
,{"type":"Feature","geometry":{"type":"Point","coordinates":[135.75484415648,35.019770541891]},"properties":{"Name":"京都まなびの街生き方探究館","Jusho":"京都府京都市上京区西洞院通下立売下ル東裏辻町402","kouzui":"○","gake":"×","takashio":"×","jishin":"○","tsunami":"×","kaji":"×","naisui":"○","kazan":"×"}}
,{"type":"Feature","geometry":{"type":"Point","coordinates":[135.771005,35.02512]},"properties":{"Name":"鴨川右岸（賀茂大橋～丸太町橋）","Jusho":"京都府京都市上京区梶井町","kouzui":"×","gake":"×","takashio":"×","jishin":"○","tsunami":"×","kaji":"○","naisui":"×","kazan":"×"}}
,{"type":"Feature","geometry":{"type":"Point","coordinates":[135.76182996295,35.025216912115]},"properties":{"Name":"京都御苑","Jusho":"京都府京都市上京区京都御苑","kouzui":"×","gake":"×","takashio":"×","jishin":"○","tsunami":"×","kaji":"○","naisui":"×","kazan":"×"}}
,{"type":"Feature","geometry":{"type":"Point","coordinates":[135.782411,35.01812939]},"properties":{"Name":"京都市立錦林小学校","Jusho":"京都府京都市左京区岡崎入江町1-1","kouzui":"○","gake":"○","takashio":"×","jishin":"○","tsunami":"×","kaji":"×","naisui":"○","kazan":"×"}}
,{"type":"Feature","geometry":{"type":"Point","coordinates":[135.792981,35.01913589]},"properties":{"Name":"京都市立第三錦林小学校","Jusho":"京都府京都市左京区鹿ヶ谷宮ノ前町6","kouzui":"×","gake":"○","takashio":"×","jishin":"○","tsunami":"×","kaji":"×","naisui":"×","kazan":"×"}}
,{"type":"Feature","geometry":{"type":"Point","coordinates":[135.7745802,35.02546612]},"properties":{"Name":"京都市立第四錦林小学校","Jusho":"京都府京都市左京区吉田上阿達町15-2","kouzui":"○","gake":"○","takashio":"×","jishin":"○","tsunami":"×","kaji":"×","naisui":"○","kazan":"×"}}
,{"type":"Feature","geometry":{"type":"Point","coordinates":[135.7929364,35.032025]},"properties":{"Name":"京都市立北白川小学校","Jusho":"京都府京都市左京区北白川別当町70","kouzui":"○","gake":"○","takashio":"×","jishin":"○","tsunami":"×","kaji":"×","naisui":"○","kazan":"×"}}
,{"type":"Feature","geometry":{"type":"Point","coordinates":[135.77885,35.03236389]},"properties":{"Name":"京都市立養正小学校","Jusho":"京都府京都市左京区田中飛鳥井町1","kouzui":"○","gake":"×","takashio":"×","jishin":"○","tsunami":"×","kaji":"×","naisui":"○","kazan":"×"}}
,{"type":"Feature","geometry":{"type":"Point","coordinates":[135.7832325,35.03764898]},"properties":{"Name":"京都市立養徳小学校","Jusho":"京都府京都市左京区田中上大久保町24","kouzui":"○","gake":"×","takashio":"×","jishin":"○","tsunami":"×","kaji":"×","naisui":"○","kazan":"×"}}
,{"type":"Feature","geometry":{"type":"Point","coordinates":[135.7684622,35.03741256]},"properties":{"Name":"京都市立下鴨小学校","Jusho":"京都府京都市左京区下鴨宮崎町4-2","kouzui":"○","gake":"×","takashio":"×","jishin":"○","tsunami":"×","kaji":"×","naisui":"○","kazan":"×"}}
,{"type":"Feature","geometry":{"type":"Point","coordinates":[135.7732819,35.04550239]},"properties":{"Name":"京都市立葵小学校","Jusho":"京都府京都市左京区下鴨東梅ノ木町8","kouzui":"○","gake":"×","takashio":"×","jishin":"○","tsunami":"×","kaji":"×","naisui":"○","kazan":"×"}}
,{"type":"Feature","geometry":{"type":"Point","coordinates":[135.7943267,35.05298418]},"properties":{"Name":"京都市立修学院小学校","Jusho":"京都府京都市左京区修学院沖殿町1","kouzui":"○","gake":"○","takashio":"×","jishin":"○","tsunami":"×","kaji":"×","naisui":"○","kazan":"×"}}
,{"type":"Feature","geometry":{"type":"Point","coordinates":[135.7952581,35.06128283]},"properties":{"Name":"京都市立上高野小学校","Jusho":"京都府京都市左京区上高野松田町8","kouzui":"○","gake":"○","takashio":"×","jishin":"○","tsunami":"×","kaji":"×","naisui":"○","kazan":"×"}}
,{"type":"Feature","geometry":{"type":"Point","coordinates":[135.7886697,35.04478349]},"properties":{"Name":"京都市立修学院第二小学校","Jusho":"京都府京都市左京区一乗寺里ノ西町35","kouzui":"○","gake":"×","takashio":"×","jishin":"○","tsunami":"×","kaji":"×","naisui":"○","kazan":"×"}}
,{"type":"Feature","geometry":{"type":"Point","coordinates":[135.7821715,35.05333076]},"properties":{"Name":"京都市立松ヶ崎小学校","Jusho":"京都府京都市左京区松ヶ崎堀町40","kouzui":"×","gake":"×","takashio":"×","jishin":"○","tsunami":"×","kaji":"×","naisui":"×","kazan":"×"}}
,{"type":"Feature","geometry":{"type":"Point","coordinates":[135.7866217,35.07523203]},"properties":{"Name":"京都市立明徳小学校","Jusho":"京都府京都市左京区岩倉忠在地町221","kouzui":"○","gake":"○","takashio":"×","jishin":"○","tsunami":"×","kaji":"×","naisui":"○","kazan":"×"}}
,{"type":"Feature","geometry":{"type":"Point","coordinates":[135.784992,35.06732875]},"properties":{"Name":"京都市立岩倉南小学校","Jusho":"京都府京都市左京区岩倉北四ノ坪町33","kouzui":"○","gake":"○","takashio":"×","jishin":"○","tsunami":"×","kaji":"×","naisui":"○","kazan":"×"}}
,{"type":"Feature","geometry":{"type":"Point","coordinates":[135.78797438029,35.085273001201]},"properties":{"Name":"京都市立岩倉北小学校","Jusho":"京都府京都市左京区岩倉忠在地町5","kouzui":"○","gake":"○","takashio":"×","jishin":"○","tsunami":"×","kaji":"×","naisui":"○","kazan":"×"}}
,{"type":"Feature","geometry":{"type":"Point","coordinates":[135.8177433452,35.084618996036]},"properties":{"Name":"京都市立八瀬小学校","Jusho":"京都府京都市左京区八瀬秋元町324-1","kouzui":"×","gake":"○","takashio":"×","jishin":"○","tsunami":"×","kaji":"×","naisui":"×","kazan":"×"}}
,{"type":"Feature","geometry":{"type":"Point","coordinates":[135.828443,35.121126]},"properties":{"Name":"大原小中学校(京都大原学院)　(旧大原小学校)","Jusho":"京都府京都市左京区大原来迎院町22","kouzui":"×","gake":"○","takashio":"×","jishin":"○","tsunami":"×","kaji":"×","naisui":"×","kazan":"×"}}
,{"type":"Feature","geometry":{"type":"Point","coordinates":[135.8118234,35.1631704]},"properties":{"Name":"元大原小学校百井分校","Jusho":"京都府京都市左京区大原百井町105","kouzui":"×","gake":"○","takashio":"×","jishin":"○","tsunami":"×","kaji":"×","naisui":"×","kazan":"×"}}
,{"type":"Feature","geometry":{"type":"Point","coordinates":[135.7646077,35.08985506]},"properties":{"Name":"京都市立市原野小学校","Jusho":"京都府京都市左京区静市野中町105","kouzui":"○","gake":"○","takashio":"×","jishin":"○","tsunami":"×","kaji":"×","naisui":"○","kazan":"×"}}
,{"type":"Feature","geometry":{"type":"Point","coordinates":[135.79675647968,35.109310734307]},"properties":{"Name":"京都市立静原小学校","Jusho":"京都府京都市左京区静市静原町1125-1","kouzui":"×","gake":"○","takashio":"×","jishin":"○","tsunami":"×","kaji":"×","naisui":"×","kazan":"×"}}
,{"type":"Feature","geometry":{"type":"Point","coordinates":[135.764666,35.105861]},"properties":{"Name":"京都市立鞍馬小学校","Jusho":"京都府京都市左京区鞍馬本町632","kouzui":"×","gake":"×","takashio":"×","jishin":"○","tsunami":"×","kaji":"×","naisui":"×","kazan":"×"}}
,{"type":"Feature","geometry":{"type":"Point","coordinates":[135.7659432,35.24960501]},"properties":{"Name":"元京都市立堰源小学校","Jusho":"京都府京都市左京区広河原能見町87","kouzui":"×","gake":"○","takashio":"×","jishin":"○","tsunami":"×","kaji":"×","naisui":"×","kazan":"×"}}
,{"type":"Feature","geometry":{"type":"Point","coordinates":[135.775089,35.012475]},"properties":{"Name":"元京都市立新洞小学校","Jusho":"京都府京都市左京区仁王門通新東洞院仁王門上る新東洞院町252","kouzui":"○","gake":"×","takashio":"×","jishin":"○","tsunami":"×","kaji":"×","naisui":"○","kazan":"×"}}
,{"type":"Feature","geometry":{"type":"Point","coordinates":[135.78254,35.170923]},"properties":{"Name":"元京都市立別所小学校","Jusho":"京都府京都市左京区花脊別所町636","kouzui":"×","gake":"×","takashio":"×","jishin":"○","tsunami":"×","kaji":"×","naisui":"×","kazan":"×"}}
,{"type":"Feature","geometry":{"type":"Point","coordinates":[135.777568,35.215332]},"properties":{"Name":"元京都市立八桝小学校","Jusho":"京都府京都市左京区花脊八桝町20-1","kouzui":"×","gake":"×","takashio":"×","jishin":"○","tsunami":"×","kaji":"×","naisui":"×","kazan":"×"}}
,{"type":"Feature","geometry":{"type":"Point","coordinates":[135.77446586323,35.20882701257]},"properties":{"Name":"花脊小中学校","Jusho":"京都府京都市左京区花脊大布施町797","kouzui":"○","gake":"○","takashio":"×","jishin":"○","tsunami":"×","kaji":"×","naisui":"○","kazan":"×"}}
,{"type":"Feature","geometry":{"type":"Point","coordinates":[135.7901172,35.01631929]},"properties":{"Name":"京都市立岡崎中学校","Jusho":"京都府京都市左京区岡崎東天王町1","kouzui":"○","gake":"○","takashio":"×","jishin":"○","tsunami":"×","kaji":"×","naisui":"○","kazan":"×"}}
,{"type":"Feature","geometry":{"type":"Point","coordinates":[135.7831913,35.0399481]},"properties":{"Name":"京都市立高野中学校","Jusho":"京都府京都市左京区田中上古川町25","kouzui":"○","gake":"×","takashio":"×","jishin":"○","tsunami":"×","kaji":"×","naisui":"○","kazan":"×"}}
,{"type":"Feature","geometry":{"type":"Point","coordinates":[135.7749431,35.03854076]},"properties":{"Name":"京都市立下鴨中学校","Jusho":"京都府京都市左京区下鴨泉川町40-1","kouzui":"○","gake":"×","takashio":"×","jishin":"○","tsunami":"×","kaji":"×","naisui":"○","kazan":"×"}}
,{"type":"Feature","geometry":{"type":"Point","coordinates":[135.7798586,35.02176312]},"properties":{"Name":"京都市立近衛中学校","Jusho":"京都府京都市左京区吉田近衛町26-53","kouzui":"○","gake":"○","takashio":"×","jishin":"○","tsunami":"×","kaji":"×","naisui":"○","kazan":"×"}}
,{"type":"Feature","geometry":{"type":"Point","coordinates":[135.7885355,35.04245594]},"properties":{"Name":"京都市立修学院中学校","Jusho":"京都府京都市左京区一乗寺御祭田町2","kouzui":"○","gake":"×","takashio":"×","jishin":"○","tsunami":"×","kaji":"×","naisui":"○","kazan":"×"}}
,{"type":"Feature","geometry":{"type":"Point","coordinates":[135.787309,35.0703703]},"properties":{"Name":"京都市立洛北中学校","Jusho":"京都府京都市左京区岩倉忠在地町823","kouzui":"○","gake":"○","takashio":"×","jishin":"○","tsunami":"×","kaji":"×","naisui":"○","kazan":"×"}}
,{"type":"Feature","geometry":{"type":"Point","coordinates":[135.828331,35.121008]},"properties":{"Name":"大原小中学校(京都大原学院)　(旧大原中学校)","Jusho":"京都府京都市左京区大原来迎院町22","kouzui":"×","gake":"○","takashio":"×","jishin":"○","tsunami":"×","kaji":"×","naisui":"×","kazan":"×"}}
,{"type":"Feature","geometry":{"type":"Point","coordinates":[135.772781,35.024981]},"properties":{"Name":"京都精華学園中学高等学校","Jusho":"京都府京都市左京区吉田河原町5-1","kouzui":"×","gake":"×","takashio":"×","jishin":"○","tsunami":"×","kaji":"×","naisui":"×","kazan":"×"}}
,{"type":"Feature","geometry":{"type":"Point","coordinates":[135.7861404,35.06681333]},"properties":{"Name":"同志社中学校・高等学校","Jusho":"京都府京都市左京区岩倉大鷺町89","kouzui":"○","gake":"○","takashio":"×","jishin":"○","tsunami":"×","kaji":"×","naisui":"○","kazan":"×"}}
,{"type":"Feature","geometry":{"type":"Point","coordinates":[135.79654,35.019419]},"properties":{"Name":"ノートルダム女学院中学高等学校","Jusho":"京都府京都市左京区鹿ヶ谷桜谷町110","kouzui":"×","gake":"×","takashio":"×","jishin":"○","tsunami":"×","kaji":"×","naisui":"×","kazan":"×"}}
,{"type":"Feature","geometry":{"type":"Point","coordinates":[135.79406780638,35.013282562261]},"properties":{"Name":"東山中学・高等学校","Jusho":"京都府京都市左京区永観堂町51","kouzui":"×","gake":"×","takashio":"×","jishin":"○","tsunami":"×","kaji":"×","naisui":"×","kazan":"×"}}
,{"type":"Feature","geometry":{"type":"Point","coordinates":[135.7714295,35.04654461]},"properties":{"Name":"府立洛北高等学校・洛北高等学校附属中学校","Jusho":"京都府京都市左京区下鴨梅ノ木町59","kouzui":"○","gake":"×","takashio":"×","jishin":"○","tsunami":"×","kaji":"×","naisui":"○","kazan":"×"}}
,{"type":"Feature","geometry":{"type":"Point","coordinates":[135.773017,35.07022496]},"properties":{"Name":"京都府立北稜高等学校","Jusho":"京都府京都市左京区岩倉幡枝町2105","kouzui":"○","gake":"○","takashio":"×","jishin":"○","tsunami":"×","kaji":"×","naisui":"○","kazan":"×"}}
,{"type":"Feature","geometry":{"type":"Point","coordinates":[135.782933,35.05004017]},"properties":{"Name":"京都工芸繊維大学","Jusho":"京都府京都市左京区松ヶ崎橋上町","kouzui":"○","gake":"○","takashio":"×","jishin":"○","tsunami":"×","kaji":"×","naisui":"○","kazan":"×"}}
,{"type":"Feature","geometry":{"type":"Point","coordinates":[135.770978,35.0731376]},"properties":{"Name":"京都精華大学","Jusho":"京都府京都市左京区岩倉木野町137","kouzui":"○","gake":"×","takashio":"×","jishin":"○","tsunami":"×","kaji":"×","naisui":"○","kazan":"×"}}
,{"type":"Feature","geometry":{"type":"Point","coordinates":[135.7723571,35.05070445]},"properties":{"Name":"京都ノートルダム女子大学","Jusho":"京都府京都市左京区下鴨南野々神町1","kouzui":"○","gake":"×","takashio":"×","jishin":"○","tsunami":"×","kaji":"×","naisui":"○","kazan":"×"}}
,{"type":"Feature","geometry":{"type":"Point","coordinates":[135.7845901,35.02026048]},"properties":{"Name":"京都市立白河総合支援学校","Jusho":"京都府京都市左京区岡崎東福ノ川町9-2","kouzui":"×","gake":"○","takashio":"×","jishin":"○","tsunami":"×","kaji":"×","naisui":"×","kazan":"×"}}
,{"type":"Feature","geometry":{"type":"Point","coordinates":[135.8231855,35.26399135]},"properties":{"Name":"京都市久多いきいきセンター","Jusho":"京都府京都市左京区久多下の町203","kouzui":"×","gake":"○","takashio":"×","jishin":"○","tsunami":"×","kaji":"×","naisui":"×","kazan":"×"}}
,{"type":"Feature","geometry":{"type":"Point","coordinates":[135.7875033,35.01068732]},"properties":{"Name":"京都市国際交流会館","Jusho":"京都府京都市左京区粟田口鳥居町2-1","kouzui":"×","gake":"○","takashio":"×","jishin":"○","tsunami":"×","kaji":"×","naisui":"×","kazan":"×"}}
,{"type":"Feature","geometry":{"type":"Point","coordinates":[135.7807941,35.01699154]},"properties":{"Name":"京都市武道センター","Jusho":"京都府京都市左京区聖護院円頓美町46-2","kouzui":"○","gake":"×","takashio":"×","jishin":"○","tsunami":"×","kaji":"×","naisui":"○","kazan":"×"}}
,{"type":"Feature","geometry":{"type":"Point","coordinates":[135.77341162,35.01811866]},"properties":{"Name":"天理教河原町大教会","Jusho":"京都府京都市左京区東丸太町1-1","kouzui":"○","gake":"×","takashio":"×","jishin":"○","tsunami":"×","kaji":"×","naisui":"○","kazan":"×"}}
,{"type":"Feature","geometry":{"type":"Point","coordinates":[135.759945,35.086126]},"properties":{"Name":"市原野会館","Jusho":"京都府京都市左京区静市市原町254-2","kouzui":"○","gake":"○","takashio":"×","jishin":"○","tsunami":"×","kaji":"×","naisui":"○","kazan":"×"}}
,{"type":"Feature","geometry":{"type":"Point","coordinates":[135.78271,35.170382]},"properties":{"Name":"別所自治会館","Jusho":"京都府京都市左京区花脊別所町２４９","kouzui":"×","gake":"○","takashio":"×","jishin":"○","tsunami":"×","kaji":"×","naisui":"×","kazan":"×"}}
,{"type":"Feature","geometry":{"type":"Point","coordinates":[135.77088100996,35.118165115658]},"properties":{"Name":"鞍馬山修養道場","Jusho":"京都府京都市左京区鞍馬本町1074","kouzui":"×","gake":"○","takashio":"×","jishin":"○","tsunami":"×","kaji":"×","naisui":"×","kazan":"×"}}
,{"type":"Feature","geometry":{"type":"Point","coordinates":[135.84197032777,35.146958801854]},"properties":{"Name":"正圓寺","Jusho":"京都府京都市左京区大原小出石町１１６８","kouzui":"×","gake":"○","takashio":"×","jishin":"○","tsunami":"×","kaji":"×","naisui":"×","kazan":"×"}}
,{"type":"Feature","geometry":{"type":"Point","coordinates":[135.8188604149,35.110903651153]},"properties":{"Name":"公益財団法人龍池教育財団大原郊外学舎","Jusho":"京都府京都市左京区大原井出町","kouzui":"×","gake":"○","takashio":"×","jishin":"○","tsunami":"×","kaji":"×","naisui":"×","kazan":"×"}}
,{"type":"Feature","geometry":{"type":"Point","coordinates":[135.78981529097,35.021951496437]},"properties":{"Name":"真正極楽寺　真如堂　研修道場","Jusho":"京都府京都市左京区浄土寺真如町８２-３","kouzui":"×","gake":"○","takashio":"×","jishin":"○","tsunami":"×","kaji":"×","naisui":"×","kazan":"×"}}
,{"type":"Feature","geometry":{"type":"Point","coordinates":[135.763071,35.046862]},"properties":{"Name":"府立植物園・府立大学グラウンド","Jusho":"京都府京都市左京区下鴨半木町","kouzui":"×","gake":"×","takashio":"×","jishin":"○","tsunami":"×","kaji":"○","naisui":"×","kazan":"×"}}
,{"type":"Feature","geometry":{"type":"Point","coordinates":[135.777968,35.057648]},"properties":{"Name":"宝が池公園","Jusho":"京都府京都市左京区松ケ崎狐坂","kouzui":"×","gake":"×","takashio":"×","jishin":"○","tsunami":"×","kaji":"○","naisui":"×","kazan":"×"}}
,{"type":"Feature","geometry":{"type":"Point","coordinates":[135.787411,35.032351]},"properties":{"Name":"京都大学北部構内農学部グラウンド","Jusho":"京都府京都市左京区北白川西町","kouzui":"×","gake":"×","takashio":"×","jishin":"○","tsunami":"×","kaji":"○","naisui":"×","kazan":"×"}}
,{"type":"Feature","geometry":{"type":"Point","coordinates":[135.771979,35.024883]},"properties":{"Name":"鴨川左岸（賀茂大橋～丸太町橋）","Jusho":"京都府京都市左京区田中下柳町","kouzui":"×","gake":"×","takashio":"×","jishin":"○","tsunami":"×","kaji":"○","naisui":"×","kazan":"×"}}
,{"type":"Feature","geometry":{"type":"Point","coordinates":[135.782678,35.014322]},"properties":{"Name":"岡崎公園","Jusho":"京都府京都市左京区岡崎最勝寺町","kouzui":"×","gake":"×","takashio":"×","jishin":"○","tsunami":"×","kaji":"○","naisui":"×","kazan":"×"}}
,{"type":"Feature","geometry":{"type":"Point","coordinates":[135.774208,35.054113]},"properties":{"Name":"宝が池公園スポ-ツ広場","Jusho":"京都府京都市左京区松ケ崎西池ノ内町","kouzui":"×","gake":"×","takashio":"×","jishin":"○","tsunami":"×","kaji":"○","naisui":"×","kazan":"×"}}
,{"type":"Feature","geometry":{"type":"Point","coordinates":[135.7644781,35.01596341]},"properties":{"Name":"京都市立御所南小学校","Jusho":"京都府京都市中京区柳馬場通夷川上ル五町目242","kouzui":"○","gake":"×","takashio":"×","jishin":"○","tsunami":"×","kaji":"×","naisui":"○","kazan":"×"}}
,{"type":"Feature","geometry":{"type":"Point","coordinates":[135.76197961838,35.006841505623]},"properties":{"Name":"京都市立高倉小学校","Jusho":"京都府京都市中京区高倉通六角下ル和久屋町343","kouzui":"○","gake":"×","takashio":"×","jishin":"○","tsunami":"×","kaji":"×","naisui":"○","kazan":"×"}}
,{"type":"Feature","geometry":{"type":"Point","coordinates":[135.7473804,35.00598501]},"properties":{"Name":"京都市立洛中小学校","Jusho":"京都府京都市中京区壬生坊城町57-1","kouzui":"○","gake":"×","takashio":"×","jishin":"○","tsunami":"×","kaji":"×","naisui":"○","kazan":"×"}}
,{"type":"Feature","geometry":{"type":"Point","coordinates":[135.74325909378,35.007621918819]},"properties":{"Name":"京都市立朱雀第一小学校","Jusho":"京都府京都市中京区壬生朱雀町8-2","kouzui":"○","gake":"×","takashio":"×","jishin":"○","tsunami":"×","kaji":"×","naisui":"○","kazan":"×"}}
,{"type":"Feature","geometry":{"type":"Point","coordinates":[135.736488157,35.018116535278]},"properties":{"Name":"京都市立朱雀第二小学校","Jusho":"京都府京都市中京区西ノ京左馬寮町3-1","kouzui":"○","gake":"×","takashio":"×","jishin":"○","tsunami":"×","kaji":"×","naisui":"○","kazan":"×"}}
,{"type":"Feature","geometry":{"type":"Point","coordinates":[135.73971683863,34.998240247514]},"properties":{"Name":"京都市立朱雀第三小学校","Jusho":"京都府京都市中京区壬生松原町81","kouzui":"○","gake":"×","takashio":"×","jishin":"○","tsunami":"×","kaji":"×","naisui":"○","kazan":"×"}}
,{"type":"Feature","geometry":{"type":"Point","coordinates":[135.7343343,35.01400682]},"properties":{"Name":"京都市立朱雀第四小学校","Jusho":"京都府京都市中京区西ノ京笠殿町164","kouzui":"○","gake":"×","takashio":"×","jishin":"○","tsunami":"×","kaji":"×","naisui":"○","kazan":"×"}}
,{"type":"Feature","geometry":{"type":"Point","coordinates":[135.7384754,35.01684913]},"properties":{"Name":"京都市立朱雀第六小学校","Jusho":"京都府京都市中京区西ノ京車坂町15-5","kouzui":"○","gake":"×","takashio":"×","jishin":"○","tsunami":"×","kaji":"×","naisui":"○","kazan":"×"}}
,{"type":"Feature","geometry":{"type":"Point","coordinates":[135.7354342,35.00303159]},"properties":{"Name":"京都市立朱雀第七小学校","Jusho":"京都府京都市中京区壬生東土居ノ内町20","kouzui":"○","gake":"×","takashio":"×","jishin":"○","tsunami":"×","kaji":"×","naisui":"○","kazan":"×"}}
,{"type":"Feature","geometry":{"type":"Point","coordinates":[135.7288104,35.01688652]},"properties":{"Name":"京都市立朱雀第八小学校","Jusho":"京都府京都市中京区西ノ京中御門西町25","kouzui":"○","gake":"×","takashio":"×","jishin":"○","tsunami":"×","kaji":"×","naisui":"○","kazan":"×"}}
,{"type":"Feature","geometry":{"type":"Point","coordinates":[135.7481762,35.00991211]},"properties":{"Name":"元京都市立教業小学校","Jusho":"京都府京都市中京区大宮通御池下る三坊大宮町121-2","kouzui":"○","gake":"×","takashio":"×","jishin":"○","tsunami":"×","kaji":"×","naisui":"○","kazan":"×"}}
,{"type":"Feature","geometry":{"type":"Point","coordinates":[135.7652977,35.00679155]},"properties":{"Name":"元京都市立生祥小学校","Jusho":"京都府京都市中京区富小路通六角下る骨屋之町549","kouzui":"○","gake":"×","takashio":"×","jishin":"○","tsunami":"×","kaji":"×","naisui":"○","kazan":"×"}}
,{"type":"Feature","geometry":{"type":"Point","coordinates":[135.7314322,35.02177559]},"properties":{"Name":"京都市立北野中学校","Jusho":"京都府京都市中京区西ノ京中保町1-4","kouzui":"○","gake":"×","takashio":"×","jishin":"○","tsunami":"×","kaji":"×","naisui":"○","kazan":"×"}}
,{"type":"Feature","geometry":{"type":"Point","coordinates":[135.73675559207,35.006994604409]},"properties":{"Name":"京都市立朱雀中学校","Jusho":"京都府京都市中京区壬生中川町20-1","kouzui":"○","gake":"×","takashio":"×","jishin":"○","tsunami":"×","kaji":"×","naisui":"○","kazan":"×"}}
,{"type":"Feature","geometry":{"type":"Point","coordinates":[135.7642554,35.01177159]},"properties":{"Name":"京都市立京都御池中学校","Jusho":"京都府京都市中京区柳馬場通御池上ル虎石町45-3","kouzui":"○","gake":"×","takashio":"×","jishin":"○","tsunami":"×","kaji":"×","naisui":"○","kazan":"×"}}
,{"type":"Feature","geometry":{"type":"Point","coordinates":[135.7436254,35.01292701]},"properties":{"Name":"京都市立中京中学校","Jusho":"京都府京都市中京区西ノ京北聖町51","kouzui":"○","gake":"×","takashio":"×","jishin":"○","tsunami":"×","kaji":"×","naisui":"○","kazan":"×"}}
,{"type":"Feature","geometry":{"type":"Point","coordinates":[135.7478026,34.99988744]},"properties":{"Name":"京都市立松原中学校","Jusho":"京都府京都市中京区壬生相合町1","kouzui":"○","gake":"×","takashio":"×","jishin":"○","tsunami":"×","kaji":"×","naisui":"○","kazan":"×"}}
,{"type":"Feature","geometry":{"type":"Point","coordinates":[135.7381984,35.01264409]},"properties":{"Name":"京都市立西ノ京中学校","Jusho":"京都府京都市中京区西ノ京永本町7-1","kouzui":"○","gake":"×","takashio":"×","jishin":"○","tsunami":"×","kaji":"×","naisui":"○","kazan":"×"}}
,{"type":"Feature","geometry":{"type":"Point","coordinates":[135.73031669378,35.011379270442]},"properties":{"Name":"京都市立西京高等学校","Jusho":"京都府京都市中京区西ノ京東中合町1","kouzui":"○","gake":"×","takashio":"×","jishin":"○","tsunami":"×","kaji":"×","naisui":"○","kazan":"×"}}
,{"type":"Feature","geometry":{"type":"Point","coordinates":[135.7701205,35.01483846]},"properties":{"Name":"京都市立銅駝美術工芸高等学校","Jusho":"京都府京都市中京区土手町通竹屋町下ル鉾田町542","kouzui":"×","gake":"×","takashio":"×","jishin":"○","tsunami":"×","kaji":"×","naisui":"×","kazan":"×"}}
,{"type":"Feature","geometry":{"type":"Point","coordinates":[135.752765,35.011932]},"properties":{"Name":"京都市立京都堀川音楽高等学校","Jusho":"京都府京都市中京区油小路通御池押油小路町238-1","kouzui":"○","gake":"×","takashio":"×","jishin":"○","tsunami":"×","kaji":"×","naisui":"○","kazan":"×"}}
,{"type":"Feature","geometry":{"type":"Point","coordinates":[135.75266671786,35.005287430453]},"properties":{"Name":"京都市立堀川高等学校","Jusho":"京都府京都市中京区東堀川通錦小路上ル四坊堀川町622-2","kouzui":"○","gake":"×","takashio":"×","jishin":"○","tsunami":"×","kaji":"×","naisui":"○","kazan":"×"}}
,{"type":"Feature","geometry":{"type":"Point","coordinates":[135.745057,35.01419163]},"properties":{"Name":"京都府立朱雀高等学校","Jusho":"京都府京都市中京区西ノ京式部町1","kouzui":"○","gake":"×","takashio":"×","jishin":"○","tsunami":"×","kaji":"×","naisui":"○","kazan":"×"}}
,{"type":"Feature","geometry":{"type":"Point","coordinates":[135.73356023981,35.007622114039]},"properties":{"Name":"京都両洋高等学校","Jusho":"京都府京都市中京区壬生上大竹町13","kouzui":"○","gake":"×","takashio":"×","jishin":"○","tsunami":"×","kaji":"×","naisui":"○","kazan":"×"}}
,{"type":"Feature","geometry":{"type":"Point","coordinates":[135.72804721415,35.017886655874]},"properties":{"Name":"洛陽総合高等学校","Jusho":"京都府京都市中京区西ノ京春日町8","kouzui":"○","gake":"×","takashio":"×","jishin":"○","tsunami":"×","kaji":"×","naisui":"○","kazan":"×"}}
,{"type":"Feature","geometry":{"type":"Point","coordinates":[135.72672584061,35.016451844384]},"properties":{"Name":"花園大学","Jusho":"京都府京都市中京区西ノ京壺ノ内町8-1","kouzui":"○","gake":"×","takashio":"×","jishin":"○","tsunami":"×","kaji":"×","naisui":"○","kazan":"×"}}
,{"type":"Feature","geometry":{"type":"Point","coordinates":[135.761012,35.015418]},"properties":{"Name":"京都市立中京もえぎ幼稚園","Jusho":"京都府京都市中京区間之町通竹屋町下ル楠町601-1","kouzui":"○","gake":"×","takashio":"×","jishin":"○","tsunami":"×","kaji":"×","naisui":"○","kazan":"×"}}
,{"type":"Feature","geometry":{"type":"Point","coordinates":[135.7583892,35.00544166]},"properties":{"Name":"京都芸術センター","Jusho":"京都府京都市中京区室町通蛸薬師下ル山伏山町546-2","kouzui":"○","gake":"×","takashio":"×","jishin":"○","tsunami":"×","kaji":"×","naisui":"○","kazan":"×"}}
,{"type":"Feature","geometry":{"type":"Point","coordinates":[135.7589538,35.01168374]},"properties":{"Name":"京都国際マンガミュージアム","Jusho":"京都府京都市中京区烏丸通御池上ル金吹町452","kouzui":"○","gake":"×","takashio":"×","jishin":"○","tsunami":"×","kaji":"×","naisui":"○","kazan":"×"}}
,{"type":"Feature","geometry":{"type":"Point","coordinates":[135.76151518095,35.00951328224]},"properties":{"Name":"京都市教育相談総合センター こどもパトナ","Jusho":"京都府京都市中京区姉小路通東洞院東入曇華院前町706-3","kouzui":"○","gake":"×","takashio":"×","jishin":"○","tsunami":"×","kaji":"×","naisui":"○","kazan":"×"}}
,{"type":"Feature","geometry":{"type":"Point","coordinates":[135.7612184,35.0155273]},"properties":{"Name":"京都市子育て支援総合センター こどもみらい館","Jusho":"京都府京都市中京区間之町通竹屋町下ル楠町601-1","kouzui":"○","gake":"×","takashio":"×","jishin":"○","tsunami":"×","kaji":"×","naisui":"○","kazan":"×"}}
,{"type":"Feature","geometry":{"type":"Point","coordinates":[135.7558799,35.01781037]},"properties":{"Name":"京都市子ども保健医療相談・事故防止センター 京あんしんこども館","Jusho":"京都府京都市中京区釜座通丸太町上ル梅屋町174-3","kouzui":"○","gake":"×","takashio":"×","jishin":"○","tsunami":"×","kaji":"×","naisui":"○","kazan":"×"}}
,{"type":"Feature","geometry":{"type":"Point","coordinates":[135.7384435,35.01897806]},"properties":{"Name":"京都市生涯学習総合センター 京都アスニー","Jusho":"京都府京都市中京区聚楽廻松下町9-2","kouzui":"○","gake":"×","takashio":"×","jishin":"○","tsunami":"×","kaji":"×","naisui":"○","kazan":"×"}}
,{"type":"Feature","geometry":{"type":"Point","coordinates":[135.7614005,35.00686283]},"properties":{"Name":"京都市男女共同参画センター ウィングス京都","Jusho":"京都府京都市中京区東洞院通六角下ル御射山町262","kouzui":"○","gake":"×","takashio":"×","jishin":"○","tsunami":"×","kaji":"×","naisui":"○","kazan":"×"}}
,{"type":"Feature","geometry":{"type":"Point","coordinates":[135.7708119,35.01564944]},"properties":{"Name":"職員会館かもがわ","Jusho":"京都府京都市中京区土手町通夷川上ル末丸町284","kouzui":"×","gake":"×","takashio":"×","jishin":"○","tsunami":"×","kaji":"×","naisui":"×","kazan":"×"}}
,{"type":"Feature","geometry":{"type":"Point","coordinates":[135.7541114123,35.005914356547]},"properties":{"Name":"京都市立堀川高等学校本能館及び本能自治会館","Jusho":"京都府京都市中京区元本能寺南町346","kouzui":"○","gake":"×","takashio":"×","jishin":"○","tsunami":"×","kaji":"×","naisui":"○","kazan":"×"}}
,{"type":"Feature","geometry":{"type":"Point","coordinates":[135.73808,35.003807]},"properties":{"Name":"真如苑京都四条","Jusho":"京都府京都市中京区壬生森町29-1","kouzui":"×","gake":"×","takashio":"×","jishin":"○","tsunami":"×","kaji":"×","naisui":"×","kazan":"×"}}
,{"type":"Feature","geometry":{"type":"Point","coordinates":[135.73398842984,35.010120793155]},"properties":{"Name":"両洋学園両洋高等学校　第二体育館","Jusho":"京都府京都市中京区西ノ京南原町58","kouzui":"×","gake":"×","takashio":"×","jishin":"○","tsunami":"×","kaji":"×","naisui":"×","kazan":"×"}}
,{"type":"Feature","geometry":{"type":"Point","coordinates":[135.742161,35.009271]},"properties":{"Name":"立命館大学朱雀キャンパス","Jusho":"京都府京都市中京区西ノ京朱雀町１","kouzui":"×","gake":"×","takashio":"×","jishin":"○","tsunami":"×","kaji":"×","naisui":"×","kazan":"×"}}
,{"type":"Feature","geometry":{"type":"Point","coordinates":[135.770278,35.006019]},"properties":{"Name":"立誠ガーデン　ヒューリック京都","Jusho":"京都府京都市中京区蛸薬師通河原町東入備前前島町310-2","kouzui":"○","gake":"×","takashio":"×","jishin":"○","tsunami":"×","kaji":"×","naisui":"○","kazan":"×"}}
,{"type":"Feature","geometry":{"type":"Point","coordinates":[135.748994,35.01397]},"properties":{"Name":"二条城","Jusho":"京都府京都市中京区二条通堀川西入二条城町","kouzui":"×","gake":"×","takashio":"×","jishin":"○","tsunami":"×","kaji":"○","naisui":"×","kazan":"×"}}
,{"type":"Feature","geometry":{"type":"Point","coordinates":[135.7278,35.012604]},"properties":{"Name":"島津製作所三条工場北グラウンド","Jusho":"京都府京都市中京区西ノ京徳大寺町","kouzui":"×","gake":"×","takashio":"×","jishin":"○","tsunami":"×","kaji":"○","naisui":"×","kazan":"×"}}
,{"type":"Feature","geometry":{"type":"Point","coordinates":[135.7782313,34.98480526]},"properties":{"Name":"元京都市立今熊野小学校","Jusho":"京都府京都市東山区今熊野南日吉町27-3","kouzui":"×","gake":"○","takashio":"×","jishin":"○","tsunami":"×","kaji":"×","naisui":"×","kazan":"×"}}
,{"type":"Feature","geometry":{"type":"Point","coordinates":[135.779696,34.997337]},"properties":{"Name":"ザ・ホテル青龍　京都清水","Jusho":"京都府京都市東山区清水二丁目204-2","kouzui":"×","gake":"○","takashio":"×","jishin":"○","tsunami":"×","kaji":"×","naisui":"×","kazan":"×"}}
,{"type":"Feature","geometry":{"type":"Point","coordinates":[135.77411580411,34.998731600108]},"properties":{"Name":"新道自治会館","Jusho":"京都府京都市東山区小松町５７２番地","kouzui":"○","gake":"×","takashio":"×","jishin":"○","tsunami":"×","kaji":"×","naisui":"○","kazan":"×"}}
,{"type":"Feature","geometry":{"type":"Point","coordinates":[135.7716278,34.9778093]},"properties":{"Name":"元京都市立月輪小学校","Jusho":"京都府京都市東山区本町通三ノ橋上る本町十七丁目358","kouzui":"○","gake":"○","takashio":"×","jishin":"○","tsunami":"×","kaji":"×","naisui":"○","kazan":"×"}}
,{"type":"Feature","geometry":{"type":"Point","coordinates":[135.7738047,35.00769998]},"properties":{"Name":"元京都市立有済小学校","Jusho":"京都府京都市東山区大和大路通三条下る東入若松町393","kouzui":"○","gake":"×","takashio":"×","jishin":"○","tsunami":"×","kaji":"×","naisui":"○","kazan":"×"}}
,{"type":"Feature","geometry":{"type":"Point","coordinates":[135.774162,34.996241]},"properties":{"Name":"京都市立開睛小学校・京都市立開睛中学校","Jusho":"京都府京都市東山区六波羅裏門通東入多門町155","kouzui":"○","gake":"○","takashio":"×","jishin":"○","tsunami":"×","kaji":"×","naisui":"○","kazan":"×"}}
,{"type":"Feature","geometry":{"type":"Point","coordinates":[135.7707961,34.98393285]},"properties":{"Name":"京都市立東山泉小学校・京都市立東山和泉中学校 西学舎","Jusho":"京都府京都市東山区大和大路通七条下る5丁目下池田町527","kouzui":"○","gake":"○","takashio":"×","jishin":"○","tsunami":"×","kaji":"×","naisui":"○","kazan":"×"}}
,{"type":"Feature","geometry":{"type":"Point","coordinates":[135.7782509,34.97963903]},"properties":{"Name":"京都市立東山泉小学校・京都市立東山和泉中学校 東学舎","Jusho":"京都府京都市東山区泉涌寺山内町5","kouzui":"○","gake":"○","takashio":"×","jishin":"○","tsunami":"×","kaji":"×","naisui":"○","kazan":"×"}}
,{"type":"Feature","geometry":{"type":"Point","coordinates":[135.7719502,34.98413122]},"properties":{"Name":"大谷中学高等学校","Jusho":"京都府京都市東山区今熊野池田町12","kouzui":"○","gake":"○","takashio":"×","jishin":"○","tsunami":"×","kaji":"×","naisui":"○","kazan":"×"}}
,{"type":"Feature","geometry":{"type":"Point","coordinates":[135.7807445,35.0068558]},"properties":{"Name":"華頂女子中学高等学校","Jusho":"京都府京都市東山区林下町3-456","kouzui":"○","gake":"○","takashio":"×","jishin":"○","tsunami":"×","kaji":"×","naisui":"○","kazan":"×"}}
,{"type":"Feature","geometry":{"type":"Point","coordinates":[135.7770175,34.99009621]},"properties":{"Name":"京都女子中学校・高等学校","Jusho":"京都府京都市東山区今熊野北日吉町17","kouzui":"○","gake":"○","takashio":"×","jishin":"○","tsunami":"×","kaji":"×","naisui":"○","kazan":"×"}}
,{"type":"Feature","geometry":{"type":"Point","coordinates":[135.7755043,34.97875046]},"properties":{"Name":"京都市立日吉ケ丘高等学校","Jusho":"京都府京都市東山区今熊野悲田院山町5-22","kouzui":"○","gake":"○","takashio":"×","jishin":"○","tsunami":"×","kaji":"×","naisui":"○","kazan":"×"}}
,{"type":"Feature","geometry":{"type":"Point","coordinates":[135.778872942,35.0059561231]},"properties":{"Name":"京都華頂大学・華頂短期大学","Jusho":"京都府京都市東山区林下町3-456","kouzui":"○","gake":"○","takashio":"×","jishin":"○","tsunami":"×","kaji":"×","naisui":"○","kazan":"×"}}
,{"type":"Feature","geometry":{"type":"Point","coordinates":[135.779809,34.988597]},"properties":{"Name":"京都女子大学","Jusho":"京都府京都市東山区今熊野北日吉町35","kouzui":"×","gake":"×","takashio":"×","jishin":"○","tsunami":"×","kaji":"×","naisui":"×","kazan":"×"}}
,{"type":"Feature","geometry":{"type":"Point","coordinates":[135.775764462,34.9919995335]},"properties":{"Name":"京都市立東山総合支援学校","Jusho":"京都府京都市東山区東大路渋谷下る妙法院前側町441","kouzui":"○","gake":"○","takashio":"×","jishin":"○","tsunami":"×","kaji":"×","naisui":"○","kazan":"×"}}
,{"type":"Feature","geometry":{"type":"Point","coordinates":[135.7819913,34.99072691]},"properties":{"Name":"京都府立陶工高等技術専門校","Jusho":"京都府京都市東山区今熊野阿弥陀ヶ峰町17-2","kouzui":"○","gake":"×","takashio":"×","jishin":"○","tsunami":"×","kaji":"×","naisui":"○","kazan":"×"}}
,{"type":"Feature","geometry":{"type":"Point","coordinates":[135.7765287,34.99711436]},"properties":{"Name":"東山地域体育館","Jusho":"京都府京都市東山区清水五丁目130-6 東山区総合庁舎3階","kouzui":"×","gake":"○","takashio":"×","jishin":"○","tsunami":"×","kaji":"×","naisui":"×","kazan":"×"}}
,{"type":"Feature","geometry":{"type":"Point","coordinates":[135.777234,34.99342088]},"properties":{"Name":"大谷本廟","Jusho":"京都府京都市東山区五条橋東六丁目514","kouzui":"○","gake":"○","takashio":"×","jishin":"○","tsunami":"×","kaji":"×","naisui":"○","kazan":"×"}}
,{"type":"Feature","geometry":{"type":"Point","coordinates":[135.773904653,35.0009895122]},"properties":{"Name":"建仁寺","Jusho":"京都府京都市東山区大和大路通四条下る四丁目小松町584","kouzui":"×","gake":"×","takashio":"×","jishin":"○","tsunami":"×","kaji":"×","naisui":"×","kazan":"×"}}
,{"type":"Feature","geometry":{"type":"Point","coordinates":[135.7803668,35.00456153]},"properties":{"Name":"知恩院 和順会館","Jusho":"京都府京都市東山区林下町400-2","kouzui":"○","gake":"○","takashio":"×","jishin":"○","tsunami":"×","kaji":"×","naisui":"○","kazan":"×"}}
,{"type":"Feature","geometry":{"type":"Point","coordinates":[135.7742716,34.9767345]},"properties":{"Name":"東福寺","Jusho":"京都府京都市東山区本町十五丁目778","kouzui":"○","gake":"○","takashio":"×","jishin":"○","tsunami":"×","kaji":"×","naisui":"○","kazan":"×"}}
,{"type":"Feature","geometry":{"type":"Point","coordinates":[135.7755621,34.9904045]},"properties":{"Name":"妙法院","Jusho":"京都府京都市東山区妙法院前側町447","kouzui":"○","gake":"○","takashio":"×","jishin":"○","tsunami":"×","kaji":"×","naisui":"○","kazan":"×"}}
,{"type":"Feature","geometry":{"type":"Point","coordinates":[135.7859412,35.00988889]},"properties":{"Name":"立正佼成会 京都教会","Jusho":"京都府京都市東山区三条白川橋東入ル5丁目東町230","kouzui":"○","gake":"○","takashio":"×","jishin":"○","tsunami":"×","kaji":"×","naisui":"○","kazan":"×"}}
,{"type":"Feature","geometry":{"type":"Point","coordinates":[135.77691,35.0032]},"properties":{"Name":"弥栄自治会館","Jusho":"京都府京都市東山区祇園町南側","kouzui":"○","gake":"○","takashio":"×","jishin":"○","tsunami":"×","kaji":"×","naisui":"○","kazan":"×"}}
,{"type":"Feature","geometry":{"type":"Point","coordinates":[135.77636,35.00318]},"properties":{"Name":"弥栄ふれあいサロン","Jusho":"京都府京都市東山区祇園町南側５５１番地","kouzui":"×","gake":"○","takashio":"×","jishin":"○","tsunami":"×","kaji":"×","naisui":"×","kazan":"×"}}
,{"type":"Feature","geometry":{"type":"Point","coordinates":[135.77310756085,34.989962333716]},"properties":{"Name":"京都国立博物館　平成知新館","Jusho":"京都府京都市東山区茶屋町526番地","kouzui":"○","gake":"×","takashio":"×","jishin":"○","tsunami":"×","kaji":"×","naisui":"○","kazan":"×"}}
,{"type":"Feature","geometry":{"type":"Point","coordinates":[135.768078,34.991244]},"properties":{"Name":"京都美術工芸大学京都東山キャンパス","Jusho":"京都府京都市東山区鞘町通正面下る上堀詰町272","kouzui":"○","gake":"×","takashio":"×","jishin":"○","tsunami":"×","kaji":"×","naisui":"○","kazan":"×"}}
,{"type":"Feature","geometry":{"type":"Point","coordinates":[135.77585033461,34.995289454988]},"properties":{"Name":"やすらぎ・ふれあい館","Jusho":"京都府京都市東山区五条通大和大路東入５丁目梅林町５７６-５","kouzui":"×","gake":"○","takashio":"×","jishin":"×","tsunami":"×","kaji":"×","naisui":"×","kazan":"×"}}
,{"type":"Feature","geometry":{"type":"Point","coordinates":[135.782257,35.00397]},"properties":{"Name":"円山公園（将軍塚周域）","Jusho":"京都府京都市東山区円山町","kouzui":"×","gake":"×","takashio":"×","jishin":"○","tsunami":"×","kaji":"○","naisui":"×","kazan":"×"}}
,{"type":"Feature","geometry":{"type":"Point","coordinates":[135.778343,34.978806]},"properties":{"Name":"日吉ヶ丘高校グラウンド・東山泉小、中学校東学舎グラウンド・泉涌寺境内","Jusho":"京都府京都市東山区泉涌寺山内町","kouzui":"×","gake":"×","takashio":"×","jishin":"○","tsunami":"×","kaji":"○","naisui":"×","kazan":"×"}}
,{"type":"Feature","geometry":{"type":"Point","coordinates":[135.8131355,34.98334041]},"properties":{"Name":"京都市立山階小学校","Jusho":"京都府京都市山科区西野大手先町21","kouzui":"○","gake":"×","takashio":"×","jishin":"○","tsunami":"×","kaji":"×","naisui":"○","kazan":"×"}}
,{"type":"Feature","geometry":{"type":"Point","coordinates":[135.8033864,34.98216717]},"properties":{"Name":"京都市立西野小学校","Jusho":"京都府京都市山科区西野櫃川町34","kouzui":"○","gake":"×","takashio":"×","jishin":"○","tsunami":"×","kaji":"×","naisui":"○","kazan":"×"}}
,{"type":"Feature","geometry":{"type":"Point","coordinates":[135.8078332,34.97738655]},"properties":{"Name":"京都市立山階南小学校","Jusho":"京都府京都市山科区東野八代10","kouzui":"○","gake":"×","takashio":"×","jishin":"○","tsunami":"×","kaji":"×","naisui":"○","kazan":"×"}}
,{"type":"Feature","geometry":{"type":"Point","coordinates":[135.8182357,34.99615224]},"properties":{"Name":"京都市立安朱小学校","Jusho":"京都府京都市山科区安朱山川町17","kouzui":"○","gake":"○","takashio":"×","jishin":"○","tsunami":"×","kaji":"×","naisui":"○","kazan":"×"}}
,{"type":"Feature","geometry":{"type":"Point","coordinates":[135.8063132,34.99079852]},"properties":{"Name":"京都市立鏡山小学校","Jusho":"京都府京都市山科区御陵血洗町18","kouzui":"○","gake":"○","takashio":"×","jishin":"○","tsunami":"×","kaji":"×","naisui":"○","kazan":"×"}}
,{"type":"Feature","geometry":{"type":"Point","coordinates":[135.8030005,34.99262652]},"properties":{"Name":"京都市立陵ケ岡小学校","Jusho":"京都府京都市山科区御陵岡町45","kouzui":"○","gake":"○","takashio":"×","jishin":"○","tsunami":"×","kaji":"×","naisui":"○","kazan":"×"}}
,{"type":"Feature","geometry":{"type":"Point","coordinates":[135.8253539,34.98593835]},"properties":{"Name":"京都市立音羽小学校","Jusho":"京都府京都市山科区音羽森廻り町32","kouzui":"○","gake":"○","takashio":"×","jishin":"○","tsunami":"×","kaji":"×","naisui":"○","kazan":"×"}}
,{"type":"Feature","geometry":{"type":"Point","coordinates":[135.8209175,34.98282343]},"properties":{"Name":"京都市立音羽川小学校","Jusho":"京都府京都市山科区音羽西林36","kouzui":"○","gake":"×","takashio":"×","jishin":"○","tsunami":"×","kaji":"×","naisui":"○","kazan":"×"}}
,{"type":"Feature","geometry":{"type":"Point","coordinates":[135.8299903,34.98302524]},"properties":{"Name":"京都市立大塚小学校","Jusho":"京都府京都市山科区大塚野溝町59","kouzui":"○","gake":"○","takashio":"×","jishin":"○","tsunami":"×","kaji":"×","naisui":"○","kazan":"×"}}
,{"type":"Feature","geometry":{"type":"Point","coordinates":[135.8083147,34.97021697]},"properties":{"Name":"京都市立勧修小学校","Jusho":"京都府京都市山科区勧修寺東栗栖野町42","kouzui":"○","gake":"×","takashio":"×","jishin":"○","tsunami":"×","kaji":"×","naisui":"○","kazan":"×"}}
,{"type":"Feature","geometry":{"type":"Point","coordinates":[135.81180365092,34.963685168618]},"properties":{"Name":"京都市立小野小学校","Jusho":"京都府京都市山科区小野蚊ヶ瀬町2","kouzui":"○","gake":"○","takashio":"×","jishin":"○","tsunami":"×","kaji":"×","naisui":"○","kazan":"×"}}
,{"type":"Feature","geometry":{"type":"Point","coordinates":[135.7961774,34.97689968]},"properties":{"Name":"京都市立百々小学校","Jusho":"京都府京都市山科区西野山百々町173-1","kouzui":"○","gake":"○","takashio":"×","jishin":"○","tsunami":"×","kaji":"×","naisui":"○","kazan":"×"}}
,{"type":"Feature","geometry":{"type":"Point","coordinates":[135.8238936,34.97417966]},"properties":{"Name":"京都市立大宅小学校","Jusho":"京都府京都市山科区大宅五反畑町69-2","kouzui":"○","gake":"○","takashio":"×","jishin":"○","tsunami":"×","kaji":"×","naisui":"○","kazan":"×"}}
,{"type":"Feature","geometry":{"type":"Point","coordinates":[135.8103557,34.97695862]},"properties":{"Name":"京都市立山科中学校","Jusho":"京都府京都市山科区東野八反畑町50-1","kouzui":"○","gake":"×","takashio":"×","jishin":"○","tsunami":"×","kaji":"×","naisui":"○","kazan":"×"}}
,{"type":"Feature","geometry":{"type":"Point","coordinates":[135.81221749021,34.96647379615]},"properties":{"Name":"京都市立勧修中学校","Jusho":"京都府京都市山科区勧修寺平田町92","kouzui":"○","gake":"○","takashio":"×","jishin":"○","tsunami":"×","kaji":"×","naisui":"○","kazan":"×"}}
,{"type":"Feature","geometry":{"type":"Point","coordinates":[135.8215615,34.96705161]},"properties":{"Name":"京都市立大宅中学校","Jusho":"京都府京都市山科区大宅山田113","kouzui":"○","gake":"○","takashio":"×","jishin":"○","tsunami":"×","kaji":"×","naisui":"○","kazan":"×"}}
,{"type":"Feature","geometry":{"type":"Point","coordinates":[135.8128482,34.98597074]},"properties":{"Name":"京都市立安祥寺中学校","Jusho":"京都府京都市山科区西野今屋敷町9-6","kouzui":"○","gake":"×","takashio":"×","jishin":"○","tsunami":"×","kaji":"×","naisui":"○","kazan":"×"}}
,{"type":"Feature","geometry":{"type":"Point","coordinates":[135.8284027,34.98286966]},"properties":{"Name":"京都市立音羽中学校","Jusho":"京都府京都市山科区大塚野溝町86","kouzui":"○","gake":"○","takashio":"×","jishin":"○","tsunami":"×","kaji":"×","naisui":"○","kazan":"×"}}
,{"type":"Feature","geometry":{"type":"Point","coordinates":[135.8031434295,34.988654013513]},"properties":{"Name":"京都市立花山中学校","Jusho":"京都府京都市山科区北花山横田町27-1","kouzui":"○","gake":"○","takashio":"×","jishin":"○","tsunami":"×","kaji":"×","naisui":"○","kazan":"×"}}
,{"type":"Feature","geometry":{"type":"Point","coordinates":[135.8170773,34.99683102]},"properties":{"Name":"京都府立洛東高等学校","Jusho":"京都府京都市山科区安朱川向町10","kouzui":"○","gake":"×","takashio":"×","jishin":"○","tsunami":"×","kaji":"×","naisui":"○","kazan":"×"}}
,{"type":"Feature","geometry":{"type":"Point","coordinates":[135.8261287,34.96853602]},"properties":{"Name":"京都橘大学","Jusho":"京都府京都市山科区大宅山田町34","kouzui":"○","gake":"×","takashio":"×","jishin":"○","tsunami":"×","kaji":"×","naisui":"○","kazan":"×"}}
,{"type":"Feature","geometry":{"type":"Point","coordinates":[135.809742952,34.9906380368]},"properties":{"Name":"京都薬科大学","Jusho":"京都府京都市山科区御陵中内町5","kouzui":"○","gake":"○","takashio":"×","jishin":"○","tsunami":"×","kaji":"×","naisui":"○","kazan":"×"}}
,{"type":"Feature","geometry":{"type":"Point","coordinates":[135.8317893,34.97890683]},"properties":{"Name":"京都市立東総合支援学校","Jusho":"京都府京都市山科区大塚高岩3","kouzui":"○","gake":"×","takashio":"×","jishin":"○","tsunami":"×","kaji":"×","naisui":"○","kazan":"×"}}
,{"type":"Feature","geometry":{"type":"Point","coordinates":[135.8285934,34.99559108]},"properties":{"Name":"一燈園小学校・中学校・高等学校","Jusho":"京都府京都市山科区四ノ宮柳山町29","kouzui":"○","gake":"×","takashio":"×","jishin":"○","tsunami":"×","kaji":"×","naisui":"○","kazan":"×"}}
,{"type":"Feature","geometry":{"type":"Point","coordinates":[135.8176434,34.99009606]},"properties":{"Name":"京都市生涯学習総合センター山科","Jusho":"京都府京都市山科区竹鼻竹ノ街道町92 ラクト山科C棟2階","kouzui":"○","gake":"○","takashio":"×","jishin":"○","tsunami":"×","kaji":"×","naisui":"○","kazan":"×"}}
,{"type":"Feature","geometry":{"type":"Point","coordinates":[135.81402866878,34.976375659267]},"properties":{"Name":"京都市東部文化会館","Jusho":"京都府京都市山科区椥辻西浦町1-8","kouzui":"×","gake":"×","takashio":"×","jishin":"○","tsunami":"×","kaji":"×","naisui":"×","kazan":"×"}}
,{"type":"Feature","geometry":{"type":"Point","coordinates":[135.8136837,34.9769072]},"properties":{"Name":"山科地域体育館","Jusho":"京都府京都市山科区椥辻西浦町1-12","kouzui":"○","gake":"×","takashio":"×","jishin":"○","tsunami":"×","kaji":"×","naisui":"○","kazan":"×"}}
,{"type":"Feature","geometry":{"type":"Point","coordinates":[135.816519197,34.9763943346]},"properties":{"Name":"京都刑務所 鍛錬場","Jusho":"京都府京都市山科区東野井ノ上町20","kouzui":"○","gake":"×","takashio":"×","jishin":"○","tsunami":"×","kaji":"×","naisui":"○","kazan":"×"}}
,{"type":"Feature","geometry":{"type":"Point","coordinates":[135.79504866304,35.000672080595]},"properties":{"Name":"東山老年サナトリウム","Jusho":"京都府京都市山科区日ノ岡夷谷町11","kouzui":"×","gake":"×","takashio":"×","jishin":"○","tsunami":"×","kaji":"×","naisui":"×","kazan":"×"}}
,{"type":"Feature","geometry":{"type":"Point","coordinates":[135.8153726,34.9834139]},"properties":{"Name":"本願寺山科別院","Jusho":"京都府京都市山科区東野狐藪町2","kouzui":"○","gake":"×","takashio":"×","jishin":"○","tsunami":"×","kaji":"×","naisui":"○","kazan":"×"}}
,{"type":"Feature","geometry":{"type":"Point","coordinates":[135.8142605,34.98576158]},"properties":{"Name":"東本願寺山科別院長福寺","Jusho":"京都府京都市山科区竹鼻サイカシ町13-17","kouzui":"○","gake":"×","takashio":"×","jishin":"○","tsunami":"×","kaji":"×","naisui":"○","kazan":"×"}}
,{"type":"Feature","geometry":{"type":"Point","coordinates":[135.811925,34.984348]},"properties":{"Name":"山科中央公園・安祥寺中学校グラウンド、山階小学校グラウンド","Jusho":"京都府京都市山科区西野阿芸沢町","kouzui":"×","gake":"×","takashio":"×","jishin":"○","tsunami":"×","kaji":"○","naisui":"×","kazan":"×"}}
,{"type":"Feature","geometry":{"type":"Point","coordinates":[135.811464,34.976371]},"properties":{"Name":"東野公園・山科中学校グラウンド","Jusho":"京都府京都市山科区東野八反畑町","kouzui":"×","gake":"×","takashio":"×","jishin":"○","tsunami":"×","kaji":"○","naisui":"×","kazan":"×"}}
,{"type":"Feature","geometry":{"type":"Point","coordinates":[135.805187,34.954795]},"properties":{"Name":"龍谷大学グラウンド","Jusho":"京都府京都市山科区勧修寺南大日町","kouzui":"×","gake":"×","takashio":"×","jishin":"○","tsunami":"×","kaji":"○","naisui":"×","kazan":"×"}}
,{"type":"Feature","geometry":{"type":"Point","coordinates":[135.810315,34.96648]},"properties":{"Name":"勧修寺公園・勧修中学校グラウンド","Jusho":"京都府京都市山科区勧修寺東金ケ崎","kouzui":"×","gake":"×","takashio":"×","jishin":"○","tsunami":"×","kaji":"○","naisui":"×","kazan":"×"}}
,{"type":"Feature","geometry":{"type":"Point","coordinates":[135.807332,34.990963]},"properties":{"Name":"京都薬科大学グラウンド","Jusho":"京都府京都市山科区御陵中筋町","kouzui":"×","gake":"×","takashio":"×","jishin":"○","tsunami":"×","kaji":"○","naisui":"×","kazan":"×"}}
,{"type":"Feature","geometry":{"type":"Point","coordinates":[135.7617556,35.00170189]},"properties":{"Name":"京都市立洛央小学校","Jusho":"京都府京都市下京区仏光寺通東洞院東入仏光寺西町345-1","kouzui":"○","gake":"×","takashio":"×","jishin":"○","tsunami":"×","kaji":"×","naisui":"○","kazan":"×"}}
,{"type":"Feature","geometry":{"type":"Point","coordinates":[135.76208486561,34.990028246725]},"properties":{"Name":"京都市立下京渉成小学校","Jusho":"京都府京都市下京区皆山町438-1","kouzui":"○","gake":"×","takashio":"×","jishin":"○","tsunami":"×","kaji":"×","naisui":"○","kazan":"×"}}
,{"type":"Feature","geometry":{"type":"Point","coordinates":[135.75288156335,34.998176958691]},"properties":{"Name":"京都市立下京雅小学校","Jusho":"京都府京都市下京区醒ヶ井通松原下ル篠屋町59","kouzui":"○","gake":"×","takashio":"×","jishin":"○","tsunami":"×","kaji":"×","naisui":"○","kazan":"×"}}
,{"type":"Feature","geometry":{"type":"Point","coordinates":[135.7495406,34.99329272]},"properties":{"Name":"元京都市立淳風小学校","Jusho":"京都府京都市下京区大宮通花屋町上ル柿本町609-1","kouzui":"○","gake":"×","takashio":"×","jishin":"○","tsunami":"×","kaji":"×","naisui":"○","kazan":"×"}}
,{"type":"Feature","geometry":{"type":"Point","coordinates":[135.74530623928,34.988374852721]},"properties":{"Name":"京都市立梅小路小学校","Jusho":"京都府京都市下京区観喜寺町3","kouzui":"○","gake":"×","takashio":"×","jishin":"○","tsunami":"×","kaji":"×","naisui":"○","kazan":"×"}}
,{"type":"Feature","geometry":{"type":"Point","coordinates":[135.74375350794,34.996833687937]},"properties":{"Name":"京都市立光徳小学校","Jusho":"京都府京都市下京区中堂寺坊城町26-1","kouzui":"○","gake":"×","takashio":"×","jishin":"○","tsunami":"×","kaji":"×","naisui":"○","kazan":"×"}}
,{"type":"Feature","geometry":{"type":"Point","coordinates":[135.735116,34.98717357]},"properties":{"Name":"京都市立七条小学校","Jusho":"京都府京都市下京区西七条石井町61","kouzui":"○","gake":"×","takashio":"×","jishin":"○","tsunami":"×","kaji":"×","naisui":"○","kazan":"×"}}
,{"type":"Feature","geometry":{"type":"Point","coordinates":[135.7278315,34.9871525]},"properties":{"Name":"京都市立西大路小学校","Jusho":"京都府京都市下京区七条御所ノ内西町71-1","kouzui":"○","gake":"×","takashio":"×","jishin":"○","tsunami":"×","kaji":"×","naisui":"○","kazan":"×"}}
,{"type":"Feature","geometry":{"type":"Point","coordinates":[135.7331854,34.99319523]},"properties":{"Name":"京都市立七条第三小学校","Jusho":"京都府京都市下京区西七条西石ヶ坪町5","kouzui":"○","gake":"×","takashio":"×","jishin":"○","tsunami":"×","kaji":"×","naisui":"○","kazan":"×"}}
,{"type":"Feature","geometry":{"type":"Point","coordinates":[135.7525683,34.987504]},"properties":{"Name":"元京都市立安寧小学校","Jusho":"京都府京都市下京区東堀川通木津屋橋下る御方紺屋町1","kouzui":"○","gake":"×","takashio":"×","jishin":"○","tsunami":"×","kaji":"×","naisui":"○","kazan":"×"}}
,{"type":"Feature","geometry":{"type":"Point","coordinates":[135.7533376,35.00062639]},"properties":{"Name":"元京都市立格致小学校","Jusho":"京都府京都市下京区高辻通堀川東入西高辻町602","kouzui":"○","gake":"×","takashio":"×","jishin":"○","tsunami":"×","kaji":"×","naisui":"○","kazan":"×"}}
,{"type":"Feature","geometry":{"type":"Point","coordinates":[135.766962,34.98664326]},"properties":{"Name":"元京都市立崇仁小学校","Jusho":"京都府京都市下京区川端町16","kouzui":"×","gake":"×","takashio":"×","jishin":"○","tsunami":"×","kaji":"×","naisui":"×","kazan":"×"}}
,{"type":"Feature","geometry":{"type":"Point","coordinates":[135.76420777421,34.997318068055]},"properties":{"Name":"元京都市立有隣小学校","Jusho":"京都府京都市下京区富小路通五条上る本神明町411","kouzui":"○","gake":"×","takashio":"×","jishin":"○","tsunami":"×","kaji":"×","naisui":"○","kazan":"×"}}
,{"type":"Feature","geometry":{"type":"Point","coordinates":[135.7572522,34.99524222]},"properties":{"Name":"京都市立下京中学校","Jusho":"京都府京都市下京区楊梅通新町東入蛭子町120-1","kouzui":"○","gake":"×","takashio":"×","jishin":"○","tsunami":"×","kaji":"×","naisui":"○","kazan":"×"}}
,{"type":"Feature","geometry":{"type":"Point","coordinates":[135.757445,34.999999]},"properties":{"Name":"京都市立下京中学校成徳学舎","Jusho":"京都府京都市下京区高辻通室町西入繁昌町290","kouzui":"○","gake":"×","takashio":"×","jishin":"○","tsunami":"×","kaji":"×","naisui":"○","kazan":"×"}}
,{"type":"Feature","geometry":{"type":"Point","coordinates":[135.73724903121,34.990700835614]},"properties":{"Name":"京都市立七条中学校","Jusho":"京都府京都市下京区西七条御領町32","kouzui":"○","gake":"×","takashio":"×","jishin":"○","tsunami":"×","kaji":"×","naisui":"○","kazan":"×"}}
,{"type":"Feature","geometry":{"type":"Point","coordinates":[135.7486896,35.00187657]},"properties":{"Name":"京都市立洛友中学校(元郁文中学校)","Jusho":"京都府京都市下京区大宮通綾小路下ル綾大宮町51-2","kouzui":"○","gake":"×","takashio":"×","jishin":"○","tsunami":"×","kaji":"×","naisui":"○","kazan":"×"}}
,{"type":"Feature","geometry":{"type":"Point","coordinates":[135.7494457,34.98645351]},"properties":{"Name":"元京都市立梅逕中学校","Jusho":"京都府京都市下京区大宮通八条上る三丁目東側垣ケ内町248","kouzui":"○","gake":"×","takashio":"×","jishin":"○","tsunami":"×","kaji":"×","naisui":"○","kazan":"×"}}
,{"type":"Feature","geometry":{"type":"Point","coordinates":[135.7445288,34.99792017]},"properties":{"Name":"京都産業大学附属中学校・高等学校","Jusho":"京都府京都市下京区中堂寺命婦町1-10","kouzui":"○","gake":"×","takashio":"×","jishin":"○","tsunami":"×","kaji":"×","naisui":"○","kazan":"×"}}
,{"type":"Feature","geometry":{"type":"Point","coordinates":[135.7483592,34.9901847]},"properties":{"Name":"龍谷大学付属 平安中学校・平安高等学校","Jusho":"京都府京都市下京区御器屋町30","kouzui":"○","gake":"×","takashio":"×","jishin":"○","tsunami":"×","kaji":"×","naisui":"○","kazan":"×"}}
,{"type":"Feature","geometry":{"type":"Point","coordinates":[135.76571335212,35.000784916564]},"properties":{"Name":"京都市学校歴史博物館","Jusho":"京都府京都市下京区御幸町通仏光寺下ル橘町437","kouzui":"○","gake":"×","takashio":"×","jishin":"○","tsunami":"×","kaji":"×","naisui":"○","kazan":"×"}}
,{"type":"Feature","geometry":{"type":"Point","coordinates":[135.7569249,34.99797934]},"properties":{"Name":"京都市修徳特別養護老人ホーム","Jusho":"京都府京都市下京区新町通松原下ル富永町110-1","kouzui":"○","gake":"×","takashio":"×","jishin":"○","tsunami":"×","kaji":"×","naisui":"○","kazan":"×"}}
,{"type":"Feature","geometry":{"type":"Point","coordinates":[135.7680559,35.00223113]},"properties":{"Name":"京都市総合教育センター","Jusho":"京都府京都市下京区河原町通松原上ル二丁目富永町344","kouzui":"○","gake":"×","takashio":"×","jishin":"○","tsunami":"×","kaji":"×","naisui":"○","kazan":"×"}}
,{"type":"Feature","geometry":{"type":"Point","coordinates":[135.7662933,34.98640137]},"properties":{"Name":"下京地域体育館","Jusho":"京都府京都市下京区川端町13","kouzui":"○","gake":"×","takashio":"×","jishin":"○","tsunami":"×","kaji":"×","naisui":"○","kazan":"×"}}
,{"type":"Feature","geometry":{"type":"Point","coordinates":[135.7651094,34.99322865]},"properties":{"Name":"ひと・まち交流館 京都","Jusho":"京都府京都市下京区西木屋町通上ノ口上ル梅湊町83-1","kouzui":"○","gake":"×","takashio":"×","jishin":"○","tsunami":"×","kaji":"×","naisui":"○","kazan":"×"}}
,{"type":"Feature","geometry":{"type":"Point","coordinates":[135.7579273,35.00305103]},"properties":{"Name":"池坊学園","Jusho":"京都府京都市下京区室町通四条下ル鶏鉾町491","kouzui":"○","gake":"×","takashio":"×","jishin":"○","tsunami":"×","kaji":"×","naisui":"○","kazan":"×"}}
,{"type":"Feature","geometry":{"type":"Point","coordinates":[135.751738,34.993806]},"properties":{"Name":"聞法会館","Jusho":"京都府京都市下京区堀川通花屋町上る柿本町６００番地１","kouzui":"○","gake":"×","takashio":"×","jishin":"○","tsunami":"×","kaji":"×","naisui":"○","kazan":"×"}}
,{"type":"Feature","geometry":{"type":"Point","coordinates":[135.76291274451,34.992534377866]},"properties":{"Name":"社会福祉法人錦会　稚松保育園","Jusho":"京都府京都市下京区河原町通上枳殻馬場上ル若松町420","kouzui":"○","gake":"×","takashio":"×","jishin":"○","tsunami":"×","kaji":"×","naisui":"○","kazan":"×"}}
,{"type":"Feature","geometry":{"type":"Point","coordinates":[135.746891,34.986726]},"properties":{"Name":"梅小路公園","Jusho":"京都府京都市下京区観喜寺町","kouzui":"×","gake":"×","takashio":"×","jishin":"○","tsunami":"×","kaji":"○","naisui":"×","kazan":"×"}}
,{"type":"Feature","geometry":{"type":"Point","coordinates":[135.743556,34.998117]},"properties":{"Name":"光徳公園・光徳小学校グラウンド・京都産業大学付属中学校・高等学校グラウンド","Jusho":"京都府京都市下京区中堂寺命婦町","kouzui":"×","gake":"×","takashio":"×","jishin":"○","tsunami":"×","kaji":"○","naisui":"×","kazan":"×"}}
,{"type":"Feature","geometry":{"type":"Point","coordinates":[135.754696,34.98105584]},"properties":{"Name":"京都市立九条弘道小学校","Jusho":"京都府京都市南区西九条春日町13","kouzui":"○","gake":"×","takashio":"×","jishin":"○","tsunami":"×","kaji":"×","naisui":"○","kazan":"×"}}
,{"type":"Feature","geometry":{"type":"Point","coordinates":[135.7484903,34.97597371]},"properties":{"Name":"京都市立九条塔南小学校","Jusho":"京都府京都市南区西九条御幸田町109","kouzui":"○","gake":"×","takashio":"×","jishin":"○","tsunami":"×","kaji":"×","naisui":"○","kazan":"×"}}
,{"type":"Feature","geometry":{"type":"Point","coordinates":[135.74423648095,34.980317731215]},"properties":{"Name":"京都市立南大内小学校","Jusho":"京都府京都市南区八条内田町20-2","kouzui":"○","gake":"×","takashio":"×","jishin":"○","tsunami":"×","kaji":"×","naisui":"○","kazan":"×"}}
,{"type":"Feature","geometry":{"type":"Point","coordinates":[135.73802892884,34.979634560915]},"properties":{"Name":"京都市立唐橋小学校","Jusho":"京都府京都市南区唐橋西寺町65","kouzui":"○","gake":"×","takashio":"×","jishin":"○","tsunami":"×","kaji":"×","naisui":"○","kazan":"×"}}
,{"type":"Feature","geometry":{"type":"Point","coordinates":[135.7325559,34.97486555]},"properties":{"Name":"京都市立吉祥院小学校","Jusho":"京都府京都市南区吉祥院船戸町34","kouzui":"○","gake":"×","takashio":"×","jishin":"○","tsunami":"×","kaji":"×","naisui":"○","kazan":"×"}}
,{"type":"Feature","geometry":{"type":"Point","coordinates":[135.7369818,34.96766162]},"properties":{"Name":"京都市立祥栄小学校","Jusho":"京都府京都市南区吉祥院蒔絵町14","kouzui":"○","gake":"×","takashio":"×","jishin":"○","tsunami":"×","kaji":"×","naisui":"○","kazan":"×"}}
,{"type":"Feature","geometry":{"type":"Point","coordinates":[135.7275565,34.97754398]},"properties":{"Name":"京都市立祥豊小学校","Jusho":"京都府京都市南区吉祥院三ノ宮町23","kouzui":"○","gake":"×","takashio":"×","jishin":"○","tsunami":"×","kaji":"×","naisui":"○","kazan":"×"}}
,{"type":"Feature","geometry":{"type":"Point","coordinates":[135.7431686,34.96390444]},"properties":{"Name":"京都市立上鳥羽小学校","Jusho":"京都府京都市南区上鳥羽城ヶ前町16","kouzui":"○","gake":"×","takashio":"×","jishin":"○","tsunami":"×","kaji":"×","naisui":"○","kazan":"×"}}
,{"type":"Feature","geometry":{"type":"Point","coordinates":[135.718607,34.96023266]},"properties":{"Name":"京都市立大藪小学校","Jusho":"京都府京都市南区久世大藪町62","kouzui":"○","gake":"×","takashio":"×","jishin":"○","tsunami":"×","kaji":"×","naisui":"○","kazan":"×"}}
,{"type":"Feature","geometry":{"type":"Point","coordinates":[135.7143701,34.96304998]},"properties":{"Name":"京都市立久世西小学校","Jusho":"京都府京都市南区久世上久世町454","kouzui":"○","gake":"×","takashio":"×","jishin":"○","tsunami":"×","kaji":"×","naisui":"○","kazan":"×"}}
,{"type":"Feature","geometry":{"type":"Point","coordinates":[135.7620261,34.98287473]},"properties":{"Name":"元京都市立山王小学校","Jusho":"京都府京都市南区東九条東山王町27","kouzui":"○","gake":"×","takashio":"×","jishin":"○","tsunami":"×","kaji":"×","naisui":"○","kazan":"×"}}
,{"type":"Feature","geometry":{"type":"Point","coordinates":[135.7625606,34.97863614]},"properties":{"Name":"元京都市立陶化小学校","Jusho":"京都府京都市南区東九条中御霊町55","kouzui":"○","gake":"×","takashio":"×","jishin":"○","tsunami":"×","kaji":"×","naisui":"○","kazan":"×"}}
,{"type":"Feature","geometry":{"type":"Point","coordinates":[135.7589939,34.97813556]},"properties":{"Name":"元京都市立東和小学校(凌風小・中学校第２校舎)","Jusho":"京都府京都市南区東九条南烏丸町19","kouzui":"○","gake":"×","takashio":"×","jishin":"○","tsunami":"×","kaji":"×","naisui":"○","kazan":"×"}}
,{"type":"Feature","geometry":{"type":"Point","coordinates":[135.75761636156,34.979093464302]},"properties":{"Name":"京都市立凌風小学校・中学校(凌風学園)","Jusho":"京都府京都市南区東九条下殿田町56","kouzui":"○","gake":"×","takashio":"×","jishin":"○","tsunami":"×","kaji":"×","naisui":"○","kazan":"×"}}
,{"type":"Feature","geometry":{"type":"Point","coordinates":[135.7386293,34.98267562]},"properties":{"Name":"京都市立八条中学校","Jusho":"京都府京都市南区唐橋門脇町35","kouzui":"○","gake":"×","takashio":"×","jishin":"○","tsunami":"×","kaji":"×","naisui":"○","kazan":"×"}}
,{"type":"Feature","geometry":{"type":"Point","coordinates":[135.7502029,34.9808772]},"properties":{"Name":"京都市立九条中学校","Jusho":"京都府京都市南区西九条南小路町1","kouzui":"○","gake":"×","takashio":"×","jishin":"○","tsunami":"×","kaji":"×","naisui":"○","kazan":"×"}}
,{"type":"Feature","geometry":{"type":"Point","coordinates":[135.73845193863,34.974739109846]},"properties":{"Name":"京都市立洛南中学校","Jusho":"京都府京都市南区吉祥院落合町31","kouzui":"○","gake":"×","takashio":"×","jishin":"○","tsunami":"×","kaji":"×","naisui":"○","kazan":"×"}}
,{"type":"Feature","geometry":{"type":"Point","coordinates":[135.7189413,34.95667369]},"properties":{"Name":"京都市立久世中学校","Jusho":"京都府京都市南区久世殿城町481-1","kouzui":"○","gake":"×","takashio":"×","jishin":"○","tsunami":"×","kaji":"×","naisui":"○","kazan":"×"}}
,{"type":"Feature","geometry":{"type":"Point","coordinates":[135.7468764,34.98284843]},"properties":{"Name":"洛南高等学校・洛南高等学校附属中学校","Jusho":"京都府京都市南区壬生通八条下ル東寺町559","kouzui":"○","gake":"×","takashio":"×","jishin":"○","tsunami":"×","kaji":"×","naisui":"○","kazan":"×"}}
,{"type":"Feature","geometry":{"type":"Point","coordinates":[135.7339214,34.96766171]},"properties":{"Name":"京都市立塔南高等学校","Jusho":"京都府京都市南区吉祥院観音堂町41","kouzui":"○","gake":"×","takashio":"×","jishin":"○","tsunami":"×","kaji":"×","naisui":"○","kazan":"×"}}
,{"type":"Feature","geometry":{"type":"Point","coordinates":[135.74496367554,34.97842595806]},"properties":{"Name":"京都府立鳥羽高等学校","Jusho":"京都府京都市南区西九条大国町1","kouzui":"○","gake":"×","takashio":"×","jishin":"○","tsunami":"×","kaji":"×","naisui":"○","kazan":"×"}}
,{"type":"Feature","geometry":{"type":"Point","coordinates":[135.75771,34.977725]},"properties":{"Name":"殿田公園・凌風学園グラウンド","Jusho":"京都府京都市南区東九条下殿田町","kouzui":"×","gake":"×","takashio":"×","jishin":"○","tsunami":"×","kaji":"○","naisui":"×","kazan":"×"}}
,{"type":"Feature","geometry":{"type":"Point","coordinates":[135.750862,34.97085]},"properties":{"Name":"上鳥羽公園（グラウンド）","Jusho":"京都府京都市南区上鳥羽仏現寺町","kouzui":"×","gake":"×","takashio":"×","jishin":"○","tsunami":"×","kaji":"○","naisui":"×","kazan":"×"}}
,{"type":"Feature","geometry":{"type":"Point","coordinates":[135.724429,34.971272]},"properties":{"Name":"吉祥院公園（グラウンド）、桂川左岸久世橋上流","Jusho":"京都府京都市南区吉祥院新田下ノ向町","kouzui":"×","gake":"×","takashio":"×","jishin":"○","tsunami":"×","kaji":"○","naisui":"×","kazan":"×"}}
,{"type":"Feature","geometry":{"type":"Point","coordinates":[135.733465,34.966792]},"properties":{"Name":"塔南高等学校グラウンド","Jusho":"京都府京都市南区吉祥院観音堂町","kouzui":"×","gake":"×","takashio":"×","jishin":"○","tsunami":"×","kaji":"○","naisui":"×","kazan":"×"}}
,{"type":"Feature","geometry":{"type":"Point","coordinates":[135.709443,34.965368]},"properties":{"Name":"陸上自衛隊桂駐とん地","Jusho":"京都府京都市南区久世高田町","kouzui":"×","gake":"×","takashio":"×","jishin":"○","tsunami":"×","kaji":"○","naisui":"×","kazan":"×"}}
,{"type":"Feature","geometry":{"type":"Point","coordinates":[135.717178,34.979755]},"properties":{"Name":"桂川左岸（桂大橋～東海道線）","Jusho":"京都府京都市南区吉祥院堤外町","kouzui":"×","gake":"×","takashio":"×","jishin":"○","tsunami":"×","kaji":"○","naisui":"×","kazan":"×"}}
,{"type":"Feature","geometry":{"type":"Point","coordinates":[135.723444,34.960097]},"properties":{"Name":"久世橋西詰公園","Jusho":"京都府京都市南区久世川原町","kouzui":"×","gake":"×","takashio":"×","jishin":"○","tsunami":"×","kaji":"○","naisui":"×","kazan":"×"}}
,{"type":"Feature","geometry":{"type":"Point","coordinates":[135.676545,35.02108011]},"properties":{"Name":"京都市立嵯峨小学校","Jusho":"京都府京都市右京区嵯峨釈迦堂大門町35-1","kouzui":"○","gake":"○","takashio":"×","jishin":"○","tsunami":"×","kaji":"×","naisui":"○","kazan":"×"}}
,{"type":"Feature","geometry":{"type":"Point","coordinates":[135.68749994997,35.022483718072]},"properties":{"Name":"京都市立広沢小学校","Jusho":"京都府京都市右京区嵯峨広沢西裏町25","kouzui":"×","gake":"×","takashio":"×","jishin":"○","tsunami":"×","kaji":"×","naisui":"×","kazan":"×"}}
,{"type":"Feature","geometry":{"type":"Point","coordinates":[135.6866354,35.013426]},"properties":{"Name":"京都市立嵐山小学校","Jusho":"京都府京都市右京区嵯峨柳田町35-1","kouzui":"×","gake":"×","takashio":"×","jishin":"○","tsunami":"×","kaji":"×","naisui":"×","kazan":"×"}}
,{"type":"Feature","geometry":{"type":"Point","coordinates":[135.62537203742,35.045355807283]},"properties":{"Name":"京都市立水尾小学校(休校中)","Jusho":"京都府京都市右京区嵯峨水尾宮ノ脇町32-2","kouzui":"×","gake":"○","takashio":"×","jishin":"○","tsunami":"×","kaji":"×","naisui":"×","kazan":"×"}}
,{"type":"Feature","geometry":{"type":"Point","coordinates":[135.7070716,35.01250895]},"properties":{"Name":"京都市立太秦小学校","Jusho":"京都府京都市右京区太秦奥殿町1-1","kouzui":"○","gake":"×","takashio":"×","jishin":"○","tsunami":"×","kaji":"×","naisui":"○","kazan":"×"}}
,{"type":"Feature","geometry":{"type":"Point","coordinates":[135.7033323,35.00952232]},"properties":{"Name":"京都市立南太秦小学校","Jusho":"京都府京都市右京区太秦前ノ田町22","kouzui":"○","gake":"×","takashio":"×","jishin":"○","tsunami":"×","kaji":"×","naisui":"○","kazan":"×"}}
,{"type":"Feature","geometry":{"type":"Point","coordinates":[135.7028742,35.02213859]},"properties":{"Name":"京都市立常磐野小学校","Jusho":"京都府京都市右京区太秦京ノ道町20-5","kouzui":"○","gake":"×","takashio":"×","jishin":"○","tsunami":"×","kaji":"×","naisui":"○","kazan":"×"}}
,{"type":"Feature","geometry":{"type":"Point","coordinates":[135.7203562,35.01447258]},"properties":{"Name":"京都市立安井小学校","Jusho":"京都府京都市右京区太秦安井柳通町15","kouzui":"○","gake":"×","takashio":"×","jishin":"○","tsunami":"×","kaji":"×","naisui":"○","kazan":"×"}}
,{"type":"Feature","geometry":{"type":"Point","coordinates":[135.696132,35.01222424]},"properties":{"Name":"京都市立嵯峨野小学校","Jusho":"京都府京都市右京区嵯峨野千代ノ道町53","kouzui":"○","gake":"○","takashio":"×","jishin":"○","tsunami":"×","kaji":"×","naisui":"○","kazan":"×"}}
,{"type":"Feature","geometry":{"type":"Point","coordinates":[135.7167069,35.02702831]},"properties":{"Name":"京都市立御室小学校","Jusho":"京都府京都市右京区御室竪町19","kouzui":"○","gake":"○","takashio":"×","jishin":"○","tsunami":"×","kaji":"×","naisui":"○","kazan":"×"}}
,{"type":"Feature","geometry":{"type":"Point","coordinates":[135.7092799,35.03128324]},"properties":{"Name":"京都市立宇多野小学校","Jusho":"京都府京都市右京区宇多野上ノ谷8","kouzui":"○","gake":"○","takashio":"×","jishin":"○","tsunami":"×","kaji":"×","naisui":"○","kazan":"×"}}
,{"type":"Feature","geometry":{"type":"Point","coordinates":[135.7220378,35.01904418]},"properties":{"Name":"京都市立花園小学校","Jusho":"京都府京都市右京区花園車道町1","kouzui":"○","gake":"×","takashio":"×","jishin":"○","tsunami":"×","kaji":"×","naisui":"○","kazan":"×"}}
,{"type":"Feature","geometry":{"type":"Point","coordinates":[135.7293751,35.00561942]},"properties":{"Name":"京都市立西院小学校","Jusho":"京都府京都市右京区西院春日町3-1","kouzui":"○","gake":"×","takashio":"×","jishin":"○","tsunami":"×","kaji":"×","naisui":"○","kazan":"×"}}
,{"type":"Feature","geometry":{"type":"Point","coordinates":[135.7218404,35.00565557]},"properties":{"Name":"京都市立山ノ内小学校","Jusho":"京都府京都市右京区山ノ内山ノ下町22","kouzui":"○","gake":"×","takashio":"×","jishin":"○","tsunami":"×","kaji":"×","naisui":"○","kazan":"×"}}
,{"type":"Feature","geometry":{"type":"Point","coordinates":[135.68197778954,35.045368578915]},"properties":{"Name":"京都市立高雄小学校","Jusho":"京都府京都市右京区梅ヶ畑奥殿町15","kouzui":"×","gake":"×","takashio":"×","jishin":"○","tsunami":"×","kaji":"×","naisui":"×","kazan":"×"}}
,{"type":"Feature","geometry":{"type":"Point","coordinates":[135.6999424,35.00142466]},"properties":{"Name":"京都市立梅津小学校","Jusho":"京都府京都市右京区梅津中村町38","kouzui":"○","gake":"×","takashio":"×","jishin":"○","tsunami":"×","kaji":"×","naisui":"○","kazan":"×"}}
,{"type":"Feature","geometry":{"type":"Point","coordinates":[135.7002731,35.00621453]},"properties":{"Name":"京都市立梅津北小学校","Jusho":"京都府京都市右京区梅津開キ町16","kouzui":"○","gake":"×","takashio":"×","jishin":"○","tsunami":"×","kaji":"×","naisui":"○","kazan":"×"}}
,{"type":"Feature","geometry":{"type":"Point","coordinates":[135.7193507,34.9874771]},"properties":{"Name":"京都市立西京極小学校","Jusho":"京都府京都市右京区西京極芝ノ下町31","kouzui":"○","gake":"×","takashio":"×","jishin":"○","tsunami":"×","kaji":"×","naisui":"○","kazan":"×"}}
,{"type":"Feature","geometry":{"type":"Point","coordinates":[135.7161277,34.9862409]},"properties":{"Name":"京都市立西京極西小学校","Jusho":"京都府京都市右京区西京極藪開町4-1","kouzui":"○","gake":"×","takashio":"×","jishin":"○","tsunami":"×","kaji":"×","naisui":"○","kazan":"×"}}
,{"type":"Feature","geometry":{"type":"Point","coordinates":[135.71803,34.99850129]},"properties":{"Name":"京都市立葛野小学校","Jusho":"京都府京都市右京区西京極葛野町2","kouzui":"○","gake":"×","takashio":"×","jishin":"○","tsunami":"×","kaji":"×","naisui":"○","kazan":"×"}}
,{"type":"Feature","geometry":{"type":"Point","coordinates":[135.63530773833,35.155628782111]},"properties":{"Name":"元京都市立京北第一小学校","Jusho":"京都府京都市右京区京北周山町下寺田11","kouzui":"×","gake":"×","takashio":"×","jishin":"○","tsunami":"×","kaji":"×","naisui":"×","kazan":"×"}}
,{"type":"Feature","geometry":{"type":"Point","coordinates":[135.6620181,35.18040186]},"properties":{"Name":"元京都市立京北第二小学校","Jusho":"京都府京都市右京区京北塔町中筋浦8-1","kouzui":"○","gake":"○","takashio":"×","jishin":"○","tsunami":"×","kaji":"×","naisui":"○","kazan":"×"}}
,{"type":"Feature","geometry":{"type":"Point","coordinates":[135.639108,35.20282793]},"properties":{"Name":"元京都市立京北第三小学校","Jusho":"京都府京都市右京区京北上弓削町弾正27","kouzui":"○","gake":"○","takashio":"×","jishin":"○","tsunami":"×","kaji":"×","naisui":"○","kazan":"×"}}
,{"type":"Feature","geometry":{"type":"Point","coordinates":[135.5926378,35.13974799]},"properties":{"Name":"元京都市立宇津小学校","Jusho":"京都府京都市右京区京北中地町蛸谷口13","kouzui":"○","gake":"○","takashio":"×","jishin":"○","tsunami":"×","kaji":"×","naisui":"○","kazan":"×"}}
,{"type":"Feature","geometry":{"type":"Point","coordinates":[135.7197899,35.20373914]},"properties":{"Name":"元京都市立黒田小学校","Jusho":"京都府京都市右京区京北宮町宮野54","kouzui":"○","gake":"○","takashio":"×","jishin":"○","tsunami":"×","kaji":"×","naisui":"○","kazan":"×"}}
,{"type":"Feature","geometry":{"type":"Point","coordinates":[135.642989,35.124342]},"properties":{"Name":"元京都市立細野小学校","Jusho":"京都府京都市右京区京北細野町東ノ垣内30","kouzui":"×","gake":"×","takashio":"×","jishin":"○","tsunami":"×","kaji":"×","naisui":"×","kazan":"×"}}
,{"type":"Feature","geometry":{"type":"Point","coordinates":[135.61088177851,35.082990540801]},"properties":{"Name":"京都市立宕陰小中学校","Jusho":"京都府京都市右京区嵯峨越畑南ノ町32-2","kouzui":"×","gake":"×","takashio":"×","jishin":"○","tsunami":"×","kaji":"×","naisui":"×","kazan":"×"}}
,{"type":"Feature","geometry":{"type":"Point","coordinates":[135.6984036,35.01642091]},"properties":{"Name":"京都市立蜂ヶ岡中学校","Jusho":"京都府京都市右京区嵯峨野開町1-1","kouzui":"○","gake":"○","takashio":"×","jishin":"○","tsunami":"×","kaji":"×","naisui":"○","kazan":"×"}}
,{"type":"Feature","geometry":{"type":"Point","coordinates":[135.7038494,35.01189264]},"properties":{"Name":"京都市立太秦中学校","Jusho":"京都府京都市右京区太秦多藪町14-144","kouzui":"○","gake":"×","takashio":"×","jishin":"○","tsunami":"×","kaji":"×","naisui":"○","kazan":"×"}}
,{"type":"Feature","geometry":{"type":"Point","coordinates":[135.68405991007,35.022713565251]},"properties":{"Name":"京都市立嵯峨中学校","Jusho":"京都府京都市右京区嵯峨新宮町63-2","kouzui":"×","gake":"×","takashio":"×","jishin":"○","tsunami":"×","kaji":"×","naisui":"×","kazan":"×"}}
,{"type":"Feature","geometry":{"type":"Point","coordinates":[135.7244349,35.003031]},"properties":{"Name":"京都市立四条中学校","Jusho":"京都府京都市右京区西院日照町1","kouzui":"○","gake":"×","takashio":"×","jishin":"○","tsunami":"×","kaji":"×","naisui":"○","kazan":"×"}}
,{"type":"Feature","geometry":{"type":"Point","coordinates":[135.7230754,34.99065207]},"properties":{"Name":"京都市立西京極中学校","Jusho":"京都府京都市右京区西京極宮ノ東町1","kouzui":"○","gake":"×","takashio":"×","jishin":"○","tsunami":"×","kaji":"×","naisui":"○","kazan":"×"}}
,{"type":"Feature","geometry":{"type":"Point","coordinates":[135.6976286,35.00606689]},"properties":{"Name":"京都市立梅津中学校","Jusho":"京都府京都市右京区梅津北川町34","kouzui":"○","gake":"×","takashio":"×","jishin":"○","tsunami":"×","kaji":"×","naisui":"○","kazan":"×"}}
,{"type":"Feature","geometry":{"type":"Point","coordinates":[135.7292401,34.99978571]},"properties":{"Name":"京都市立西院中学校","Jusho":"京都府京都市右京区西院矢掛町5","kouzui":"○","gake":"×","takashio":"×","jishin":"○","tsunami":"×","kaji":"×","naisui":"○","kazan":"×"}}
,{"type":"Feature","geometry":{"type":"Point","coordinates":[135.68120063969,35.045839375378]},"properties":{"Name":"元京都市立高雄中学校","Jusho":"京都府京都市右京区梅ヶ畑奥殿町36","kouzui":"×","gake":"×","takashio":"×","jishin":"○","tsunami":"×","kaji":"×","naisui":"×","kazan":"×"}}
,{"type":"Feature","geometry":{"type":"Point","coordinates":[135.7155052,35.02292744]},"properties":{"Name":"京都市立双ヶ丘中学校","Jusho":"京都府京都市右京区花園岡ノ本町5-1","kouzui":"○","gake":"○","takashio":"×","jishin":"○","tsunami":"×","kaji":"×","naisui":"○","kazan":"×"}}
,{"type":"Feature","geometry":{"type":"Point","coordinates":[135.63549742749,35.157474340546]},"properties":{"Name":"京都市立京都京北小中学校","Jusho":"京都府京都市右京区京北周山町中山51","kouzui":"○","gake":"○","takashio":"×","jishin":"○","tsunami":"×","kaji":"×","naisui":"○","kazan":"×"}}
,{"type":"Feature","geometry":{"type":"Point","coordinates":[135.70367458543,35.019523629973]},"properties":{"Name":"京都府立嵯峨野高等学校","Jusho":"京都府京都市右京区常盤段ノ上町15","kouzui":"○","gake":"×","takashio":"×","jishin":"○","tsunami":"×","kaji":"×","naisui":"○","kazan":"×"}}
,{"type":"Feature","geometry":{"type":"Point","coordinates":[135.6810738,35.02588825]},"properties":{"Name":"京都府立北嵯峨高等学校","Jusho":"京都府京都市右京区嵯峨大沢柳井手町7","kouzui":"○","gake":"○","takashio":"×","jishin":"○","tsunami":"×","kaji":"×","naisui":"○","kazan":"×"}}
,{"type":"Feature","geometry":{"type":"Point","coordinates":[135.63202059405,35.196390845249]},"properties":{"Name":"京都府立北桑田高等学校","Jusho":"京都府京都市右京区京北下弓削町沢ノ奥15","kouzui":"○","gake":"×","takashio":"×","jishin":"○","tsunami":"×","kaji":"×","naisui":"○","kazan":"×"}}
,{"type":"Feature","geometry":{"type":"Point","coordinates":[135.7184527985,35.004934674825]},"properties":{"Name":"京都外大西高等学校","Jusho":"京都府京都市右京区山ノ内苗町37","kouzui":"×","gake":"×","takashio":"×","jishin":"○","tsunami":"×","kaji":"×","naisui":"×","kazan":"×"}}
,{"type":"Feature","geometry":{"type":"Point","coordinates":[135.7226053,35.02171878]},"properties":{"Name":"花園高等学校","Jusho":"京都府京都市右京区花園木辻北町1","kouzui":"○","gake":"×","takashio":"×","jishin":"○","tsunami":"×","kaji":"×","naisui":"○","kazan":"×"}}
,{"type":"Feature","geometry":{"type":"Point","coordinates":[135.7187673,35.00423364]},"properties":{"Name":"京都外国語大学","Jusho":"京都府京都市右京区西院笠目町6","kouzui":"○","gake":"×","takashio":"×","jishin":"○","tsunami":"×","kaji":"×","naisui":"○","kazan":"×"}}
,{"type":"Feature","geometry":{"type":"Point","coordinates":[135.718489,35.01051]},"properties":{"Name":"京都先端科学大学 太秦キャンパス","Jusho":"京都府京都市右京区山ノ内五反田町18 ","kouzui":"○","gake":"×","takashio":"×","jishin":"○","tsunami":"×","kaji":"×","naisui":"○","kazan":"×"}}
,{"type":"Feature","geometry":{"type":"Point","coordinates":[135.7186483,34.9968807]},"properties":{"Name":"京都光華女子大学・京都光華女子大学短期大学部","Jusho":"京都府京都市右京区西京極葛野町38","kouzui":"○","gake":"×","takashio":"×","jishin":"○","tsunami":"×","kaji":"×","naisui":"○","kazan":"×"}}
,{"type":"Feature","geometry":{"type":"Point","coordinates":[135.68805217283,35.012728882755]},"properties":{"Name":"嵯峨美術大学・嵯峨美術短期大学","Jusho":"京都府京都市右京区嵯峨五島町1","kouzui":"○","gake":"×","takashio":"×","jishin":"○","tsunami":"×","kaji":"×","naisui":"○","kazan":"×"}}
,{"type":"Feature","geometry":{"type":"Point","coordinates":[135.7040772,35.02810923]},"properties":{"Name":"京都市立鳴滝総合支援学校","Jusho":"京都府京都市右京区音戸山山ノ茶屋町9-2","kouzui":"○","gake":"○","takashio":"×","jishin":"○","tsunami":"×","kaji":"×","naisui":"○","kazan":"×"}}
,{"type":"Feature","geometry":{"type":"Point","coordinates":[135.71344569696,35.032262316572]},"properties":{"Name":"京都府立聾学校","Jusho":"京都府京都市右京区御室大内4","kouzui":"○","gake":"×","takashio":"×","jishin":"○","tsunami":"×","kaji":"×","naisui":"○","kazan":"×"}}
,{"type":"Feature","geometry":{"type":"Point","coordinates":[135.7184465,34.99570679]},"properties":{"Name":"光華小学校・京都光華中学校・京都光華高等学校","Jusho":"京都府京都市右京区西京極野田町39","kouzui":"○","gake":"×","takashio":"×","jishin":"○","tsunami":"×","kaji":"×","naisui":"○","kazan":"×"}}
,{"type":"Feature","geometry":{"type":"Point","coordinates":[135.5914773,35.13895102]},"properties":{"Name":"宇津ふれあい会館","Jusho":"京都府京都市右京区京北中地町蛸谷口23","kouzui":"○","gake":"○","takashio":"×","jishin":"○","tsunami":"×","kaji":"×","naisui":"○","kazan":"×"}}
,{"type":"Feature","geometry":{"type":"Point","coordinates":[135.715566,34.99512278]},"properties":{"Name":"京都市市民スポーツ会館","Jusho":"京都府京都市右京区西京極新明町32","kouzui":"○","gake":"×","takashio":"×","jishin":"○","tsunami":"×","kaji":"×","naisui":"○","kazan":"×"}}
,{"type":"Feature","geometry":{"type":"Point","coordinates":[135.69640888474,35.031979221031]},"properties":{"Name":"京都市北部クリーンセンター関連施設(やまごえ温水プール)","Jusho":"京都府京都市右京区梅ヶ畑向ノ地町27-1","kouzui":"×","gake":"○","takashio":"×","jishin":"○","tsunami":"×","kaji":"×","naisui":"×","kazan":"×"}}
,{"type":"Feature","geometry":{"type":"Point","coordinates":[135.7196198,35.20420634]},"properties":{"Name":"黒田基幹集落センター","Jusho":"京都府京都市右京区京北宮町宮野80-1","kouzui":"○","gake":"○","takashio":"×","jishin":"○","tsunami":"×","kaji":"×","naisui":"○","kazan":"×"}}
,{"type":"Feature","geometry":{"type":"Point","coordinates":[135.719926,35.204127]},"properties":{"Name":"黒田トレーニングホール","Jusho":"京都府京都市右京区京北宮町宮野80-1","kouzui":"○","gake":"○","takashio":"×","jishin":"○","tsunami":"×","kaji":"×","naisui":"○","kazan":"×"}}
,{"type":"Feature","geometry":{"type":"Point","coordinates":[135.641809426,35.1238283618]},"properties":{"Name":"細野グリーン会館","Jusho":"京都府京都市右京区京北細野町東ノ垣内10-1","kouzui":"×","gake":"○","takashio":"×","jishin":"○","tsunami":"×","kaji":"×","naisui":"×","kazan":"×"}}
,{"type":"Feature","geometry":{"type":"Point","coordinates":[135.6003358,35.18154829]},"properties":{"Name":"矢代多目的ホール","Jusho":"京都府京都市右京区京北矢代中町馬場谷道ノ上29-12","kouzui":"○","gake":"×","takashio":"×","jishin":"○","tsunami":"×","kaji":"×","naisui":"○","kazan":"×"}}
,{"type":"Feature","geometry":{"type":"Point","coordinates":[135.6393695,35.19705263]},"properties":{"Name":"弓削会館","Jusho":"京都府京都市右京区京北下中町東石原8-2","kouzui":"○","gake":"○","takashio":"×","jishin":"○","tsunami":"×","kaji":"×","naisui":"○","kazan":"×"}}
,{"type":"Feature","geometry":{"type":"Point","coordinates":[135.5786759,35.1460168]},"properties":{"Name":"宇津コミュニティセンター","Jusho":"京都府京都市右京区京北下宇津町宮ノ下14-2","kouzui":"○","gake":"○","takashio":"×","jishin":"○","tsunami":"×","kaji":"×","naisui":"○","kazan":"×"}}
,{"type":"Feature","geometry":{"type":"Point","coordinates":[135.6044332,35.20666189]},"properties":{"Name":"田貫公民館","Jusho":"京都府京都市右京区京北田貫町檀町20","kouzui":"○","gake":"×","takashio":"×","jishin":"○","tsunami":"×","kaji":"×","naisui":"○","kazan":"×"}}
,{"type":"Feature","geometry":{"type":"Point","coordinates":[135.6775468,35.02782759]},"properties":{"Name":"大覚寺(嵯峨寮，学院)","Jusho":"京都府京都市右京区嵯峨大沢町4","kouzui":"○","gake":"○","takashio":"×","jishin":"○","tsunami":"×","kaji":"×","naisui":"○","kazan":"×"}}
,{"type":"Feature","geometry":{"type":"Point","coordinates":[135.7152022,35.0288058]},"properties":{"Name":"仁和寺(御室会館)","Jusho":"京都府京都市右京区御室大内33","kouzui":"○","gake":"○","takashio":"×","jishin":"○","tsunami":"×","kaji":"×","naisui":"○","kazan":"×"}}
,{"type":"Feature","geometry":{"type":"Point","coordinates":[135.7200389,35.0231648]},"properties":{"Name":"妙心寺","Jusho":"京都府京都市右京区花園妙心寺町64","kouzui":"○","gake":"○","takashio":"×","jishin":"○","tsunami":"×","kaji":"×","naisui":"○","kazan":"×"}}
,{"type":"Feature","geometry":{"type":"Point","coordinates":[135.6622147,35.18244648]},"properties":{"Name":"山国自治会館","Jusho":"京都府京都市右京区京北比賀江町院谷21","kouzui":"○","gake":"×","takashio":"×","jishin":"○","tsunami":"×","kaji":"×","naisui":"○","kazan":"×"}}
,{"type":"Feature","geometry":{"type":"Point","coordinates":[135.61084518861,35.074814712876]},"properties":{"Name":"宕陰出張所","Jusho":"京都府京都市右京区嵯峨樒原宮ノ上町2-5","kouzui":"×","gake":"○","takashio":"×","jishin":"×","tsunami":"×","kaji":"×","naisui":"×","kazan":"×"}}
,{"type":"Feature","geometry":{"type":"Point","coordinates":[135.61198635795,35.085476643496]},"properties":{"Name":"越畑自治会館","Jusho":"京都府京都市右京区嵯峨越畑中ノ町２３−１","kouzui":"×","gake":"○","takashio":"×","jishin":"×","tsunami":"×","kaji":"×","naisui":"×","kazan":"×"}}
,{"type":"Feature","geometry":{"type":"Point","coordinates":[135.713869,35.029026]},"properties":{"Name":"仁和寺境内","Jusho":"京都府京都市右京区御室大内","kouzui":"×","gake":"×","takashio":"×","jishin":"○","tsunami":"×","kaji":"○","naisui":"×","kazan":"×"}}
,{"type":"Feature","geometry":{"type":"Point","coordinates":[135.714322,34.994162]},"properties":{"Name":"西京極総合運動公園","Jusho":"京都府京都市右京区西京極新明町","kouzui":"×","gake":"×","takashio":"×","jishin":"○","tsunami":"×","kaji":"○","naisui":"×","kazan":"×"}}
,{"type":"Feature","geometry":{"type":"Point","coordinates":[135.721846,35.001606]},"properties":{"Name":"西院公園・デルタ自動車四条教習所・四条中学校グラウンド","Jusho":"京都府京都市右京区西院安塚町","kouzui":"×","gake":"×","takashio":"×","jishin":"○","tsunami":"×","kaji":"○","naisui":"×","kazan":"×"}}
,{"type":"Feature","geometry":{"type":"Point","coordinates":[135.694646,34.999066]},"properties":{"Name":"桂川左岸（松尾橋～上野橋）","Jusho":"京都府京都市右京区梅津大縄場町","kouzui":"×","gake":"×","takashio":"×","jishin":"○","tsunami":"×","kaji":"○","naisui":"×","kazan":"×"}}
,{"type":"Feature","geometry":{"type":"Point","coordinates":[135.689701,35.024664]},"properties":{"Name":"佛教大学グラウンド、堀川高等学校グラウンド、京都工芸繊維大学嵯峨キャンパス構内","Jusho":"京都府京都市右京区嵯峨広沢町","kouzui":"×","gake":"×","takashio":"×","jishin":"○","tsunami":"×","kaji":"○","naisui":"×","kazan":"×"}}
,{"type":"Feature","geometry":{"type":"Point","coordinates":[135.7036987,34.97565226]},"properties":{"Name":"京都市立川岡小学校","Jusho":"京都府京都市西京区川島滑樋町14","kouzui":"○","gake":"×","takashio":"×","jishin":"○","tsunami":"×","kaji":"×","naisui":"○","kazan":"×"}}
,{"type":"Feature","geometry":{"type":"Point","coordinates":[135.7149344,34.97562056]},"properties":{"Name":"京都市立川岡東小学校","Jusho":"京都府京都市西京区下津林東大般若町44","kouzui":"○","gake":"×","takashio":"×","jishin":"○","tsunami":"×","kaji":"×","naisui":"○","kazan":"×"}}
,{"type":"Feature","geometry":{"type":"Point","coordinates":[135.697408,34.97259969]},"properties":{"Name":"京都市立樫原小学校","Jusho":"京都府京都市西京区樫原三宅町24","kouzui":"○","gake":"○","takashio":"×","jishin":"○","tsunami":"×","kaji":"×","naisui":"○","kazan":"×"}}
,{"type":"Feature","geometry":{"type":"Point","coordinates":[135.6893721086,34.992566182867]},"properties":{"Name":"京都市立松尾小学校","Jusho":"京都府京都市西京区松尾井戸町32","kouzui":"○","gake":"○","takashio":"×","jishin":"○","tsunami":"×","kaji":"×","naisui":"○","kazan":"×"}}
,{"type":"Feature","geometry":{"type":"Point","coordinates":[135.6864295,35.00729738]},"properties":{"Name":"京都市立嵐山東小学校","Jusho":"京都府京都市西京区嵐山東海道町46","kouzui":"○","gake":"○","takashio":"×","jishin":"○","tsunami":"×","kaji":"×","naisui":"○","kazan":"×"}}
,{"type":"Feature","geometry":{"type":"Point","coordinates":[135.68913956561,34.981615548621]},"properties":{"Name":"京都市立松陽小学校","Jusho":"京都府京都市西京区御陵北山下町15","kouzui":"×","gake":"○","takashio":"×","jishin":"○","tsunami":"×","kaji":"×","naisui":"×","kazan":"×"}}
,{"type":"Feature","geometry":{"type":"Point","coordinates":[135.7006182,34.98250176]},"properties":{"Name":"京都市立桂小学校","Jusho":"京都府京都市西京区桂巽町75-5","kouzui":"○","gake":"×","takashio":"×","jishin":"○","tsunami":"×","kaji":"×","naisui":"○","kazan":"×"}}
,{"type":"Feature","geometry":{"type":"Point","coordinates":[135.7061006,34.98916441]},"properties":{"Name":"京都市立桂徳小学校","Jusho":"京都府京都市西京区桂徳大寺南町2","kouzui":"○","gake":"×","takashio":"×","jishin":"○","tsunami":"×","kaji":"×","naisui":"○","kazan":"×"}}
,{"type":"Feature","geometry":{"type":"Point","coordinates":[135.6999949,34.99495404]},"properties":{"Name":"京都市立桂川小学校","Jusho":"京都府京都市西京区桂上野西町274","kouzui":"○","gake":"×","takashio":"×","jishin":"○","tsunami":"×","kaji":"×","naisui":"○","kazan":"×"}}
,{"type":"Feature","geometry":{"type":"Point","coordinates":[135.7076704,34.97779838]},"properties":{"Name":"京都市立桂東小学校","Jusho":"京都府京都市西京区桂市ノ前町31","kouzui":"○","gake":"×","takashio":"×","jishin":"○","tsunami":"×","kaji":"×","naisui":"○","kazan":"×"}}
,{"type":"Feature","geometry":{"type":"Point","coordinates":[135.67237987442,34.973665678271]},"properties":{"Name":"京都市立大枝小学校","Jusho":"京都府京都市西京区大枝塚原町4-44","kouzui":"○","gake":"○","takashio":"×","jishin":"○","tsunami":"×","kaji":"×","naisui":"○","kazan":"×"}}
,{"type":"Feature","geometry":{"type":"Point","coordinates":[135.66385498794,34.986173899042]},"properties":{"Name":"京都市立桂坂小学校","Jusho":"京都府京都市西京区御陵大枝山町二丁目1-52","kouzui":"×","gake":"○","takashio":"×","jishin":"○","tsunami":"×","kaji":"×","naisui":"×","kazan":"×"}}
,{"type":"Feature","geometry":{"type":"Point","coordinates":[135.66974809243,34.968609647138]},"properties":{"Name":"京都市立新林小学校","Jusho":"京都府京都市西京区大枝西新林町四丁目4","kouzui":"×","gake":"○","takashio":"×","jishin":"○","tsunami":"×","kaji":"×","naisui":"×","kazan":"×"}}
,{"type":"Feature","geometry":{"type":"Point","coordinates":[135.67102343202,34.962825216105]},"properties":{"Name":"京都市立境谷小学校","Jusho":"京都府京都市西京区大原野西境谷町三丁目5","kouzui":"○","gake":"×","takashio":"×","jishin":"○","tsunami":"×","kaji":"×","naisui":"○","kazan":"×"}}
,{"type":"Feature","geometry":{"type":"Point","coordinates":[135.67620213349,34.957465004642]},"properties":{"Name":"京都市立竹の里小学校","Jusho":"京都府京都市西京区大原野東竹の里町四丁目1","kouzui":"○","gake":"×","takashio":"×","jishin":"○","tsunami":"×","kaji":"×","naisui":"○","kazan":"×"}}
,{"type":"Feature","geometry":{"type":"Point","coordinates":[135.6849849,34.95230584]},"properties":{"Name":"京都市立上里小学校","Jusho":"京都府京都市西京区大原野上里南ノ町300","kouzui":"○","gake":"○","takashio":"×","jishin":"○","tsunami":"×","kaji":"×","naisui":"○","kazan":"×"}}
,{"type":"Feature","geometry":{"type":"Point","coordinates":[135.6823588,34.95741199]},"properties":{"Name":"京都市立福西小学校","Jusho":"京都府京都市西京区大枝南福西町一丁目7","kouzui":"○","gake":"○","takashio":"×","jishin":"○","tsunami":"×","kaji":"×","naisui":"○","kazan":"×"}}
,{"type":"Feature","geometry":{"type":"Point","coordinates":[135.6669494,34.95355305]},"properties":{"Name":"京都市立大原野小学校","Jusho":"京都府京都市西京区大原野灰方町439","kouzui":"○","gake":"○","takashio":"×","jishin":"○","tsunami":"×","kaji":"×","naisui":"○","kazan":"×"}}
,{"type":"Feature","geometry":{"type":"Point","coordinates":[135.6944369,34.98877187]},"properties":{"Name":"京都市立桂中学校","Jusho":"京都府京都市西京区上桂森上町26","kouzui":"○","gake":"×","takashio":"×","jishin":"○","tsunami":"×","kaji":"×","naisui":"○","kazan":"×"}}
,{"type":"Feature","geometry":{"type":"Point","coordinates":[135.6907651,34.99713453]},"properties":{"Name":"京都市立松尾中学校","Jusho":"京都府京都市西京区松室中溝町101","kouzui":"○","gake":"○","takashio":"×","jishin":"○","tsunami":"×","kaji":"×","naisui":"○","kazan":"×"}}
,{"type":"Feature","geometry":{"type":"Point","coordinates":[135.7152315,34.97621894]},"properties":{"Name":"京都市立桂川中学校","Jusho":"京都府京都市西京区下津林東大般若町43","kouzui":"○","gake":"×","takashio":"×","jishin":"○","tsunami":"×","kaji":"×","naisui":"○","kazan":"×"}}
,{"type":"Feature","geometry":{"type":"Point","coordinates":[135.6908343,34.97664336]},