var saitama={"type":"FeatureCollection","name":"saitama","features":[
{"type":"Feature","geometry":{"type":"Point","coordinates":[139.5728946,35.92241737]},"properties":{"Name":"指扇小学校","Jusho":"埼玉県さいたま市西区大字指扇４２２６","kouzui":"○","gake":"○","takashio":"×","jishin":"○","tsunami":"×","kaji":"×","naisui":"×","kazan":"×"}}
,{"type":"Feature","geometry":{"type":"Point","coordinates":[139.5714947,35.90372742]},"properties":{"Name":"馬宮東小学校","Jusho":"埼玉県さいたま市西区大字西遊馬１８９-１","kouzui":"×","gake":"○","takashio":"×","jishin":"○","tsunami":"×","kaji":"×","naisui":"×","kazan":"×"}}
,{"type":"Feature","geometry":{"type":"Point","coordinates":[139.5595105172,35.886118241197]},"properties":{"Name":"馬宮西小学校","Jusho":"埼玉県さいたま市西区大字飯田新田１８９-２","kouzui":"○","gake":"○","takashio":"×","jishin":"○","tsunami":"×","kaji":"×","naisui":"×","kazan":"×"}}
,{"type":"Feature","geometry":{"type":"Point","coordinates":[139.5946545,35.89400796]},"properties":{"Name":"植水小学校","Jusho":"埼玉県さいたま市西区大字中野林２２５-１","kouzui":"○","gake":"○","takashio":"×","jishin":"○","tsunami":"×","kaji":"×","naisui":"×","kazan":"×"}}
,{"type":"Feature","geometry":{"type":"Point","coordinates":[139.59102615212,35.903888224603]},"properties":{"Name":"大宮西小学校","Jusho":"埼玉県さいたま市西区三橋５-１３５９","kouzui":"○","gake":"○","takashio":"×","jishin":"○","tsunami":"×","kaji":"×","naisui":"×","kazan":"×"}}
,{"type":"Feature","geometry":{"type":"Point","coordinates":[139.5829211,35.90690589]},"properties":{"Name":"栄小学校","Jusho":"埼玉県さいたま市西区大字飯田８１１","kouzui":"○","gake":"○","takashio":"×","jishin":"○","tsunami":"×","kaji":"×","naisui":"×","kazan":"×"}}
,{"type":"Feature","geometry":{"type":"Point","coordinates":[139.5948964,35.92364478]},"properties":{"Name":"宮前小学校","Jusho":"埼玉県さいたま市西区宮前町３４１","kouzui":"○","gake":"○","takashio":"×","jishin":"○","tsunami":"×","kaji":"×","naisui":"×","kazan":"×"}}
,{"type":"Feature","geometry":{"type":"Point","coordinates":[139.572127,35.93325072]},"properties":{"Name":"指扇北小学校","Jusho":"埼玉県さいたま市西区大字中釘１５０６-１","kouzui":"○","gake":"○","takashio":"×","jishin":"○","tsunami":"×","kaji":"×","naisui":"×","kazan":"×"}}
,{"type":"Feature","geometry":{"type":"Point","coordinates":[139.5765328,35.92726619]},"properties":{"Name":"指扇中学校","Jusho":"埼玉県さいたま市西区大字清河寺１８５-２","kouzui":"○","gake":"○","takashio":"×","jishin":"○","tsunami":"×","kaji":"×","naisui":"×","kazan":"×"}}
,{"type":"Feature","geometry":{"type":"Point","coordinates":[139.58003269391,35.898718125855]},"properties":{"Name":"馬宮中学校","Jusho":"埼玉県さいたま市西区大字二ツ宮５８９-１","kouzui":"○","gake":"○","takashio":"×","jishin":"○","tsunami":"×","kaji":"×","naisui":"×","kazan":"×"}}
,{"type":"Feature","geometry":{"type":"Point","coordinates":[139.5895598,35.91977381]},"properties":{"Name":"大宮西中学校","Jusho":"埼玉県さいたま市西区三橋６-１５５８","kouzui":"○","gake":"○","takashio":"×","jishin":"○","tsunami":"×","kaji":"×","naisui":"×","kazan":"×"}}
,{"type":"Feature","geometry":{"type":"Point","coordinates":[139.5980556,35.92931691]},"properties":{"Name":"宮前中学校","Jusho":"埼玉県さいたま市西区宮前町１４６７-１","kouzui":"○","gake":"○","takashio":"×","jishin":"○","tsunami":"×","kaji":"×","naisui":"×","kazan":"×"}}
,{"type":"Feature","geometry":{"type":"Point","coordinates":[139.5838458,35.88655325]},"properties":{"Name":"植水中学校","Jusho":"埼玉県さいたま市西区大字三条町３４５-１","kouzui":"○","gake":"○","takashio":"×","jishin":"○","tsunami":"×","kaji":"×","naisui":"×","kazan":"×"}}
,{"type":"Feature","geometry":{"type":"Point","coordinates":[139.5718169,35.91158498]},"properties":{"Name":"土屋中学校","Jusho":"埼玉県さいたま市西区大字土屋１７６６-１","kouzui":"○","gake":"○","takashio":"×","jishin":"○","tsunami":"×","kaji":"×","naisui":"×","kazan":"×"}}
,{"type":"Feature","geometry":{"type":"Point","coordinates":[139.5894046,35.89538295]},"properties":{"Name":"県立大宮光陵高等学校","Jusho":"埼玉県さいたま市西区大字中野林１４５","kouzui":"○","gake":"○","takashio":"×","jishin":"○","tsunami":"×","kaji":"×","naisui":"×","kazan":"×"}}
,{"type":"Feature","geometry":{"type":"Point","coordinates":[139.5897905,35.88907434]},"properties":{"Name":"県立大宮南高等学校","Jusho":"埼玉県さいたま市西区大字植田谷本７９３","kouzui":"○","gake":"○","takashio":"×","jishin":"○","tsunami":"×","kaji":"×","naisui":"×","kazan":"×"}}
,{"type":"Feature","geometry":{"type":"Point","coordinates":[139.5608915,35.90911181]},"properties":{"Name":"県立大宮武蔵野高等学校","Jusho":"埼玉県さいたま市西区大字西遊馬１６０１","kouzui":"×","gake":"○","takashio":"×","jishin":"○","tsunami":"×","kaji":"×","naisui":"×","kazan":"×"}}
,{"type":"Feature","geometry":{"type":"Point","coordinates":[139.5744647,35.94292553]},"properties":{"Name":"県立大宮北特別支援学校","Jusho":"埼玉県さいたま市西区中釘後谷２２９０-１","kouzui":"×","gake":"○","takashio":"×","jishin":"○","tsunami":"×","kaji":"×","naisui":"×","kazan":"×"}}
,{"type":"Feature","geometry":{"type":"Point","coordinates":[139.5608514,35.90459918]},"properties":{"Name":"西遊馬公園","Jusho":"埼玉県さいたま市西区西遊馬３４３３-１ 外","kouzui":"×","gake":"○","takashio":"×","jishin":"○","tsunami":"×","kaji":"○","naisui":"×","kazan":"×"}}
,{"type":"Feature","geometry":{"type":"Point","coordinates":[139.5956395,35.91377018]},"properties":{"Name":"三橋総合公園","Jusho":"埼玉県さいたま市西区三橋５-１９０","kouzui":"×","gake":"○","takashio":"×","jishin":"○","tsunami":"×","kaji":"○","naisui":"×","kazan":"×"}}
,{"type":"Feature","geometry":{"type":"Point","coordinates":[139.5972249,35.89727153]},"properties":{"Name":"鴨川みずべの里","Jusho":"埼玉県さいたま市西区大字水判土１０９-１","kouzui":"×","gake":"○","takashio":"×","jishin":"○","tsunami":"×","kaji":"×","naisui":"×","kazan":"×"}}
,{"type":"Feature","geometry":{"type":"Point","coordinates":[139.5507293,35.9333318]},"properties":{"Name":"宝来運動公園","Jusho":"埼玉県さいたま市西区大字宝来２０２２-１","kouzui":"×","gake":"○","takashio":"×","jishin":"○","tsunami":"×","kaji":"×","naisui":"×","kazan":"×"}}
,{"type":"Feature","geometry":{"type":"Point","coordinates":[139.5654708,35.93604214]},"properties":{"Name":"秋葉の森総合公園","Jusho":"埼玉県さいたま市西区大字中釘１８８-２","kouzui":"×","gake":"○","takashio":"×","jishin":"○","tsunami":"×","kaji":"○","naisui":"×","kazan":"×"}}
,{"type":"Feature","geometry":{"type":"Point","coordinates":[139.5775675,35.92512202]},"properties":{"Name":"埼玉栄高等学校","Jusho":"埼玉県さいたま市西区大字指扇３８３８","kouzui":"×","gake":"○","takashio":"×","jishin":"○","tsunami":"×","kaji":"×","naisui":"×","kazan":"×"}}
,{"type":"Feature","geometry":{"type":"Point","coordinates":[139.6188762,35.92464153]},"properties":{"Name":"東大成小学校","Jusho":"埼玉県さいたま市北区東大成町２-１２","kouzui":"○","gake":"○","takashio":"×","jishin":"○","tsunami":"×","kaji":"×","naisui":"×","kazan":"×"}}
,{"type":"Feature","geometry":{"type":"Point","coordinates":[139.6074278,35.92492549]},"properties":{"Name":"日進小学校","Jusho":"埼玉県さいたま市北区日進町２-９１１","kouzui":"○","gake":"○","takashio":"×","jishin":"○","tsunami":"×","kaji":"×","naisui":"×","kazan":"×"}}
,{"type":"Feature","geometry":{"type":"Point","coordinates":[139.6038391,35.93661075]},"properties":{"Name":"日進北小学校","Jusho":"埼玉県さいたま市北区日進町３-１７８","kouzui":"○","gake":"○","takashio":"×","jishin":"○","tsunami":"×","kaji":"×","naisui":"×","kazan":"×"}}
,{"type":"Feature","geometry":{"type":"Point","coordinates":[139.6065905,35.94898923]},"properties":{"Name":"宮原小学校","Jusho":"埼玉県さいたま市北区宮原町４-１０２-６","kouzui":"○","gake":"○","takashio":"×","jishin":"○","tsunami":"×","kaji":"×","naisui":"×","kazan":"×"}}
,{"type":"Feature","geometry":{"type":"Point","coordinates":[139.6262236,35.92951896]},"properties":{"Name":"植竹小学校","Jusho":"埼玉県さいたま市北区植竹町２-１","kouzui":"○","gake":"○","takashio":"×","jishin":"○","tsunami":"×","kaji":"×","naisui":"×","kazan":"×"}}
,{"type":"Feature","geometry":{"type":"Point","coordinates":[139.6274717,35.93718286]},"properties":{"Name":"大砂土小学校","Jusho":"埼玉県さいたま市北区本郷町１","kouzui":"○","gake":"○","takashio":"×","jishin":"○","tsunami":"×","kaji":"×","naisui":"×","kazan":"×"}}
,{"type":"Feature","geometry":{"type":"Point","coordinates":[139.5975389,35.9546793]},"properties":{"Name":"大宮別所小学校","Jusho":"埼玉県さいたま市北区別所町４２-１","kouzui":"○","gake":"○","takashio":"×","jishin":"○","tsunami":"×","kaji":"×","naisui":"×","kazan":"×"}}
,{"type":"Feature","geometry":{"type":"Point","coordinates":[139.626378,35.94967447]},"properties":{"Name":"泰平小学校","Jusho":"埼玉県さいたま市北区今羽町６２８","kouzui":"×","gake":"○","takashio":"×","jishin":"○","tsunami":"×","kaji":"×","naisui":"×","kazan":"×"}}
,{"type":"Feature","geometry":{"type":"Point","coordinates":[139.6107413,35.93289648]},"properties":{"Name":"つばさ小学校","Jusho":"埼玉県さいたま市北区宮原町３-９０２-４","kouzui":"○","gake":"○","takashio":"×","jishin":"○","tsunami":"×","kaji":"×","naisui":"×","kazan":"×"}}
,{"type":"Feature","geometry":{"type":"Point","coordinates":[139.6098212,35.92121848]},"properties":{"Name":"日進中学校","Jusho":"埼玉県さいたま市北区櫛引町２-５０３-１","kouzui":"○","gake":"○","takashio":"×","jishin":"○","tsunami":"×","kaji":"×","naisui":"×","kazan":"×"}}
,{"type":"Feature","geometry":{"type":"Point","coordinates":[139.6061659,35.95198065]},"properties":{"Name":"宮原中学校","Jusho":"埼玉県さいたま市北区宮原町４-１２９","kouzui":"○","gake":"○","takashio":"×","jishin":"○","tsunami":"×","kaji":"×","naisui":"×","kazan":"×"}}
,{"type":"Feature","geometry":{"type":"Point","coordinates":[139.6272876,35.93352863]},"properties":{"Name":"植竹中学校","Jusho":"埼玉県さいたま市北区土呂町３５２","kouzui":"○","gake":"○","takashio":"×","jishin":"○","tsunami":"×","kaji":"×","naisui":"×","kazan":"×"}}
,{"type":"Feature","geometry":{"type":"Point","coordinates":[139.6273367,35.94931631]},"properties":{"Name":"泰平中学校","Jusho":"埼玉県さいたま市北区本郷町１９９１","kouzui":"×","gake":"○","takashio":"×","jishin":"○","tsunami":"×","kaji":"×","naisui":"×","kazan":"×"}}
,{"type":"Feature","geometry":{"type":"Point","coordinates":[139.6380284,35.93849806]},"properties":{"Name":"土呂中学校","Jusho":"埼玉県さいたま市北区見沼３-７５","kouzui":"×","gake":"○","takashio":"×","jishin":"○","tsunami":"×","kaji":"×","naisui":"×","kazan":"×"}}
,{"type":"Feature","geometry":{"type":"Point","coordinates":[139.6004661,35.9456106]},"properties":{"Name":"大宮北高等学校","Jusho":"埼玉県さいたま市北区奈良町９１-１","kouzui":"○","gake":"○","takashio":"×","jishin":"○","tsunami":"×","kaji":"×","naisui":"×","kazan":"×"}}
,{"type":"Feature","geometry":{"type":"Point","coordinates":[139.628684,35.94761885]},"properties":{"Name":"県立大宮工業高等学校","Jusho":"埼玉県さいたま市北区本郷町１９７０","kouzui":"×","gake":"○","takashio":"×","jishin":"○","tsunami":"×","kaji":"×","naisui":"×","kazan":"×"}}
,{"type":"Feature","geometry":{"type":"Point","coordinates":[139.6099552,35.92040498]},"properties":{"Name":"県立大宮中央高等学校","Jusho":"埼玉県さいたま市北区櫛引町２-４９９-１","kouzui":"○","gake":"○","takashio":"×","jishin":"○","tsunami":"×","kaji":"×","naisui":"×","kazan":"×"}}
,{"type":"Feature","geometry":{"type":"Point","coordinates":[139.6265029,35.93209464]},"properties":{"Name":"県立大宮ろう学園","Jusho":"埼玉県さいたま市北区植竹町２-６８","kouzui":"○","gake":"○","takashio":"×","jishin":"○","tsunami":"×","kaji":"×","naisui":"×","kazan":"×"}}
,{"type":"Feature","geometry":{"type":"Point","coordinates":[139.6041487,35.92190343]},"properties":{"Name":"日進公園","Jusho":"埼玉県さいたま市北区日進町１-３１１","kouzui":"○","gake":"○","takashio":"×","jishin":"○","tsunami":"×","kaji":"×","naisui":"×","kazan":"×"}}
,{"type":"Feature","geometry":{"type":"Point","coordinates":[139.5991452,35.93300846]},"properties":{"Name":"番場公園","Jusho":"埼玉県さいたま市北区日進町２-1435-1","kouzui":"×","gake":"○","takashio":"×","jishin":"○","tsunami":"×","kaji":"×","naisui":"×","kazan":"×"}}
,{"type":"Feature","geometry":{"type":"Point","coordinates":[139.6090105,35.93451312]},"properties":{"Name":"うねうね公園","Jusho":"埼玉県さいたま市北区日進町２-1916-3","kouzui":"○","gake":"○","takashio":"×","jishin":"○","tsunami":"×","kaji":"×","naisui":"×","kazan":"×"}}
,{"type":"Feature","geometry":{"type":"Point","coordinates":[139.6391631,35.93260438]},"properties":{"Name":"市民の森・見沼グリーンセンター","Jusho":"埼玉県さいたま市北区見沼２-９４　","kouzui":"○","gake":"○","takashio":"×","jishin":"○","tsunami":"×","kaji":"○","naisui":"×","kazan":"×"}}
,{"type":"Feature","geometry":{"type":"Point","coordinates":[139.6225466,35.93164111]},"properties":{"Name":"きたまちしましま公園","Jusho":"埼玉県さいたま市北区宮原町１-859","kouzui":"○","gake":"○","takashio":"×","jishin":"○","tsunami":"×","kaji":"×","naisui":"×","kazan":"×"}}
,{"type":"Feature","geometry":{"type":"Point","coordinates":[139.6174468,35.94148418]},"properties":{"Name":"宮原公園・宮原南公園","Jusho":"埼玉県さいたま市北区宮原町２-７９、２-73-1","kouzui":"○","gake":"○","takashio":"×","jishin":"○","tsunami":"×","kaji":"×","naisui":"×","kazan":"×"}}
,{"type":"Feature","geometry":{"type":"Point","coordinates":[139.61991834581,35.943124577523]},"properties":{"Name":"東宮原ぼうさい広場","Jusho":"埼玉県さいたま市北区宮原町２-１２５-１","kouzui":"○","gake":"○","takashio":"×","jishin":"○","tsunami":"×","kaji":"×","naisui":"×","kazan":"×"}}
,{"type":"Feature","geometry":{"type":"Point","coordinates":[139.6146034,35.94646187]},"properties":{"Name":"松原公園","Jusho":"埼玉県さいたま市北区宮原町４-４２","kouzui":"○","gake":"○","takashio":"×","jishin":"○","tsunami":"×","kaji":"×","naisui":"×","kazan":"×"}}
,{"type":"Feature","geometry":{"type":"Point","coordinates":[139.6187656,35.94757138]},"properties":{"Name":"前谷公園","Jusho":"埼玉県さいたま市北区吉野町１-８-５、１-7-1","kouzui":"○","gake":"○","takashio":"×","jishin":"○","tsunami":"×","kaji":"×","naisui":"×","kazan":"×"}}
,{"type":"Feature","geometry":{"type":"Point","coordinates":[139.61237,35.95279]},"properties":{"Name":"吉野公園","Jusho":"埼玉県さいたま市北区吉野町１-３７９-１","kouzui":"○","gake":"○","takashio":"×","jishin":"○","tsunami":"×","kaji":"×","naisui":"×","kazan":"×"}}
,{"type":"Feature","geometry":{"type":"Point","coordinates":[139.6051916,35.95846406]},"properties":{"Name":"つつじヶ丘公園","Jusho":"埼玉県さいたま市北区吉野町２-２１３","kouzui":"○","gake":"○","takashio":"×","jishin":"○","tsunami":"×","kaji":"×","naisui":"×","kazan":"×"}}
,{"type":"Feature","geometry":{"type":"Point","coordinates":[139.63092,35.9348]},"properties":{"Name":"土呂公園","Jusho":"埼玉県さいたま市北区土呂町１-４２","kouzui":"○","gake":"○","takashio":"×","jishin":"○","tsunami":"×","kaji":"×","naisui":"×","kazan":"×"}}
,{"type":"Feature","geometry":{"type":"Point","coordinates":[139.6231325,35.94677376]},"properties":{"Name":"本郷第１公園","Jusho":"埼玉県さいたま市北区本郷町８９０-１","kouzui":"×","gake":"○","takashio":"×","jishin":"○","tsunami":"×","kaji":"×","naisui":"×","kazan":"×"}}
,{"type":"Feature","geometry":{"type":"Point","coordinates":[139.6009167,35.94243063]},"properties":{"Name":"三貫清水緑地","Jusho":"埼玉県さいたま市北区奈良町57-1","kouzui":"×","gake":"○","takashio":"×","jishin":"○","tsunami":"×","kaji":"×","naisui":"×","kazan":"×"}}
,{"type":"Feature","geometry":{"type":"Point","coordinates":[139.6004336,35.9153889]},"properties":{"Name":"農業機械研究部門","Jusho":"埼玉県さいたま市北区日進町1-40-2","kouzui":"○","gake":"○","takashio":"×","jishin":"○","tsunami":"×","kaji":"○","naisui":"×","kazan":"×"}}
,{"type":"Feature","geometry":{"type":"Point","coordinates":[139.630413,35.90645191]},"properties":{"Name":"大宮小学校","Jusho":"埼玉県さいたま市大宮区大門町３-３","kouzui":"○","gake":"○","takashio":"×","jishin":"○","tsunami":"×","kaji":"×","naisui":"×","kazan":"×"}}
,{"type":"Feature","geometry":{"type":"Point","coordinates":[139.635919,35.9137512]},"properties":{"Name":"大宮東小学校","Jusho":"埼玉県さいたま市大宮区堀の内町３-１４５","kouzui":"○","gake":"○","takashio":"×","jishin":"○","tsunami":"×","kaji":"×","naisui":"×","kazan":"×"}}
,{"type":"Feature","geometry":{"type":"Point","coordinates":[139.6338642,35.90047311]},"properties":{"Name":"大宮南小学校","Jusho":"埼玉県さいたま市大宮区吉敷町３-８７","kouzui":"○","gake":"○","takashio":"×","jishin":"○","tsunami":"×","kaji":"×","naisui":"×","kazan":"×"}}
,{"type":"Feature","geometry":{"type":"Point","coordinates":[139.6275478,35.91167757]},"properties":{"Name":"大宮北小学校","Jusho":"埼玉県さいたま市大宮区宮町３-８４","kouzui":"○","gake":"○","takashio":"×","jishin":"○","tsunami":"×","kaji":"×","naisui":"×","kazan":"×"}}
,{"type":"Feature","geometry":{"type":"Point","coordinates":[139.6171861,35.90321719]},"properties":{"Name":"桜木小学校","Jusho":"埼玉県さいたま市大宮区桜木町４-３２８-９","kouzui":"×","gake":"○","takashio":"×","jishin":"○","tsunami":"×","kaji":"×","naisui":"×","kazan":"×"}}
,{"type":"Feature","geometry":{"type":"Point","coordinates":[139.6048482,35.90337503]},"properties":{"Name":"三橋小学校","Jusho":"埼玉県さいたま市大宮区三橋２-２０","kouzui":"○","gake":"○","takashio":"×","jishin":"○","tsunami":"×","kaji":"×","naisui":"×","kazan":"×"}}
,{"type":"Feature","geometry":{"type":"Point","coordinates":[139.6140249,35.91425709]},"properties":{"Name":"大成小学校","Jusho":"埼玉県さいたま市大宮区大成町２-２８２","kouzui":"○","gake":"○","takashio":"×","jishin":"○","tsunami":"×","kaji":"×","naisui":"×","kazan":"×"}}
,{"type":"Feature","geometry":{"type":"Point","coordinates":[139.6459169,35.90520737]},"properties":{"Name":"芝川小学校","Jusho":"埼玉県さいたま市大宮区天沼町２-１０７７","kouzui":"×","gake":"○","takashio":"×","jishin":"○","tsunami":"×","kaji":"×","naisui":"×","kazan":"×"}}
,{"type":"Feature","geometry":{"type":"Point","coordinates":[139.617203,35.89638304]},"properties":{"Name":"上小小学校","Jusho":"埼玉県さいたま市大宮区上小町１３３７-１","kouzui":"○","gake":"○","takashio":"×","jishin":"○","tsunami":"×","kaji":"×","naisui":"×","kazan":"×"}}
,{"type":"Feature","geometry":{"type":"Point","coordinates":[139.6357608,35.90841126]},"properties":{"Name":"大宮東中学校","Jusho":"埼玉県さいたま市大宮区堀の内町１-９９","kouzui":"○","gake":"○","takashio":"×","jishin":"○","tsunami":"×","kaji":"×","naisui":"×","kazan":"×"}}
,{"type":"Feature","geometry":{"type":"Point","coordinates":[139.6382993,35.8988529]},"properties":{"Name":"大宮南中学校","Jusho":"埼玉県さいたま市大宮区天沼町２-３６２","kouzui":"○","gake":"○","takashio":"×","jishin":"○","tsunami":"×","kaji":"×","naisui":"×","kazan":"×"}}
,{"type":"Feature","geometry":{"type":"Point","coordinates":[139.6320415,35.92170192]},"properties":{"Name":"大宮北中学校","Jusho":"埼玉県さいたま市大宮区寿能町１-２１","kouzui":"○","gake":"○","takashio":"×","jishin":"○","tsunami":"×","kaji":"×","naisui":"×","kazan":"×"}}
,{"type":"Feature","geometry":{"type":"Point","coordinates":[139.6168446,35.90486369]},"properties":{"Name":"桜木中学校","Jusho":"埼玉県さいたま市大宮区桜木町４-２１９","kouzui":"×","gake":"○","takashio":"×","jishin":"○","tsunami":"×","kaji":"×","naisui":"×","kazan":"×"}}
,{"type":"Feature","geometry":{"type":"Point","coordinates":[139.6028652,35.90458814]},"properties":{"Name":"三橋中学校","Jusho":"埼玉県さいたま市大宮区三橋１-１３００","kouzui":"○","gake":"○","takashio":"×","jishin":"○","tsunami":"×","kaji":"×","naisui":"×","kazan":"×"}}
,{"type":"Feature","geometry":{"type":"Point","coordinates":[139.6120882,35.91301029]},"properties":{"Name":"大成中学校","Jusho":"埼玉県さいたま市大宮区大成町２-３７９","kouzui":"○","gake":"○","takashio":"×","jishin":"○","tsunami":"×","kaji":"×","naisui":"×","kazan":"×"}}
,{"type":"Feature","geometry":{"type":"Point","coordinates":[139.646665,35.90900508]},"properties":{"Name":"第二東中学校","Jusho":"埼玉県さいたま市大宮区天沼町１-７６０","kouzui":"×","gake":"○","takashio":"×","jishin":"○","tsunami":"×","kaji":"×","naisui":"×","kazan":"×"}}
,{"type":"Feature","geometry":{"type":"Point","coordinates":[139.5995155971,35.89584161498]},"properties":{"Name":"大宮国際中等教育学校","Jusho":"埼玉県さいたま市大宮区三橋４-９６","kouzui":"○","gake":"○","takashio":"×","jishin":"○","tsunami":"×","kaji":"×","naisui":"×","kazan":"×"}}
,{"type":"Feature","geometry":{"type":"Point","coordinates":[139.6383784,35.89990291]},"properties":{"Name":"県立大宮高等学校","Jusho":"埼玉県さいたま市大宮区天沼町２-３２３","kouzui":"○","gake":"○","takashio":"×","jishin":"○","tsunami":"×","kaji":"×","naisui":"×","kazan":"×"}}
,{"type":"Feature","geometry":{"type":"Point","coordinates":[139.6475484,35.9057833]},"properties":{"Name":"合併記念見沼公園","Jusho":"埼玉県さいたま市大宮区天沼町１-９４１外","kouzui":"×","gake":"○","takashio":"×","jishin":"○","tsunami":"×","kaji":"×","naisui":"×","kazan":"×"}}
,{"type":"Feature","geometry":{"type":"Point","coordinates":[139.605607,35.90905735]},"properties":{"Name":"大平公園","Jusho":"埼玉県さいたま市大宮区三橋１-５５","kouzui":"○","gake":"○","takashio":"×","jishin":"○","tsunami":"×","kaji":"×","naisui":"×","kazan":"×"}}
,{"type":"Feature","geometry":{"type":"Point","coordinates":[139.631669,35.91853144]},"properties":{"Name":"大宮公園","Jusho":"埼玉県さいたま市大宮区高鼻町、寿能町、堀の内町、 見沼区大和田町地内","kouzui":"○","gake":"○","takashio":"×","jishin":"○","tsunami":"×","kaji":"○","naisui":"×","kazan":"×"}}
,{"type":"Feature","geometry":{"type":"Point","coordinates":[139.6407885,35.91842718]},"properties":{"Name":"大宮第二公園","Jusho":"埼玉県さいたま市大宮区寿能町、 見沼区大和田町地内","kouzui":"×","gake":"○","takashio":"×","jishin":"○","tsunami":"×","kaji":"○","naisui":"×","kazan":"×"}}
,{"type":"Feature","geometry":{"type":"Point","coordinates":[139.6423764,35.91519488]},"properties":{"Name":"大宮第三公園","Jusho":"埼玉県さいたま市大宮区堀の内町地内","kouzui":"×","gake":"○","takashio":"×","jishin":"○","tsunami":"×","kaji":"○","naisui":"×","kazan":"×"}}
,{"type":"Feature","geometry":{"type":"Point","coordinates":[139.641165,35.92142659]},"properties":{"Name":"大和田公園","Jusho":"埼玉県さいたま市大宮区寿能町、見沼区大和田町 外","kouzui":"×","gake":"○","takashio":"×","jishin":"○","tsunami":"×","kaji":"○","naisui":"×","kazan":"×"}}
,{"type":"Feature","geometry":{"type":"Point","coordinates":[139.63909198195,35.893196286579]},"properties":{"Name":"さいたま新都心公園","Jusho":"埼玉県さいたま市大宮区北袋町１-190-24、1-297-5","kouzui":"○","gake":"○","takashio":"×","jishin":"○","tsunami":"×","kaji":"×","naisui":"×","kazan":"×"}}
,{"type":"Feature","geometry":{"type":"Point","coordinates":[139.6308326,35.90894842]},"properties":{"Name":"氷川緑地","Jusho":"埼玉県さいたま市大宮区大門町３-47","kouzui":"○","gake":"○","takashio":"×","jishin":"○","tsunami":"×","kaji":"×","naisui":"×","kazan":"×"}}
,{"type":"Feature","geometry":{"type":"Point","coordinates":[139.6449618,35.9102711]},"properties":{"Name":"天沼緑地","Jusho":"埼玉県さいたま市大宮区天沼町１-676-1","kouzui":"×","gake":"○","takashio":"×","jishin":"○","tsunami":"×","kaji":"×","naisui":"×","kazan":"×"}}
,{"type":"Feature","geometry":{"type":"Point","coordinates":[139.64684406005,35.937108706728]},"properties":{"Name":"大砂土東小学校","Jusho":"埼玉県さいたま市見沼区大和田町２-９９８","kouzui":"○","gake":"○","takashio":"×","jishin":"○","tsunami":"×","kaji":"×","naisui":"×","kazan":"×"}}
,{"type":"Feature","geometry":{"type":"Point","coordinates":[139.6324507,35.94837636]},"properties":{"Name":"見沼小学校","Jusho":"埼玉県さいたま市見沼区東大宮２-４５","kouzui":"○","gake":"○","takashio":"×","jishin":"○","tsunami":"×","kaji":"×","naisui":"×","kazan":"×"}}
,{"type":"Feature","geometry":{"type":"Point","coordinates":[139.6708863,35.91052918]},"properties":{"Name":"片柳小学校","Jusho":"埼玉県さいたま市見沼区大字東新井２４４-１","kouzui":"○","gake":"○","takashio":"×","jishin":"○","tsunami":"×","kaji":"×","naisui":"×","kazan":"×"}}
,{"type":"Feature","geometry":{"type":"Point","coordinates":[139.676467,35.92912765]},"properties":{"Name":"七里小学校","Jusho":"埼玉県さいたま市見沼区大字東宮下３１２","kouzui":"○","gake":"○","takashio":"×","jishin":"○","tsunami":"×","kaji":"×","naisui":"×","kazan":"×"}}
,{"type":"Feature","geometry":{"type":"Point","coordinates":[139.662004,35.9491445]},"properties":{"Name":"春岡小学校","Jusho":"埼玉県さいたま市見沼区春岡２-２９-１","kouzui":"○","gake":"○","takashio":"×","jishin":"○","tsunami":"×","kaji":"×","naisui":"×","kazan":"×"}}
,{"type":"Feature","geometry":{"type":"Point","coordinates":[139.6618005,35.93445159]},"properties":{"Name":"蓮沼小学校","Jusho":"埼玉県さいたま市見沼区大字蓮沼１０７０","kouzui":"○","gake":"○","takashio":"×","jishin":"○","tsunami":"×","kaji":"×","naisui":"×","kazan":"×"}}
,{"type":"Feature","geometry":{"type":"Point","coordinates":[139.6653124,35.92121742]},"properties":{"Name":"大谷小学校","Jusho":"埼玉県さいたま市見沼区大字大谷１８","kouzui":"○","gake":"○","takashio":"×","jishin":"○","tsunami":"×","kaji":"×","naisui":"×","kazan":"×"}}
,{"type":"Feature","geometry":{"type":"Point","coordinates":[139.6523328,35.94661717]},"properties":{"Name":"島小学校","Jusho":"埼玉県さいたま市見沼区島町５３３-２","kouzui":"○","gake":"○","takashio":"×","jishin":"○","tsunami":"×","kaji":"×","naisui":"×","kazan":"×"}}
,{"type":"Feature","geometry":{"type":"Point","coordinates":[139.6781631,35.92567207]},"properties":{"Name":"東宮下小学校","Jusho":"埼玉県さいたま市見沼区大字東宮下２１５-１","kouzui":"×","gake":"○","takashio":"×","jishin":"○","tsunami":"×","kaji":"×","naisui":"×","kazan":"×"}}
,{"type":"Feature","geometry":{"type":"Point","coordinates":[139.6603744,35.90808202]},"properties":{"Name":"海老沼小学校","Jusho":"埼玉県さいたま市見沼区大字東新井７１０-５","kouzui":"○","gake":"○","takashio":"×","jishin":"○","tsunami":"×","kaji":"×","naisui":"×","kazan":"×"}}
,{"type":"Feature","geometry":{"type":"Point","coordinates":[139.6681575,35.95675704]},"properties":{"Name":"春野小学校","Jusho":"埼玉県さいたま市見沼区春野１-１０-１","kouzui":"×","gake":"○","takashio":"×","jishin":"○","tsunami":"×","kaji":"×","naisui":"×","kazan":"×"}}
,{"type":"Feature","geometry":{"type":"Point","coordinates":[139.6447338,35.93758505]},"properties":{"Name":"大砂土中学校","Jusho":"埼玉県さいたま市見沼区東大宮１-１００-１","kouzui":"○","gake":"○","takashio":"×","jishin":"○","tsunami":"×","kaji":"×","naisui":"×","kazan":"×"}}
,{"type":"Feature","geometry":{"type":"Point","coordinates":[139.6738105,35.90657256]},"properties":{"Name":"片柳中学校","Jusho":"埼玉県さいたま市見沼区大字御蔵５５１","kouzui":"○","gake":"○","takashio":"×","jishin":"○","tsunami":"×","kaji":"×","naisui":"×","kazan":"×"}}
,{"type":"Feature","geometry":{"type":"Point","coordinates":[139.6644338,35.9407308]},"properties":{"Name":"春里中学校","Jusho":"埼玉県さいたま市見沼区大字小深作２６８-１９","kouzui":"○","gake":"○","takashio":"×","jishin":"○","tsunami":"×","kaji":"×","naisui":"×","kazan":"×"}}
,{"type":"Feature","geometry":{"type":"Point","coordinates":[139.680578,35.92740586]},"properties":{"Name":"七里中学校","Jusho":"埼玉県さいたま市見沼区東宮下１-１-１","kouzui":"○","gake":"○","takashio":"×","jishin":"○","tsunami":"×","kaji":"×","naisui":"×","kazan":"×"}}
,{"type":"Feature","geometry":{"type":"Point","coordinates":[139.66694291283,35.925058349241]},"properties":{"Name":"大谷中学校","Jusho":"埼玉県さいたま市見沼区大字大谷１６３４-２","kouzui":"○","gake":"○","takashio":"×","jishin":"○","tsunami":"×","kaji":"×","naisui":"×","kazan":"×"}}
,{"type":"Feature","geometry":{"type":"Point","coordinates":[139.6533183,35.9188606]},"properties":{"Name":"大宮八幡中学校","Jusho":"埼玉県さいたま市見沼区大字南中丸３５７","kouzui":"○","gake":"○","takashio":"×","jishin":"○","tsunami":"×","kaji":"×","naisui":"×","kazan":"×"}}
,{"type":"Feature","geometry":{"type":"Point","coordinates":[139.6628018,35.95622027]},"properties":{"Name":"春野中学校","Jusho":"埼玉県さいたま市見沼区春野２-２-１","kouzui":"×","gake":"○","takashio":"×","jishin":"○","tsunami":"×","kaji":"×","naisui":"×","kazan":"×"}}
,{"type":"Feature","geometry":{"type":"Point","coordinates":[139.64452333492,35.927306778905]},"properties":{"Name":"県立大宮商業高等学校","Jusho":"埼玉県さいたま市見沼区大和田町１-３５６","kouzui":"○","gake":"○","takashio":"×","jishin":"○","tsunami":"×","kaji":"×","naisui":"×","kazan":"×"}}
,{"type":"Feature","geometry":{"type":"Point","coordinates":[139.6855143,35.92731008]},"properties":{"Name":"県立大宮東高等学校","Jusho":"埼玉県さいたま市見沼区大字膝子５６７","kouzui":"×","gake":"○","takashio":"×","jishin":"○","tsunami":"×","kaji":"×","naisui":"×","kazan":"×"}}
,{"type":"Feature","geometry":{"type":"Point","coordinates":[139.6445412,35.94935325]},"properties":{"Name":"東大宮中央公園","Jusho":"埼玉県さいたま市見沼区東大宮５-４２-１","kouzui":"○","gake":"○","takashio":"×","jishin":"○","tsunami":"×","kaji":"×","naisui":"×","kazan":"×"}}
,{"type":"Feature","geometry":{"type":"Point","coordinates":[139.636928,35.94614]},"properties":{"Name":"堀の内公園","Jusho":"埼玉県さいたま市見沼区東大宮２-１５","kouzui":"○","gake":"○","takashio":"×","jishin":"○","tsunami":"×","kaji":"×","naisui":"×","kazan":"×"}}
,{"type":"Feature","geometry":{"type":"Point","coordinates":[139.6503508,35.9516791]},"properties":{"Name":"藁田島公園","Jusho":"埼玉県さいたま市見沼区東大宮６-４２","kouzui":"○","gake":"○","takashio":"×","jishin":"○","tsunami":"×","kaji":"×","naisui":"×","kazan":"×"}}
,{"type":"Feature","geometry":{"type":"Point","coordinates":[139.6681731,35.9522298]},"properties":{"Name":"観音寺下公園","Jusho":"埼玉県さいたま市見沼区深作２-７","kouzui":"○","gake":"○","takashio":"×","jishin":"○","tsunami":"×","kaji":"×","naisui":"×","kazan":"×"}}
,{"type":"Feature","geometry":{"type":"Point","coordinates":[139.653336,35.9362341]},"properties":{"Name":"堀崎公園","Jusho":"埼玉県さいたま市見沼区堀崎町１２-１","kouzui":"○","gake":"○","takashio":"×","jishin":"○","tsunami":"×","kaji":"×","naisui":"×","kazan":"×"}}
,{"type":"Feature","geometry":{"type":"Point","coordinates":[139.680279,35.92357581]},"properties":{"Name":"七里総合公園","Jusho":"埼玉県さいたま市見沼区大字大谷、大字膝子","kouzui":"×","gake":"○","takashio":"×","jishin":"○","tsunami":"×","kaji":"○","naisui":"×","kazan":"×"}}
,{"type":"Feature","geometry":{"type":"Point","coordinates":[139.6466382,35.94032004]},"properties":{"Name":"砂中央公園","Jusho":"埼玉県さいたま市見沼区東大宮７-42","kouzui":"○","gake":"○","takashio":"×","jishin":"○","tsunami":"×","kaji":"×","naisui":"×","kazan":"×"}}
,{"type":"Feature","geometry":{"type":"Point","coordinates":[139.6653579,35.90444496]},"properties":{"Name":"鎌倉公園","Jusho":"埼玉県さいたま市見沼区大字御蔵1393-1","kouzui":"○","gake":"○","takashio":"×","jishin":"○","tsunami":"×","kaji":"×","naisui":"×","kazan":"×"}}
,{"type":"Feature","geometry":{"type":"Point","coordinates":[139.6588957,35.94763705]},"properties":{"Name":"春岡中央公園","Jusho":"埼玉県さいたま市見沼区春岡３-42-1","kouzui":"○","gake":"○","takashio":"×","jishin":"○","tsunami":"×","kaji":"×","naisui":"×","kazan":"×"}}
,{"type":"Feature","geometry":{"type":"Point","coordinates":[139.6659979,35.95557027]},"properties":{"Name":"アーバンみらい公園","Jusho":"埼玉県さいたま市見沼区春野１-1634-3","kouzui":"×","gake":"○","takashio":"×","jishin":"○","tsunami":"×","kaji":"×","naisui":"×","kazan":"×"}}
,{"type":"Feature","geometry":{"type":"Point","coordinates":[139.6554057,35.95206282]},"properties":{"Name":"芝浦工業大学","Jusho":"埼玉県さいたま市見沼区大字深作３０７","kouzui":"○","gake":"○","takashio":"×","jishin":"○","tsunami":"×","kaji":"×","naisui":"×","kazan":"×"}}
,{"type":"Feature","geometry":{"type":"Point","coordinates":[139.6229141,35.88333737]},"properties":{"Name":"与野本町小学校","Jusho":"埼玉県さいたま市中央区本町東３-５-２３","kouzui":"○","gake":"○","takashio":"×","jishin":"○","tsunami":"×","kaji":"×","naisui":"×","kazan":"×"}}
,{"type":"Feature","geometry":{"type":"Point","coordinates":[139.6257717,35.89382861]},"properties":{"Name":"上落合小学校","Jusho":"埼玉県さいたま市中央区上落合４-１４-２４","kouzui":"○","gake":"○","takashio":"×","jishin":"○","tsunami":"×","kaji":"×","naisui":"×","kazan":"×"}}
,{"type":"Feature","geometry":{"type":"Point","coordinates":[139.6361836,35.87213064]},"properties":{"Name":"大戸小学校","Jusho":"埼玉県さいたま市中央区新中里１-６-２８","kouzui":"○","gake":"○","takashio":"×","jishin":"○","tsunami":"×","kaji":"×","naisui":"×","kazan":"×"}}
,{"type":"Feature","geometry":{"type":"Point","coordinates":[139.6317128,35.88963703]},"properties":{"Name":"下落合小学校","Jusho":"埼玉県さいたま市中央区上落合１-７-３３","kouzui":"○","gake":"○","takashio":"×","jishin":"○","tsunami":"×","kaji":"×","naisui":"×","kazan":"×"}}
,{"type":"Feature","geometry":{"type":"Point","coordinates":[139.6085218,35.88758362]},"properties":{"Name":"与野西北小学校","Jusho":"埼玉県さいたま市中央区円阿弥４-３-７","kouzui":"○","gake":"○","takashio":"×","jishin":"○","tsunami":"×","kaji":"×","naisui":"×","kazan":"×"}}
,{"type":"Feature","geometry":{"type":"Point","coordinates":[139.6316539,35.87083306]},"properties":{"Name":"鈴谷小学校","Jusho":"埼玉県さいたま市中央区鈴谷５-１-１","kouzui":"×","gake":"○","takashio":"×","jishin":"○","tsunami":"×","kaji":"×","naisui":"×","kazan":"×"}}
,{"type":"Feature","geometry":{"type":"Point","coordinates":[139.6221873,35.89035889]},"properties":{"Name":"与野八幡小学校","Jusho":"埼玉県さいたま市中央区本町東５-２３-１４","kouzui":"○","gake":"○","takashio":"×","jishin":"○","tsunami":"×","kaji":"×","naisui":"×","kazan":"×"}}
,{"type":"Feature","geometry":{"type":"Point","coordinates":[139.634891,35.86671171]},"properties":{"Name":"与野南小学校","Jusho":"埼玉県さいたま市中央区大戸６-２-２５","kouzui":"×","gake":"○","takashio":"×","jishin":"○","tsunami":"×","kaji":"×","naisui":"×","kazan":"×"}}
,{"type":"Feature","geometry":{"type":"Point","coordinates":[139.6321266,35.88805054]},"properties":{"Name":"与野東中学校","Jusho":"埼玉県さいたま市中央区下落合３-２１-１０","kouzui":"○","gake":"○","takashio":"×","jishin":"○","tsunami":"×","kaji":"×","naisui":"×","kazan":"×"}}
,{"type":"Feature","geometry":{"type":"Point","coordinates":[139.6237057,35.87748515]},"properties":{"Name":"与野西中学校","Jusho":"埼玉県さいたま市中央区鈴谷８-１０-３３","kouzui":"○","gake":"○","takashio":"×","jishin":"○","tsunami":"×","kaji":"×","naisui":"×","kazan":"×"}}
,{"type":"Feature","geometry":{"type":"Point","coordinates":[139.6345384,35.86541984]},"properties":{"Name":"与野南中学校","Jusho":"埼玉県さいたま市中央区大戸２-６-２５","kouzui":"×","gake":"○","takashio":"×","jishin":"○","tsunami":"×","kaji":"×","naisui":"×","kazan":"×"}}
,{"type":"Feature","geometry":{"type":"Point","coordinates":[139.6087818,35.87827061]},"properties":{"Name":"八王子中学校","Jusho":"埼玉県さいたま市中央区八王子４-２-１","kouzui":"○","gake":"○","takashio":"×","jishin":"○","tsunami":"×","kaji":"×","naisui":"×","kazan":"×"}}
,{"type":"Feature","geometry":{"type":"Point","coordinates":[139.6118129,35.89397534]},"properties":{"Name":"県立いずみ高等学校","Jusho":"埼玉県さいたま市中央区円阿弥７-４-１","kouzui":"○","gake":"○","takashio":"×","jishin":"○","tsunami":"×","kaji":"×","naisui":"×","kazan":"×"}}
,{"type":"Feature","geometry":{"type":"Point","coordinates":[139.6178136,35.88413182]},"properties":{"Name":"県立与野高等学校","Jusho":"埼玉県さいたま市中央区本町西２-８-１","kouzui":"○","gake":"○","takashio":"×","jishin":"○","tsunami":"×","kaji":"×","naisui":"×","kazan":"×"}}
,{"type":"Feature","geometry":{"type":"Point","coordinates":[139.6182011,35.88166313]},"properties":{"Name":"与野公園","Jusho":"埼玉県さいたま市中央区本町西１-１４","kouzui":"○","gake":"○","takashio":"×","jishin":"○","tsunami":"×","kaji":"○","naisui":"×","kazan":"×"}}
,{"type":"Feature","geometry":{"type":"Point","coordinates":[139.6083088,35.88021385]},"properties":{"Name":"八王子公園","Jusho":"埼玉県さいたま市中央区八王子４-２","kouzui":"×","gake":"○","takashio":"×","jishin":"○","tsunami":"×","kaji":"×","naisui":"×","kazan":"×"}}
,{"type":"Feature","geometry":{"type":"Point","coordinates":[139.6316149,35.87770686]},"properties":{"Name":"与野中央公園","Jusho":"埼玉県さいたま市中央区新中里４-７-２","kouzui":"×","gake":"○","takashio":"×","jishin":"○","tsunami":"×","kaji":"×","naisui":"×","kazan":"×"}}
,{"type":"Feature","geometry":{"type":"Point","coordinates":[139.6349958,35.86412132]},"properties":{"Name":"大戸公園","Jusho":"埼玉県さいたま市中央区大戸２ー1225-1","kouzui":"×","gake":"○","takashio":"×","jishin":"○","tsunami":"×","kaji":"×","naisui":"×","kazan":"×"}}
,{"type":"Feature","geometry":{"type":"Point","coordinates":[139.6262181,35.8868002]},"properties":{"Name":"下落合環境空間緑道","Jusho":"埼玉県さいたま市中央区下落合４-35-3","kouzui":"×","gake":"○","takashio":"×","jishin":"○","tsunami":"×","kaji":"×","naisui":"×","kazan":"×"}}
,{"type":"Feature","geometry":{"type":"Point","coordinates":[139.6270213,35.85752615]},"properties":{"Name":"土合小学校","Jusho":"埼玉県さいたま市桜区西堀７-２１-１","kouzui":"○","gake":"○","takashio":"×","jishin":"○","tsunami":"×","kaji":"×","naisui":"×","kazan":"×"}}
,{"type":"Feature","geometry":{"type":"Point","coordinates":[139.5983116,35.87177954]},"properties":{"Name":"大久保小学校","Jusho":"埼玉県さいたま市桜区五関２１","kouzui":"○","gake":"○","takashio":"×","jishin":"○","tsunami":"×","kaji":"×","naisui":"×","kazan":"×"}}
,{"type":"Feature","geometry":{"type":"Point","coordinates":[139.617705,35.86134982]},"properties":{"Name":"栄和小学校","Jusho":"埼玉県さいたま市桜区栄和１-７-１","kouzui":"○","gake":"○","takashio":"×","jishin":"○","tsunami":"×","kaji":"×","naisui":"×","kazan":"×"}}
,{"type":"Feature","geometry":{"type":"Point","coordinates":[139.623576,35.83756904]},"properties":{"Name":"田島小学校","Jusho":"埼玉県さいたま市桜区田島１０-１２-１","kouzui":"×","gake":"○","takashio":"×","jishin":"○","tsunami":"×","kaji":"×","naisui":"×","kazan":"×"}}
,{"type":"Feature","geometry":{"type":"Point","coordinates":[139.603238,35.87109676]},"properties":{"Name":"大久保東小学校","Jusho":"埼玉県さいたま市桜区大久保領家３３１","kouzui":"○","gake":"○","takashio":"×","jishin":"○","tsunami":"×","kaji":"×","naisui":"×","kazan":"×"}}
,{"type":"Feature","geometry":{"type":"Point","coordinates":[139.6181095,35.85054607]},"properties":{"Name":"新開小学校","Jusho":"埼玉県さいたま市桜区新開２-１８-１","kouzui":"○","gake":"○","takashio":"×","jishin":"○","tsunami":"×","kaji":"×","naisui":"×","kazan":"×"}}
,{"type":"Feature","geometry":{"type":"Point","coordinates":[139.6074564,35.87481733]},"properties":{"Name":"神田小学校","Jusho":"埼玉県さいたま市桜区神田５４１-１","kouzui":"○","gake":"○","takashio":"×","jishin":"○","tsunami":"×","kaji":"×","naisui":"×","kazan":"×"}}
,{"type":"Feature","geometry":{"type":"Point","coordinates":[139.6240491,35.86519038]},"properties":{"Name":"中島小学校","Jusho":"埼玉県さいたま市桜区中島１-２８-１","kouzui":"○","gake":"○","takashio":"×","jishin":"○","tsunami":"×","kaji":"×","naisui":"×","kazan":"×"}}
,{"type":"Feature","geometry":{"type":"Point","coordinates":[139.6231086,35.86061721]},"properties":{"Name":"土合中学校","Jusho":"埼玉県さいたま市桜区町谷１-１９-１","kouzui":"○","gake":"○","takashio":"×","jishin":"○","tsunami":"×","kaji":"×","naisui":"×","kazan":"×"}}
,{"type":"Feature","geometry":{"type":"Point","coordinates":[139.5972418,35.8671074]},"properties":{"Name":"大久保中学校","Jusho":"埼玉県さいたま市桜区五関２８２","kouzui":"○","gake":"○","takashio":"×","jishin":"○","tsunami":"×","kaji":"×","naisui":"×","kazan":"×"}}
,{"type":"Feature","geometry":{"type":"Point","coordinates":[139.6230449,35.83829529]},"properties":{"Name":"田島中学校","Jusho":"埼玉県さいたま市桜区田島１０-１３-１","kouzui":"×","gake":"○","takashio":"×","jishin":"○","tsunami":"×","kaji":"×","naisui":"×","kazan":"×"}}
,{"type":"Feature","geometry":{"type":"Point","coordinates":[139.6158848,35.87240698]},"properties":{"Name":"上大久保中学校","Jusho":"埼玉県さいたま市桜区上大久保８６１-１","kouzui":"○","gake":"○","takashio":"×","jishin":"○","tsunami":"×","kaji":"×","naisui":"×","kazan":"×"}}
,{"type":"Feature","geometry":{"type":"Point","coordinates":[139.5940802,35.8671685]},"properties":{"Name":"県立浦和北高等学校","Jusho":"埼玉県さいたま市桜区五関５９５","kouzui":"×","gake":"○","takashio":"×","jishin":"○","tsunami":"×","kaji":"×","naisui":"×","kazan":"×"}}
,{"type":"Feature","geometry":{"type":"Point","coordinates":[139.6256194,35.85348538]},"properties":{"Name":"県立浦和工業高等学校","Jusho":"埼玉県さいたま市桜区西堀５-１-１","kouzui":"○","gake":"○","takashio":"×","jishin":"○","tsunami":"×","kaji":"×","naisui":"×","kazan":"×"}}
,{"type":"Feature","geometry":{"type":"Point","coordinates":[139.58199,35.87470676]},"properties":{"Name":"荒川総合運動公園","Jusho":"埼玉県さいたま市桜区大字在家５９１","kouzui":"×","gake":"○","takashio":"×","jishin":"○","tsunami":"×","kaji":"○","naisui":"×","kazan":"×"}}
,{"type":"Feature","geometry":{"type":"Point","coordinates":[139.59387176091,35.87772282791]},"properties":{"Name":"荒川総合運動公園通り","Jusho":"埼玉県さいたま市桜区大字在家137","kouzui":"×","gake":"○","takashio":"×","jishin":"○","tsunami":"×","kaji":"×","naisui":"×","kazan":"×"}}
,{"type":"Feature","geometry":{"type":"Point","coordinates":[139.59702845187,35.863416198581]},"properties":{"Name":"千貫樋水郷公園","Jusho":"埼玉県さいたま市桜区大字五関字中島地内","kouzui":"×","gake":"○","takashio":"×","jishin":"○","tsunami":"×","kaji":"×","naisui":"×","kazan":"×"}}
,{"type":"Feature","geometry":{"type":"Point","coordinates":[139.635181,35.8586182]},"properties":{"Name":"西堀高沼公園","Jusho":"埼玉県さいたま市桜区西堀８-2019-2","kouzui":"×","gake":"○","takashio":"×","jishin":"○","tsunami":"×","kaji":"×","naisui":"×","kazan":"×"}}
,{"type":"Feature","geometry":{"type":"Point","coordinates":[139.61999252908,35.837097911614]},"properties":{"Name":"荒川彩湖公園","Jusho":"埼玉県さいたま市桜区大字田島3513-1","kouzui":"×","gake":"○","takashio":"×","jishin":"○","tsunami":"×","kaji":"○","naisui":"×","kazan":"×"}}
,{"type":"Feature","geometry":{"type":"Point","coordinates":[139.61334063751,35.837150096927]},"properties":{"Name":"桜草公園","Jusho":"埼玉県さいたま市桜区大字田島3542-1","kouzui":"×","gake":"○","takashio":"×","jishin":"○","tsunami":"×","kaji":"○","naisui":"×","kazan":"×"}}
,{"type":"Feature","geometry":{"type":"Point","coordinates":[139.6565488,35.85622132]},"properties":{"Name":"高砂小学校","Jusho":"埼玉県さいたま市浦和区岸町４-１-２９","kouzui":"○","gake":"○","takashio":"×","jishin":"○","tsunami":"×","kaji":"×","naisui":"×","kazan":"×"}}
,{"type":"Feature","geometry":{"type":"Point","coordinates":[139.6437644,35.86851714]},"properties":{"Name":"常盤小学校","Jusho":"埼玉県さいたま市浦和区常盤９-３０-９","kouzui":"○","gake":"○","takashio":"×","jishin":"○","tsunami":"×","kaji":"×","naisui":"×","kazan":"×"}}
,{"type":"Feature","geometry":{"type":"Point","coordinates":[139.6524066,35.88265341]},"properties":{"Name":"木崎小学校","Jusho":"埼玉県さいたま市浦和区領家４-１９-４","kouzui":"○","gake":"○","takashio":"×","jishin":"○","tsunami":"×","kaji":"×","naisui":"×","kazan":"×"}}
,{"type":"Feature","geometry":{"type":"Point","coordinates":[139.6611347,35.86136421]},"properties":{"Name":"仲本小学校","Jusho":"埼玉県さいたま市浦和区本太２-１２-３１","kouzui":"○","gake":"○","takashio":"×","jishin":"○","tsunami":"×","kaji":"×","naisui":"×","kazan":"×"}}
,{"type":"Feature","geometry":{"type":"Point","coordinates":[139.6571269,35.86590514]},"properties":{"Name":"本太小学校","Jusho":"埼玉県さいたま市浦和区本太２-２６-２５","kouzui":"○","gake":"○","takashio":"×","jishin":"○","tsunami":"×","kaji":"×","naisui":"×","kazan":"×"}}
,{"type":"Feature","geometry":{"type":"Point","coordinates":[139.6487179,35.87692725]},"properties":{"Name":"北浦和小学校","Jusho":"埼玉県さいたま市浦和区北浦和２-１８-３","kouzui":"○","gake":"○","takashio":"×","jishin":"○","tsunami":"×","kaji":"×","naisui":"×","kazan":"×"}}
,{"type":"Feature","geometry":{"type":"Point","coordinates":[139.6409981,35.86375773]},"properties":{"Name":"仲町小学校","Jusho":"埼玉県さいたま市浦和区常盤８-１８-４","kouzui":"○","gake":"○","takashio":"×","jishin":"○","tsunami":"×","kaji":"×","naisui":"×","kazan":"×"}}
,{"type":"Feature","geometry":{"type":"Point","coordinates":[139.6423642,35.88756479]},"properties":{"Name":"上木崎小学校","Jusho":"埼玉県さいたま市浦和区上木崎３-４-３","kouzui":"○","gake":"○","takashio":"×","jishin":"○","tsunami":"×","kaji":"×","naisui":"×","kazan":"×"}}
,{"type":"Feature","geometry":{"type":"Point","coordinates":[139.6503664,35.8509016]},"properties":{"Name":"岸町小学校","Jusho":"埼玉県さいたま市浦和区岸町５-２０-４","kouzui":"○","gake":"○","takashio":"×","jishin":"○","tsunami":"×","kaji":"×","naisui":"×","kazan":"×"}}
,{"type":"Feature","geometry":{"type":"Point","coordinates":[139.6490494,35.88141973]},"properties":{"Name":"針ヶ谷小学校","Jusho":"埼玉県さいたま市浦和区領家７-２-１","kouzui":"○","gake":"○","takashio":"×","jishin":"○","tsunami":"×","kaji":"×","naisui":"×","kazan":"×"}}
,{"type":"Feature","geometry":{"type":"Point","coordinates":[139.6646029,35.88296812]},"properties":{"Name":"大東小学校","Jusho":"埼玉県さいたま市浦和区大東３-１４-１","kouzui":"○","gake":"○","takashio":"×","jishin":"○","tsunami":"×","kaji":"×","naisui":"×","kazan":"×"}}
,{"type":"Feature","geometry":{"type":"Point","coordinates":[139.6390575,35.87933155]},"properties":{"Name":"常盤北小学校","Jusho":"埼玉県さいたま市浦和区針ヶ谷４-２-１２","kouzui":"○","gake":"○","takashio":"×","jishin":"○","tsunami":"×","kaji":"×","naisui":"×","kazan":"×"}}
,{"type":"Feature","geometry":{"type":"Point","coordinates":[139.6394375,35.87755851]},"properties":{"Name":"常盤中学校","Jusho":"埼玉県さいたま市浦和区針ヶ谷４-１-９","kouzui":"○","gake":"○","takashio":"×","jishin":"○","tsunami":"×","kaji":"×","naisui":"×","kazan":"×"}}
,{"type":"Feature","geometry":{"type":"Point","coordinates":[139.6614952,35.87941003]},"properties":{"Name":"木崎中学校","Jusho":"埼玉県さいたま市浦和区瀬ヶ崎２-１７-１","kouzui":"○","gake":"○","takashio":"×","jishin":"○","tsunami":"×","kaji":"×","naisui":"×","kazan":"×"}}
,{"type":"Feature","geometry":{"type":"Point","coordinates":[139.6590333,35.87322873]},"properties":{"Name":"本太中学校","Jusho":"埼玉県さいたま市浦和区領家１-４-１５","kouzui":"○","gake":"○","takashio":"×","jishin":"○","tsunami":"×","kaji":"×","naisui":"×","kazan":"×"}}
,{"type":"Feature","geometry":{"type":"Point","coordinates":[139.6481839,35.89360175]},"properties":{"Name":"大原中学校","Jusho":"埼玉県さいたま市浦和区大原３-１-１１","kouzui":"×","gake":"○","takashio":"×","jishin":"○","tsunami":"×","kaji":"×","naisui":"×","kazan":"×"}}
,{"type":"Feature","geometry":{"type":"Point","coordinates":[139.6577852,35.87086589]},"properties":{"Name":"浦和高等学校","Jusho":"埼玉県さいたま市浦和区元町１-２８-１７","kouzui":"○","gake":"○","takashio":"×","jishin":"○","tsunami":"×","kaji":"×","naisui":"×","kazan":"×"}}
,{"type":"Feature","geometry":{"type":"Point","coordinates":[139.6515565,35.87751165]},"properties":{"Name":"県立浦和高等学校","Jusho":"埼玉県さいたま市浦和区領家５-３-３","kouzui":"○","gake":"○","takashio":"×","jishin":"○","tsunami":"×","kaji":"×","naisui":"×","kazan":"×"}}
,{"type":"Feature","geometry":{"type":"Point","coordinates":[139.654331,35.88906464]},"properties":{"Name":"県立浦和西高等学校","Jusho":"埼玉県さいたま市浦和区木崎３-１-１","kouzui":"○","gake":"○","takashio":"×","jishin":"○","tsunami":"×","kaji":"×","naisui":"×","kazan":"×"}}
,{"type":"Feature","geometry":{"type":"Point","coordinates":[139.6596311,35.85233178]},"properties":{"Name":"県立浦和第一女子高等学校","Jusho":"埼玉県さいたま市浦和区岸町３-８-４５","kouzui":"○","gake":"○","takashio":"×","jishin":"○","tsunami":"×","kaji":"×","naisui":"×","kazan":"×"}}
,{"type":"Feature","geometry":{"type":"Point","coordinates":[139.6426657,35.86195854]},"properties":{"Name":"埼玉大学教育学部附属小学校","Jusho":"埼玉県さいたま市浦和区常盤６-９-４４","kouzui":"○","gake":"○","takashio":"×","jishin":"○","tsunami":"×","kaji":"×","naisui":"×","kazan":"×"}}
,{"type":"Feature","geometry":{"type":"Point","coordinates":[139.6646219,35.87132309]},"properties":{"Name":"駒場運動公園","Jusho":"埼玉県さいたま市浦和区駒場２-１","kouzui":"○","gake":"○","takashio":"×","jishin":"○","tsunami":"×","kaji":"○","naisui":"×","kazan":"×"}}
,{"type":"Feature","geometry":{"type":"Point","coordinates":[139.6631002,35.87281551]},"properties":{"Name":"駒場緑地","Jusho":"埼玉県さいたま市浦和区駒場２丁目4","kouzui":"○","gake":"○","takashio":"×","jishin":"○","tsunami":"×","kaji":"×","naisui":"×","kazan":"×"}}
,{"type":"Feature","geometry":{"type":"Point","coordinates":[139.6577331,35.86935699]},"properties":{"Name":"浦和総合運動場","Jusho":"埼玉県さいたま市浦和区元町１ ・ 本太４丁目地内","kouzui":"○","gake":"○","takashio":"×","jishin":"○","tsunami":"×","kaji":"×","naisui":"×","kazan":"×"}}
,{"type":"Feature","geometry":{"type":"Point","coordinates":[139.6436748,35.86999355]},"properties":{"Name":"北浦和公園・浦和北公園","Jusho":"埼玉県さいたま市浦和区常盤９-３０","kouzui":"○","gake":"○","takashio":"×","jishin":"○","tsunami":"×","kaji":"○","naisui":"×","kazan":"×"}}
,{"type":"Feature","geometry":{"type":"Point","coordinates":[139.6507041,35.86228945]},"properties":{"Name":"常盤公園","Jusho":"埼玉県さいたま市浦和区常盤１-８","kouzui":"○","gake":"○","takashio":"×","jishin":"○","tsunami":"×","kaji":"×","naisui":"×","kazan":"×"}}
,{"type":"Feature","geometry":{"type":"Point","coordinates":[139.6563437,35.8535135]},"properties":{"Name":"調公園","Jusho":"埼玉県さいたま市浦和区岸町３-１７","kouzui":"○","gake":"○","takashio":"×","jishin":"○","tsunami":"×","kaji":"×","naisui":"×","kazan":"×"}}
,{"type":"Feature","geometry":{"type":"Point","coordinates":[139.64958938148,35.89625261211]},"properties":{"Name":"大原スポーツ広場一帯","Jusho":"埼玉県さいたま市浦和区大原3-103-3　外","kouzui":"×","gake":"○","takashio":"×","jishin":"○","tsunami":"×","kaji":"○","naisui":"×","kazan":"×"}}
,{"type":"Feature","geometry":{"type":"Point","coordinates":[139.6785045,35.85581836]},"properties":{"Name":"谷田小学校","Jusho":"埼玉県さいたま市南区太田窪５-１０-６","kouzui":"○","gake":"○","takashio":"×","jishin":"○","tsunami":"×","kaji":"×","naisui":"×","kazan":"×"}}
,{"type":"Feature","geometry":{"type":"Point","coordinates":[139.6578796,35.84574794]},"properties":{"Name":"南浦和小学校","Jusho":"埼玉県さいたま市南区白幡１-１-２０","kouzui":"○","gake":"○","takashio":"×","jishin":"○","tsunami":"×","kaji":"×","naisui":"×","kazan":"×"}}
,{"type":"Feature","geometry":{"type":"Point","coordinates":[139.6478928,35.84915254]},"properties":{"Name":"浦和別所小学校","Jusho":"埼玉県さいたま市南区別所２-５-３４","kouzui":"○","gake":"○","takashio":"×","jishin":"○","tsunami":"×","kaji":"×","naisui":"×","kazan":"×"}}
,{"type":"Feature","geometry":{"type":"Point","coordinates":[139.668892,35.85249744]},"properties":{"Name":"大谷場小学校","Jusho":"埼玉県さいたま市南区南浦和１-１８-３","kouzui":"○","gake":"○","takashio":"×","jishin":"○","tsunami":"×","kaji":"×","naisui":"×","kazan":"×"}}
,{"type":"Feature","geometry":{"type":"Point","coordinates":[139.6751493,35.85373109]},"properties":{"Name":"大谷場東小学校","Jusho":"埼玉県さいたま市南区大谷場２-１３-５４","kouzui":"○","gake":"○","takashio":"×","jishin":"○","tsunami":"×","kaji":"×","naisui":"×","kazan":"×"}}
,{"type":"Feature","geometry":{"type":"Point","coordinates":[139.6303578295,35.83800109]},"properties":{"Name":"西浦和小学校","Jusho":"埼玉県さいたま市南区曲本１-３-５","kouzui":"○","gake":"○","takashio":"×","jishin":"○","tsunami":"×","kaji":"×","naisui":"×","kazan":"×"}}
,{"type":"Feature","geometry":{"type":"Point","coordinates":[139.6585593,35.8328927]},"properties":{"Name":"辻小学校","Jusho":"埼玉県さいたま市南区辻６-３-２８","kouzui":"○","gake":"○","takashio":"×","jishin":"○","tsunami":"×","kaji":"×","naisui":"×","kazan":"×"}}
,{"type":"Feature","geometry":{"type":"Point","coordinates":[139.67364146998,35.834854155125]},"properties":{"Name":"文蔵小学校","Jusho":"埼玉県さいたま市南区文蔵５-１６-２９","kouzui":"○","gake":"○","takashio":"×","jishin":"○","tsunami":"×","kaji":"×","naisui":"×","kazan":"×"}}
,{"type":"Feature","geometry":{"type":"Point","coordinates":[139.6467244,35.83904039]},"properties":{"Name":"沼影小学校","Jusho":"埼玉県さいたま市南区沼影２-８-３６","kouzui":"○","gake":"○","takashio":"×","jishin":"○","tsunami":"×","kaji":"×","naisui":"×","kazan":"×"}}
,{"type":"Feature","geometry":{"type":"Point","coordinates":[139.6833705,35.86219638]},"properties":{"Name":"大谷口小学校","Jusho":"埼玉県さいたま市南区広ヶ谷戸２４","kouzui":"○","gake":"○","takashio":"×","jishin":"○","tsunami":"×","kaji":"×","naisui":"×","kazan":"×"}}
,{"type":"Feature","geometry":{"type":"Point","coordinates":[139.6441722,35.8451446]},"properties":{"Name":"浦和大里小学校","Jusho":"埼玉県さいたま市南区別所７-１４-２８","kouzui":"○","gake":"○","takashio":"×","jishin":"○","tsunami":"×","kaji":"×","naisui":"×","kazan":"×"}}
,{"type":"Feature","geometry":{"type":"Point","coordinates":[139.68581040555,35.853736455881]},"properties":{"Name":"善前小学校","Jusho":"埼玉県さいたま市南区太田窪２５００-１","kouzui":"○","gake":"○","takashio":"×","jishin":"○","tsunami":"×","kaji":"×","naisui":"×","kazan":"×"}}
,{"type":"Feature","geometry":{"type":"Point","coordinates":[139.6958484,35.85774649]},"properties":{"Name":"向小学校","Jusho":"埼玉県さいたま市南区大谷口５４３７","kouzui":"○","gake":"○","takashio":"×","jishin":"○","tsunami":"×","kaji":"×","naisui":"×","kazan":"×"}}
,{"type":"Feature","geometry":{"type":"Point","coordinates":[139.6647246,35.83178467]},"properties":{"Name":"辻南小学校","Jusho":"埼玉県さいたま市南区辻８-７-３２","kouzui":"○","gake":"○","takashio":"×","jishin":"○","tsunami":"×","kaji":"×","naisui":"×","kazan":"×"}}
,{"type":"Feature","geometry":{"type":"Point","coordinates":[139.6656186,35.85018982]},"properties":{"Name":"岸中学校","Jusho":"埼玉県さいたま市南区南本町２-２５-２７","kouzui":"○","gake":"○","takashio":"×","jishin":"○","tsunami":"×","kaji":"×","naisui":"×","kazan":"×"}}
,{"type":"Feature","geometry":{"type":"Point","coordinates":[139.65696297672,35.834380426004]},"properties":{"Name":"南浦和中学校","Jusho":"埼玉県さいたま市南区辻６-１-３３","kouzui":"○","gake":"○","takashio":"×","jishin":"○","tsunami":"×","kaji":"×","naisui":"×","kazan":"×"}}
,{"type":"Feature","geometry":{"type":"Point","coordinates":[139.6527335,35.84904246]},"properties":{"Name":"白幡中学校","Jusho":"埼玉県さいたま市南区白幡２-１８-１３","kouzui":"○","gake":"○","takashio":"×","jishin":"○","tsunami":"×","kaji":"×","naisui":"×","kazan":"×"}}
,{"type":"Feature","geometry":{"type":"Point","coordinates":[139.6742802,35.8543311]},"properties":{"Name":"大谷場中学校","Jusho":"埼玉県さいたま市南区大谷場２-１３-５４","kouzui":"○","gake":"○","takashio":"×","jishin":"○","tsunami":"×","kaji":"×","naisui":"×","kazan":"×"}}
,{"type":"Feature","geometry":{"type":"Point","coordinates":[139.6826046,35.86309396]},"properties":{"Name":"大谷口中学校","Jusho":"埼玉県さいたま市南区広ヶ谷戸２１","kouzui":"○","gake":"○","takashio":"×","jishin":"○","tsunami":"×","kaji":"×","naisui":"×","kazan":"×"}}
,{"type":"Feature","geometry":{"type":"Point","coordinates":[139.6479131,35.83565862]},"properties":{"Name":"内谷中学校","Jusho":"埼玉県さいたま市南区内谷６-１０-１","kouzui":"○","gake":"○","takashio":"×","jishin":"○","tsunami":"×","kaji":"×","naisui":"×","kazan":"×"}}
,{"type":"Feature","geometry":{"type":"Point","coordinates":[139.65701798836,35.832084421746]},"properties":{"Name":"浦和南高等学校","Jusho":"埼玉県さいたま市南区辻６-５-３１","kouzui":"○","gake":"○","takashio":"×","jishin":"○","tsunami":"×","kaji":"×","naisui":"×","kazan":"×"}}
,{"type":"Feature","geometry":{"type":"Point","coordinates":[139.6439943,35.85574525]},"properties":{"Name":"埼玉大学教育学部附属中学校","Jusho":"埼玉県さいたま市南区別所４-２-５","kouzui":"○","gake":"○","takashio":"×","jishin":"○","tsunami":"×","kaji":"×","naisui":"×","kazan":"×"}}
,{"type":"Feature","geometry":{"type":"Point","coordinates":[139.6705434,35.85787444]},"properties":{"Name":"浦和競馬場","Jusho":"埼玉県さいたま市南区大谷場1-8-42","kouzui":"×","gake":"○","takashio":"×","jishin":"○","tsunami":"×","kaji":"○","naisui":"×","kazan":"×"}}
,{"type":"Feature","geometry":{"type":"Point","coordinates":[139.6407523,35.85617645]},"properties":{"Name":"別所沼公園","Jusho":"埼玉県さいたま市南区別所４-１２","kouzui":"×","gake":"○","takashio":"×","jishin":"○","tsunami":"×","kaji":"×","naisui":"×","kazan":"×"}}
,{"type":"Feature","geometry":{"type":"Point","coordinates":[139.6755093,35.84740929]},"properties":{"Name":"舟山公園","Jusho":"埼玉県さいたま市南区南浦和３-３８","kouzui":"×","gake":"○","takashio":"×","jishin":"○","tsunami":"×","kaji":"×","naisui":"×","kazan":"×"}}
,{"type":"Feature","geometry":{"type":"Point","coordinates":[139.6937282,35.85465315]},"properties":{"Name":"明花公園","Jusho":"埼玉県さいたま市南区大字大谷口5732","kouzui":"×","gake":"○","takashio":"×","jishin":"○","tsunami":"×","kaji":"×","naisui":"×","kazan":"×"}}
,{"type":"Feature","geometry":{"type":"Point","coordinates":[139.6459304,35.84004302]},"properties":{"Name":"沼影公園","Jusho":"埼玉県さいたま市南区沼影２-７-３５","kouzui":"×","gake":"○","takashio":"×","jishin":"○","tsunami":"×","kaji":"×","naisui":"×","kazan":"×"}}
,{"type":"Feature","geometry":{"type":"Point","coordinates":[139.6912744,35.85364226]},"properties":{"Name":"大谷口公園","Jusho":"埼玉県さいたま市南区大字大谷口5736-1","kouzui":"×","gake":"○","takashio":"×","jishin":"○","tsunami":"×","kaji":"×","naisui":"×","kazan":"×"}}
,{"type":"Feature","geometry":{"type":"Point","coordinates":[139.6822635,35.88358688]},"properties":{"Name":"三室小学校","Jusho":"埼玉県さいたま市緑区三室１９９４","kouzui":"○","gake":"○","takashio":"×","jishin":"○","tsunami":"×","kaji":"×","naisui":"×","kazan":"×"}}
,{"type":"Feature","geometry":{"type":"Point","coordinates":[139.6969641,35.86881643]},"properties":{"Name":"尾間木小学校","Jusho":"埼玉県さいたま市緑区東浦和８-１１-５","kouzui":"○","gake":"○","takashio":"×","jishin":"○","tsunami":"×","kaji":"×","naisui":"×","kazan":"×"}}
,{"type":"Feature","geometry":{"type":"Point","coordinates":[139.6705542,35.86600341]},"properties":{"Name":"原山小学校","Jusho":"埼玉県さいたま市緑区原山１-３０-１２","kouzui":"○","gake":"○","takashio":"×","jishin":"○","tsunami":"×","kaji":"×","naisui":"×","kazan":"×"}}
,{"type":"Feature","geometry":{"type":"Point","coordinates":[139.7334794,35.88117252]},"properties":{"Name":"大門小学校","Jusho":"埼玉県さいたま市緑区大門１１８９","kouzui":"○","gake":"○","takashio":"×","jishin":"○","tsunami":"×","kaji":"×","naisui":"×","kazan":"×"}}
,{"type":"Feature","geometry":{"type":"Point","coordinates":[139.7037132,35.90064958]},"properties":{"Name":"野田小学校","Jusho":"埼玉県さいたま市緑区上野田１６","kouzui":"○","gake":"○","takashio":"×","jishin":"○","tsunami":"×","kaji":"×","naisui":"×","kazan":"×"}}
,{"type":"Feature","geometry":{"type":"Point","coordinates":[139.6683837,35.8751527]},"properties":{"Name":"道祖土小学校","Jusho":"埼玉県さいたま市緑区道祖土１-１-１","kouzui":"○","gake":"○","takashio":"×","jishin":"○","tsunami":"×","kaji":"×","naisui":"×","kazan":"×"}}
,{"type":"Feature","geometry":{"type":"Point","coordinates":[139.6824826,35.86846606]},"properties":{"Name":"中尾小学校","Jusho":"埼玉県さいたま市緑区中尾２５９６-１","kouzui":"○","gake":"○","takashio":"×","jishin":"○","tsunami":"×","kaji":"×","naisui":"×","kazan":"×"}}
,{"type":"Feature","geometry":{"type":"Point","coordinates":[139.706746,35.87310056]},"properties":{"Name":"大牧小学校","Jusho":"埼玉県さいたま市緑区東浦和６-１２-３","kouzui":"○","gake":"○","takashio":"×","jishin":"○","tsunami":"×","kaji":"×","naisui":"×","kazan":"×"}}
,{"type":"Feature","geometry":{"type":"Point","coordinates":[139.6918598,35.88181499]},"properties":{"Name":"芝原小学校","Jusho":"埼玉県さいたま市緑区芝原２-５","kouzui":"○","gake":"○","takashio":"×","jishin":"○","tsunami":"×","kaji":"×","naisui":"×","kazan":"×"}}
,{"type":"Feature","geometry":{"type":"Point","coordinates":[139.734786,35.89044079]},"properties":{"Name":"美園小学校","Jusho":"埼玉県さいたま市緑区大字大門４３５９","kouzui":"×","gake":"○","takashio":"×","jishin":"○","tsunami":"×","kaji":"×","naisui":"×","kazan":"×"}}
,{"type":"Feature","geometry":{"type":"Point","coordinates":[139.722999777941,35.9010460102177]},"properties":{"Name":"美園北小学校","Jusho":"埼玉県さいたま市緑区美園２ー１２ー１１","kouzui":"×","gake":"○","takashio":"×","jishin":"○","tsunami":"×","kaji":"×","naisui":"×","kazan":"×"}}
,{"type":"Feature","geometry":{"type":"Point","coordinates":[139.6668949,35.86693434]},"properties":{"Name":"原山中学校","Jusho":"埼玉県さいたま市緑区太田窪１-１０-２２","kouzui":"○","gake":"○","takashio":"×","jishin":"○","tsunami":"×","kaji":"×","naisui":"×","kazan":"×"}}
,{"type":"Feature","geometry":{"type":"Point","coordinates":[139.6839372,35.8749249]},"properties":{"Name":"東浦和中学校","Jusho":"埼玉県さいたま市緑区中尾１２０７-１","kouzui":"○","gake":"○","takashio":"×","jishin":"○","tsunami":"×","kaji":"×","naisui":"×","kazan":"×"}}
,{"type":"Feature","geometry":{"type":"Point","coordinates":[139.7127152,35.89253684]},"properties":{"Name":"美園中学校","Jusho":"埼玉県さいたま市緑区大崎２５５０-３","kouzui":"○","gake":"○","takashio":"×","jishin":"○","tsunami":"×","kaji":"×","naisui":"×","kazan":"×"}}
,{"type":"Feature","geometry":{"type":"Point","coordinates":[139.6843817,35.88733826]},"properties":{"Name":"三室中学校","Jusho":"埼玉県さいたま市緑区馬場１-３８-２","kouzui":"○","gake":"○","takashio":"×","jishin":"○","tsunami":"×","kaji":"×","naisui":"×","kazan":"×"}}
,{"type":"Feature","geometry":{"type":"Point","coordinates":[139.698524,35.8692573]},"properties":{"Name":"尾間木中学校","Jusho":"埼玉県さいたま市緑区東浦和４-２９-１","kouzui":"○","gake":"○","takashio":"×","jishin":"○","tsunami":"×","kaji":"×","naisui":"×","kazan":"×"}}
,{"type":"Feature","geometry":{"type":"Point","coordinates":[139.736271348235,35.8856100885026]},"properties":{"Name":"美園南中学校","Jusho":"埼玉県さいたま市緑区美園６-１５","kouzui":"○","gake":"○","takashio":"×","jishin":"○","tsunami":"×","kaji":"×","naisui":"×","kazan":"×"}}
,{"type":"Feature","geometry":{"type":"Point","coordinates":[139.7074235,35.90894178]},"properties":{"Name":"県立浦和東高等学校","Jusho":"埼玉県さいたま市緑区寺山３６５","kouzui":"×","gake":"○","takashio":"×","jishin":"○","tsunami":"×","kaji":"×","naisui":"×","kazan":"×"}}
,{"type":"Feature","geometry":{"type":"Point","coordinates":[139.7162216,35.88167321]},"properties":{"Name":"県立浦和特別支援学校","Jusho":"埼玉県さいたま市緑区大崎５８","kouzui":"×","gake":"○","takashio":"×","jishin":"○","tsunami":"×","kaji":"×","naisui":"×","kazan":"×"}}
,{"type":"Feature","geometry":{"type":"Point","coordinates":[139.7142301,35.88443278]},"properties":{"Name":"大崎公園","Jusho":"埼玉県さいたま市緑区大字大崎","kouzui":"×","gake":"○","takashio":"×","jishin":"○","tsunami":"×","kaji":"×","naisui":"×","kazan":"×"}}
,{"type":"Feature","geometry":{"type":"Point","coordinates":[139.70126,35.86549]},"properties":{"Name":"東浦和中央公園","Jusho":"埼玉県さいたま市緑区東浦和４-４-１","kouzui":"○","gake":"○","takashio":"×","jishin":"○","tsunami":"×","kaji":"×","naisui":"×","kazan":"×"}}
,{"type":"Feature","geometry":{"type":"Point","coordinates":[139.6911135,35.88258991]},"properties":{"Name":"松芝公園","Jusho":"埼玉県さいたま市緑区芝原２丁目4-2","kouzui":"×","gake":"○","takashio":"×","jishin":"○","tsunami":"×","kaji":"×","naisui":"×","kazan":"×"}}
,{"type":"Feature","geometry":{"type":"Point","coordinates":[139.7009698,35.86197296]},"properties":{"Name":"井沼方公園","Jusho":"埼玉県さいたま市緑区東浦和２丁目15-1","kouzui":"○","gake":"○","takashio":"×","jishin":"○","tsunami":"×","kaji":"×","naisui":"×","kazan":"×"}}
,{"type":"Feature","geometry":{"type":"Point","coordinates":[139.6640011,35.89773553]},"properties":{"Name":"三浦運動公園","Jusho":"埼玉県さいたま市緑区大字三浦6836-1","kouzui":"○","gake":"○","takashio":"×","jishin":"○","tsunami":"×","kaji":"×","naisui":"×","kazan":"×"}}
,{"type":"Feature","geometry":{"type":"Point","coordinates":[139.6795486,35.89296738]},"properties":{"Name":"見沼臨時グラウンド","Jusho":"埼玉県さいたま市緑区大字新宿地内","kouzui":"×","gake":"○","takashio":"×","jishin":"○","tsunami":"×","kaji":"×","naisui":"×","kazan":"×"}}
,{"type":"Feature","geometry":{"type":"Point","coordinates":[139.69686615659,35.90609105126]},"properties":{"Name":"さぎ山記念公園・見沼自然公園","Jusho":"埼玉県さいたま市緑区大字上野田362-1","kouzui":"×","gake":"○","takashio":"×","jishin":"○","tsunami":"×","kaji":"○","naisui":"×","kazan":"×"}}
,{"type":"Feature","geometry":{"type":"Point","coordinates":[139.7104533,35.86472985]},"properties":{"Name":"大間木公園","Jusho":"埼玉県さいたま市緑区大字大間木1947","kouzui":"×","gake":"○","takashio":"×","jishin":"○","tsunami":"×","kaji":"×","naisui":"×","kazan":"×"}}
,{"type":"Feature","geometry":{"type":"Point","coordinates":[139.6944686,35.88597457]},"properties":{"Name":"見沼氷川公園","Jusho":"埼玉県さいたま市緑区大字見沼500","kouzui":"×","gake":"○","takashio":"×","jishin":"○","tsunami":"×","kaji":"×","naisui":"×","kazan":"×"}}
,{"type":"Feature","geometry":{"type":"Point","coordinates":[139.7307813,35.8869251]},"properties":{"Name":"旧美園中学校跡地","Jusho":"埼玉県さいたま市緑区大字大門２８２２-１","kouzui":"○","gake":"○","takashio":"×","jishin":"○","tsunami":"×","kaji":"×","naisui":"×","kazan":"×"}}
,{"type":"Feature","geometry":{"type":"Point","coordinates":[139.724062253937,35.8951690427547]},"properties":{"Name":"美園台公園","Jusho":"埼玉県さいたま市緑区大字下野田550外","kouzui":"×","gake":"○","takashio":"×","jishin":"○","tsunami":"×","kaji":"×","naisui":"×","kazan":"×"}}
,{"type":"Feature","geometry":{"type":"Point","coordinates":[139.6990467,35.95306542]},"properties":{"Name":"岩槻小学校","Jusho":"埼玉県さいたま市岩槻区本町５-６-４５","kouzui":"○","gake":"○","takashio":"×","jishin":"○","tsunami":"×","kaji":"×","naisui":"×","kazan":"×"}}
,{"type":"Feature","geometry":{"type":"Point","coordinates":[139.7040107,35.94780986]},"properties":{"Name":"太田小学校","Jusho":"埼玉県さいたま市岩槻区仲町１-１７-３","kouzui":"○","gake":"○","takashio":"×","jishin":"○","tsunami":"×","kaji":"×","naisui":"×","kazan":"×"}}
,{"type":"Feature","geometry":{"type":"Point","coordinates":[139.730896,35.94166019]},"properties":{"Name":"川通小学校","Jusho":"埼玉県さいたま市岩槻区大野島４２２-１","kouzui":"○","gake":"○","takashio":"×","jishin":"○","tsunami":"×","kaji":"×","naisui":"×","kazan":"×"}}
,{"type":"Feature","geometry":{"type":"Point","coordinates":[139.7014039,35.93320064]},"properties":{"Name":"柏崎小学校","Jusho":"埼玉県さいたま市岩槻区柏崎７６２","kouzui":"○","gake":"○","takashio":"×","jishin":"○","tsunami":"×","kaji":"×","naisui":"×","kazan":"×"}}
,{"type":"Feature","geometry":{"type":"Point","coordinates":[139.72022585397,35.925663515906]},"properties":{"Name":"和土小学校","Jusho":"埼玉県さいたま市岩槻区黒谷１３５３","kouzui":"○","gake":"○","takashio":"×","jishin":"○","tsunami":"×","kaji":"×","naisui":"×","kazan":"×"}}
,{"type":"Feature","geometry":{"type":"Point","coordinates":[139.7329475,35.9104999]},"properties":{"Name":"新和小学校","Jusho":"埼玉県さいたま市岩槻区尾ヶ崎１２５２","kouzui":"○","gake":"○","takashio":"×","jishin":"○","tsunami":"×","kaji":"×","naisui":"×","kazan":"×"}}
,{"type":"Feature","geometry":{"type":"Point","coordinates":[139.7077877,35.98140794]},"properties":{"Name":"慈恩寺小学校","Jusho":"埼玉県さいたま市岩槻区慈恩寺２５９","kouzui":"○","gake":"○","takashio":"×","jishin":"○","tsunami":"×","kaji":"×","naisui":"×","kazan":"×"}}
,{"type":"Feature","geometry":{"type":"Point","coordinates":[139.6717218,35.96689812]},"properties":{"Name":"河合小学校","Jusho":"埼玉県さいたま市岩槻区平林寺３５１","kouzui":"○","gake":"○","takashio":"×","jishin":"○","tsunami":"×","kaji":"×","naisui":"×","kazan":"×"}}
,{"type":"Feature","geometry":{"type":"Point","coordinates":[139.709119,35.96991821]},"properties":{"Name":"東岩槻小学校","Jusho":"埼玉県さいたま市岩槻区諏訪２-６-１","kouzui":"○","gake":"○","takashio":"×","jishin":"○","tsunami":"×","kaji":"×","naisui":"×","kazan":"×"}}
,{"type":"Feature","geometry":{"type":"Point","coordinates":[139.6935476,35.9617984]},"properties":{"Name":"城北小学校","Jusho":"埼玉県さいたま市岩槻区岩槻６６１９","kouzui":"○","gake":"○","takashio":"×","jishin":"○","tsunami":"×","kaji":"×","naisui":"×","kazan":"×"}}
,{"type":"Feature","geometry":{"type":"Point","coordinates":[139.716556,35.97380505]},"properties":{"Name":"徳力小学校","Jusho":"埼玉県さいたま市岩槻区徳力１３６-４","kouzui":"×","gake":"○","takashio":"×","jishin":"○","tsunami":"×","kaji":"×","naisui":"×","kazan":"×"}}
,{"type":"Feature","geometry":{"type":"Point","coordinates":[139.7049597,35.96541263]},"properties":{"Name":"上里小学校","Jusho":"埼玉県さいたま市岩槻区上里２-２","kouzui":"○","gake":"○","takashio":"×","jishin":"○","tsunami":"×","kaji":"×","naisui":"×","kazan":"×"}}
,{"type":"Feature","geometry":{"type":"Point","coordinates":[139.68358,35.95308564]},"properties":{"Name":"西原小学校","Jusho":"埼玉県さいたま市岩槻区西原６-２５","kouzui":"○","gake":"○","takashio":"×","jishin":"○","tsunami":"×","kaji":"×","naisui":"×","kazan":"×"}}
,{"type":"Feature","geometry":{"type":"Point","coordinates":[139.712508,35.93534405]},"properties":{"Name":"城南小学校","Jusho":"埼玉県さいたま市岩槻区南下新井１１９１-１","kouzui":"○","gake":"○","takashio":"×","jishin":"○","tsunami":"×","kaji":"×","naisui":"×","kazan":"×"}}
,{"type":"Feature","geometry":{"type":"Point","coordinates":[139.7027942,35.94915995]},"properties":{"Name":"岩槻中学校","Jusho":"埼玉県さいたま市岩槻区仲町１-１４-３５","kouzui":"○","gake":"○","takashio":"×","jishin":"○","tsunami":"×","kaji":"×","naisui":"×","kazan":"×"}}
,{"type":"Feature","geometry":{"type":"Point","coordinates":[139.7318681,35.94775305]},"properties":{"Name":"川通中学校","Jusho":"埼玉県さいたま市岩槻区長宮４３５","kouzui":"○","gake":"○","takashio":"×","jishin":"○","tsunami":"×","kaji":"×","naisui":"×","kazan":"×"}}
,{"type":"Feature","geometry":{"type":"Point","coordinates":[139.7266851,35.91458881]},"properties":{"Name":"城南中学校","Jusho":"埼玉県さいたま市岩槻区笹久保５７７","kouzui":"○","gake":"○","takashio":"×","jishin":"○","tsunami":"×","kaji":"×","naisui":"×","kazan":"×"}}
,{"type":"Feature","geometry":{"type":"Point","coordinates":[139.7045843,35.98501197]},"properties":{"Name":"慈恩寺中学校","Jusho":"埼玉県さいたま市岩槻区裏慈恩寺５０５","kouzui":"○","gake":"○","takashio":"×","jishin":"○","tsunami":"×","kaji":"×","naisui":"×","kazan":"×"}}
,{"type":"Feature","geometry":{"type":"Point","coordinates":[139.6890592,35.96501551]},"properties":{"Name":"城北中学校","Jusho":"埼玉県さいたま市岩槻区本宿３９２-１","kouzui":"○","gake":"○","takashio":"×","jishin":"○","tsunami":"×","kaji":"×","naisui":"×","kazan":"×"}}
,{"type":"Feature","geometry":{"type":"Point","coordinates":[139.7111416,35.97222705]},"properties":{"Name":"桜山中学校","Jusho":"埼玉県さいたま市岩槻区表慈恩寺６８４-１","kouzui":"○","gake":"×","takashio":"×","jishin":"○","tsunami":"×","kaji":"×","naisui":"×","kazan":"×"}}
,{"type":"Feature","geometry":{"type":"Point","coordinates":[139.7033499,35.93581607]},"properties":{"Name":"柏陽中学校","Jusho":"埼玉県さいたま市岩槻区真福寺４５４","kouzui":"○","gake":"○","takashio":"×","jishin":"○","tsunami":"×","kaji":"×","naisui":"×","kazan":"×"}}
,{"type":"Feature","geometry":{"type":"Point","coordinates":[139.6814017,35.95550773]},"properties":{"Name":"西原中学校","Jusho":"埼玉県さいたま市岩槻区岩槻３７５０","kouzui":"○","gake":"○","takashio":"×","jishin":"○","tsunami":"×","kaji":"×","naisui":"×","kazan":"×"}}
,{"type":"Feature","geometry":{"type":"Point","coordinates":[139.7058869,35.95053654]},"properties":{"Name":"県立岩槻商業高等学校","Jusho":"埼玉県さいたま市岩槻区太田１-４-１","kouzui":"○","gake":"○","takashio":"×","jishin":"○","tsunami":"×","kaji":"×","naisui":"×","kazan":"×"}}
,{"type":"Feature","geometry":{"type":"Point","coordinates":[139.70296501772,35.941881156476]},"properties":{"Name":"県立岩槻高等学校","Jusho":"埼玉県さいたま市岩槻区城南１-３-３８","kouzui":"○","gake":"○","takashio":"×","jishin":"○","tsunami":"×","kaji":"×","naisui":"×","kazan":"×"}}
,{"type":"Feature","geometry":{"type":"Point","coordinates":[139.7142399,35.9784698]},"properties":{"Name":"県立岩槻北陵高等学校","Jusho":"埼玉県さいたま市岩槻区慈恩寺１１７-２","kouzui":"×","gake":"○","takashio":"×","jishin":"○","tsunami":"×","kaji":"×","naisui":"×","kazan":"×"}}
,{"type":"Feature","geometry":{"type":"Point","coordinates":[139.71047471957,35.95086527286]},"properties":{"Name":"岩槻城址公園","Jusho":"埼玉県さいたま市岩槻区太田３-４","kouzui":"×","gake":"○","takashio":"×","jishin":"○","tsunami":"×","kaji":"○","naisui":"×","kazan":"×"}}
,{"type":"Feature","geometry":{"type":"Point","coordinates":[139.72291994393,35.944284734266]},"properties":{"Name":"岩槻文化公園","Jusho":"埼玉県さいたま市岩槻区村国２２９","kouzui":"×","gake":"○","takashio":"×","jishin":"○","tsunami":"×","kaji":"○","naisui":"×","kazan":"×"}}
,{"type":"Feature","geometry":{"type":"Point","coordinates":[139.70488904523,35.968646701412]},"properties":{"Name":"岩槻諏訪公園","Jusho":"埼玉県さいたま市岩槻区諏訪４-４","kouzui":"×","gake":"○","takashio":"×","jishin":"○","tsunami":"×","kaji":"×","naisui":"×","kazan":"×"}}
,{"type":"Feature","geometry":{"type":"Point","coordinates":[139.691868,35.978007]},"properties":{"Name":"北部工業団地記念公園","Jusho":"埼玉県さいたま市岩槻区大字古ヶ場１-２-１","kouzui":"×","gake":"○","takashio":"×","jishin":"○","tsunami":"×","kaji":"×","naisui":"×","kazan":"×"}}
,{"type":"Feature","geometry":{"type":"Point","coordinates":[139.7268889,35.92562925]},"properties":{"Name":"和土住宅公園","Jusho":"埼玉県さいたま市岩槻区大字黒谷636-1","kouzui":"×","gake":"○","takashio":"×","jishin":"○","tsunami":"×","kaji":"×","naisui":"×","kazan":"×"}}
,{"type":"Feature","geometry":{"type":"Point","coordinates":[139.7175736,35.95545326]},"properties":{"Name":"南平野公園","Jusho":"埼玉県さいたま市岩槻区南平野2丁目26","kouzui":"×","gake":"○","takashio":"×","jishin":"○","tsunami":"×","kaji":"×","naisui":"×","kazan":"×"}}
,{"type":"Feature","geometry":{"type":"Point","coordinates":[139.7163441,35.97956394]},"properties":{"Name":"慈恩寺親水公園","Jusho":"埼玉県さいたま市岩槻区大字小溝459-1","kouzui":"×","gake":"○","takashio":"×","jishin":"○","tsunami":"×","kaji":"×","naisui":"×","kazan":"×"}}
,{"type":"Feature","geometry":{"type":"Point","coordinates":[139.728461,35.95181616]},"properties":{"Name":"川通公園","Jusho":"埼玉県さいたま市岩槻区大字長宮825-5","kouzui":"×","gake":"○","takashio":"×","jishin":"○","tsunami":"×","kaji":"×","naisui":"×","kazan":"×"}}
,{"type":"Feature","geometry":{"type":"Point","coordinates":[139.71433653202,35.972701097079]},"properties":{"Name":"開智学園","Jusho":"埼玉県さいたま市岩槻区大字徳力１８６","kouzui":"×","gake":"○","takashio":"×","jishin":"○","tsunami":"×","kaji":"×","naisui":"×","kazan":"×"}}
,{"type":"Feature","geometry":{"type":"Point","coordinates":[139.49033208875,35.913450174661]},"properties":{"Name":"川越第一中学校","Jusho":"埼玉県川越市小仙波町5-6","kouzui":"○","gake":"○","takashio":"×","jishin":"○","tsunami":"×","kaji":"×","naisui":"○","kazan":"×"}}
,{"type":"Feature","geometry":{"type":"Point","coordinates":[139.49184344029,35.915468813717]},"properties":{"Name":"川越総合高等学校","Jusho":"埼玉県川越市小仙波町5-14","kouzui":"○","gake":"○","takashio":"×","jishin":"○","tsunami":"×","kaji":"×","naisui":"○","kazan":"×"}}
,{"type":"Feature","geometry":{"type":"Point","coordinates":[139.48111892107,35.917378216495]},"properties":{"Name":"中央小学校","Jusho":"埼玉県川越市中原町1-25","kouzui":"○","gake":"○","takashio":"×","jishin":"○","tsunami":"×","kaji":"×","naisui":"○","kazan":"×"}}
,{"type":"Feature","geometry":{"type":"Point","coordinates":[139.48725248521,35.913399998033]},"properties":{"Name":"川越工業高等学校","Jusho":"埼玉県川越市西小仙波町2-28-1","kouzui":"○","gake":"○","takashio":"×","jishin":"○","tsunami":"×","kaji":"×","naisui":"○","kazan":"×"}}
,{"type":"Feature","geometry":{"type":"Point","coordinates":[139.48763423157,35.905279249604]},"properties":{"Name":"仙波小学校","Jusho":"埼玉県川越市富士見町4-1","kouzui":"○","gake":"○","takashio":"×","jishin":"○","tsunami":"×","kaji":"×","naisui":"○","kazan":"×"}}
,{"type":"Feature","geometry":{"type":"Point","coordinates":[139.47881344786,35.9154649556]},"properties":{"Name":"川越女子高等学校","Jusho":"埼玉県川越市六軒町1-23","kouzui":"○","gake":"○","takashio":"×","jishin":"○","tsunami":"×","kaji":"×","naisui":"○","kazan":"×"}}
,{"type":"Feature","geometry":{"type":"Point","coordinates":[139.50376397984,35.915192356873]},"properties":{"Name":"川越工業高等学校グラウンド","Jusho":"埼玉県川越市大字小仙波847","kouzui":"×","gake":"○","takashio":"×","jishin":"○","tsunami":"×","kaji":"×","naisui":"○","kazan":"×"}}
,{"type":"Feature","geometry":{"type":"Point","coordinates":[139.47453506542,35.899166993525]},"properties":{"Name":"市立川越高等学校","Jusho":"埼玉県川越市旭町2-3-7","kouzui":"○","gake":"○","takashio":"×","jishin":"○","tsunami":"×","kaji":"×","naisui":"○","kazan":"×"}}
,{"type":"Feature","geometry":{"type":"Point","coordinates":[139.48462828611,35.898401830205]},"properties":{"Name":"城南中学校","Jusho":"埼玉県川越市新宿町3-19-1","kouzui":"○","gake":"○","takashio":"×","jishin":"○","tsunami":"×","kaji":"×","naisui":"○","kazan":"×"}}
,{"type":"Feature","geometry":{"type":"Point","coordinates":[139.47732328482,35.895044980687]},"properties":{"Name":"新宿小学校","Jusho":"埼玉県川越市新宿町6-9-1","kouzui":"○","gake":"○","takashio":"×","jishin":"○","tsunami":"×","kaji":"×","naisui":"○","kazan":"×"}}
,{"type":"Feature","geometry":{"type":"Point","coordinates":[139.48193340741,35.893517824452]},"properties":{"Name":"岸町健康ふれあい広場","Jusho":"埼玉県川越市岸町3-32","kouzui":"○","gake":"○","takashio":"×","jishin":"○","tsunami":"×","kaji":"×","naisui":"○","kazan":"×"}}
,{"type":"Feature","geometry":{"type":"Point","coordinates":[139.46876994248,35.908862805991]},"properties":{"Name":"野田中学校","Jusho":"埼玉県川越市野田町2-19-14","kouzui":"○","gake":"○","takashio":"×","jishin":"○","tsunami":"×","kaji":"×","naisui":"○","kazan":"×"}}
,{"type":"Feature","geometry":{"type":"Point","coordinates":[139.47643152145,35.912059044069]},"properties":{"Name":"富士見中学校","Jusho":"埼玉県川越市東田町17-1","kouzui":"○","gake":"○","takashio":"×","jishin":"○","tsunami":"×","kaji":"×","naisui":"○","kazan":"×"}}
,{"type":"Feature","geometry":{"type":"Point","coordinates":[139.46472101984,35.917673527573]},"properties":{"Name":"泉小学校","Jusho":"埼玉県川越市大字小室463","kouzui":"×","gake":"○","takashio":"×","jishin":"○","tsunami":"×","kaji":"×","naisui":"○","kazan":"×"}}
,{"type":"Feature","geometry":{"type":"Point","coordinates":[139.47040729983,35.918726315243]},"properties":{"Name":"山村学園高等学校第一運動場","Jusho":"埼玉県川越市大字野田1311-84","kouzui":"×","gake":"○","takashio":"×","jishin":"○","tsunami":"×","kaji":"×","naisui":"○","kazan":"×"}}
,{"type":"Feature","geometry":{"type":"Point","coordinates":[139.46943738345,35.927293836056]},"properties":{"Name":"星野高等学校第二校舎","Jusho":"埼玉県川越市石原町2-71-11","kouzui":"×","gake":"○","takashio":"×","jishin":"○","tsunami":"×","kaji":"×","naisui":"○","kazan":"×"}}
,{"type":"Feature","geometry":{"type":"Point","coordinates":[139.48065326189,35.927096211464]},"properties":{"Name":"濯紫公園","Jusho":"埼玉県川越市喜多町8-10","kouzui":"×","gake":"○","takashio":"×","jishin":"○","tsunami":"×","kaji":"×","naisui":"○","kazan":"×"}}
,{"type":"Feature","geometry":{"type":"Point","coordinates":[139.48664834965,35.924022654953]},"properties":{"Name":"川越小学校","Jusho":"埼玉県川越市郭町1-1-1","kouzui":"○","gake":"○","takashio":"×","jishin":"○","tsunami":"×","kaji":"×","naisui":"○","kazan":"×"}}
,{"type":"Feature","geometry":{"type":"Point","coordinates":[139.48722391898,35.923309909422]},"properties":{"Name":"やまぶき会館","Jusho":"埼玉県川越市郭町1-18-7","kouzui":"○","gake":"○","takashio":"×","jishin":"○","tsunami":"×","kaji":"×","naisui":"○","kazan":"×"}}
,{"type":"Feature","geometry":{"type":"Point","coordinates":[139.4884544098,35.92311159474]},"properties":{"Name":"川越第一小学校","Jusho":"埼玉県川越市郭町1-21","kouzui":"○","gake":"○","takashio":"×","jishin":"○","tsunami":"×","kaji":"×","naisui":"○","kazan":"×"}}
,{"type":"Feature","geometry":{"type":"Point","coordinates":[139.48954817016,35.92377857808]},"properties":{"Name":"川越高等学校","Jusho":"埼玉県川越市郭町2-6","kouzui":"○","gake":"○","takashio":"×","jishin":"○","tsunami":"×","kaji":"×","naisui":"○","kazan":"×"}}
,{"type":"Feature","geometry":{"type":"Point","coordinates":[139.49291962958,35.924907381699]},"properties":{"Name":"初雁公園","Jusho":"埼玉県川越市郭町2-13-1","kouzui":"○","gake":"○","takashio":"×","jishin":"○","tsunami":"×","kaji":"×","naisui":"○","kazan":"×"}}
,{"type":"Feature","geometry":{"type":"Point","coordinates":[139.47484478399,35.91950278869]},"properties":{"Name":"月越小学校","Jusho":"埼玉県川越市月吉町51","kouzui":"×","gake":"○","takashio":"×","jishin":"○","tsunami":"×","kaji":"×","naisui":"○","kazan":"×"}}
,{"type":"Feature","geometry":{"type":"Point","coordinates":[139.48696498848,35.926302085794]},"properties":{"Name":"初雁中学校","Jusho":"埼玉県川越市宮下町1-21-3","kouzui":"○","gake":"○","takashio":"×","jishin":"○","tsunami":"×","kaji":"×","naisui":"○","kazan":"×"}}
,{"type":"Feature","geometry":{"type":"Point","coordinates":[139.48686742,35.93179129]},"properties":{"Name":"市民グランド","Jusho":"埼玉県川越市宮元町23-22 ","kouzui":"×","gake":"○","takashio":"×","jishin":"○","tsunami":"×","kaji":"×","naisui":"○","kazan":"×"}}
,{"type":"Feature","geometry":{"type":"Point","coordinates":[139.46490097456,35.925499900265]},"properties":{"Name":"今成小学校","Jusho":"埼玉県川越市今成2-42-1","kouzui":"×","gake":"○","takashio":"×","jishin":"○","tsunami":"×","kaji":"×","naisui":"○","kazan":"×"}}
,{"type":"Feature","geometry":{"type":"Point","coordinates":[139.510862,35.946309]},"properties":{"Name":"芳野中学校","Jusho":"埼玉県川越市大字石田本郷733","kouzui":"×","gake":"○","takashio":"×","jishin":"○","tsunami":"×","kaji":"×","naisui":"○","kazan":"×"}}
,{"type":"Feature","geometry":{"type":"Point","coordinates":[139.51394364191,35.928966013411]},"properties":{"Name":"農業ふれあいセンター","Jusho":"埼玉県川越市大字伊佐沼887","kouzui":"×","gake":"○","takashio":"×","jishin":"○","tsunami":"×","kaji":"×","naisui":"○","kazan":"×"}}
,{"type":"Feature","geometry":{"type":"Point","coordinates":[139.51011793216,35.943356859445]},"properties":{"Name":"芳野小学校","Jusho":"埼玉県川越市大字鴨田331","kouzui":"×","gake":"○","takashio":"×","jishin":"○","tsunami":"×","kaji":"×","naisui":"○","kazan":"×"}}
,{"type":"Feature","geometry":{"type":"Point","coordinates":[139.523756,35.9479929991]},"properties":{"Name":"サンライフ川越・芳野台体育館","Jusho":"埼玉県川越市芳野台1-103-57","kouzui":"×","gake":"○","takashio":"×","jishin":"○","tsunami":"×","kaji":"×","naisui":"○","kazan":"×"}}
,{"type":"Feature","geometry":{"type":"Point","coordinates":[139.51392939,35.92269484]},"properties":{"Name":"伊佐沼公園","Jusho":"埼玉県川越市大字伊佐沼584","kouzui":"×","gake":"○","takashio":"×","jishin":"○","tsunami":"×","kaji":"×","naisui":"○","kazan":"×"}}
,{"type":"Feature","geometry":{"type":"Point","coordinates":[139.52412518827,35.905574701627]},"properties":{"Name":"東中学校","Jusho":"埼玉県川越市大字小中居278","kouzui":"×","gake":"○","takashio":"×","jishin":"○","tsunami":"×","kaji":"×","naisui":"○","kazan":"×"}}
,{"type":"Feature","geometry":{"type":"Point","coordinates":[139.52808549,35.92893963]},"properties":{"Name":"川越運動公園","Jusho":"埼玉県川越市大字下老袋388-1","kouzui":"×","gake":"○","takashio":"×","jishin":"○","tsunami":"×","kaji":"○","naisui":"○","kazan":"×"}}
,{"type":"Feature","geometry":{"type":"Point","coordinates":[139.53229858418,35.917505770407]},"properties":{"Name":"古谷小学校","Jusho":"埼玉県川越市大字古谷上5465","kouzui":"×","gake":"○","takashio":"×","jishin":"○","tsunami":"×","kaji":"×","naisui":"○","kazan":"×"}}
,{"type":"Feature","geometry":{"type":"Point","coordinates":[139.53727925387,35.916081909282]},"properties":{"Name":"教育センター","Jusho":"埼玉県川越市大字古谷上6083-10","kouzui":"×","gake":"○","takashio":"×","jishin":"○","tsunami":"×","kaji":"×","naisui":"○","kazan":"×"}}
,{"type":"Feature","geometry":{"type":"Point","coordinates":[139.5096727127,35.893746324067]},"properties":{"Name":"牛子小学校","Jusho":"埼玉県川越市大字牛子418","kouzui":"×","gake":"○","takashio":"×","jishin":"○","tsunami":"×","kaji":"×","naisui":"○","kazan":"×"}}
,{"type":"Feature","geometry":{"type":"Point","coordinates":[139.52180637192,35.897339359593]},"properties":{"Name":"南古谷小学校","Jusho":"埼玉県川越市大字木野目1451","kouzui":"×","gake":"○","takashio":"×","jishin":"○","tsunami":"×","kaji":"×","naisui":"○","kazan":"×"}}
,{"type":"Feature","geometry":{"type":"Point","coordinates":[139.53089584211,35.89738916393]},"properties":{"Name":"南古谷中学校","Jusho":"埼玉県川越市大字久下戸3721","kouzui":"×","gake":"○","takashio":"×","jishin":"○","tsunami":"×","kaji":"×","naisui":"○","kazan":"×"}}
,{"type":"Feature","geometry":{"type":"Point","coordinates":[139.52990222564,35.885914158905]},"properties":{"Name":"城北埼玉高等学校","Jusho":"埼玉県川越市大字古市場585-1","kouzui":"×","gake":"○","takashio":"×","jishin":"○","tsunami":"×","kaji":"×","naisui":"○","kazan":"×"}}
,{"type":"Feature","geometry":{"type":"Point","coordinates":[139.51268074496,35.900105812007]},"properties":{"Name":"並木西町公園","Jusho":"埼玉県川越市並木西町16","kouzui":"×","gake":"○","takashio":"×","jishin":"○","tsunami":"×","kaji":"×","naisui":"○","kazan":"×"}}
,{"type":"Feature","geometry":{"type":"Point","coordinates":[139.52411582423,35.895969445785]},"properties":{"Name":"東邦音楽大学校庭","Jusho":"埼玉県川越市大字今泉84","kouzui":"×","gake":"○","takashio":"×","jishin":"○","tsunami":"×","kaji":"×","naisui":"○","kazan":"×"}}
,{"type":"Feature","geometry":{"type":"Point","coordinates":[139.5507178108,35.894257590304]},"properties":{"Name":"川越東高等学校","Jusho":"埼玉県川越市久下戸6060","kouzui":"×","gake":"○","takashio":"×","jishin":"○","tsunami":"×","kaji":"×","naisui":"○","kazan":"×"}}
,{"type":"Feature","geometry":{"type":"Point","coordinates":[139.49844983396,35.900303867123]},"properties":{"Name":"砂中学校","Jusho":"埼玉県川越市大字砂260","kouzui":"×","gake":"○","takashio":"×","jishin":"○","tsunami":"×","kaji":"×","naisui":"○","kazan":"×"}}
,{"type":"Feature","geometry":{"type":"Point","coordinates":[139.50083125247,35.896028261069]},"properties":{"Name":"高階運動広場","Jusho":"埼玉県川越市大字砂451-1","kouzui":"×","gake":"○","takashio":"×","jishin":"○","tsunami":"×","kaji":"×","naisui":"○","kazan":"×"}}
,{"type":"Feature","geometry":{"type":"Point","coordinates":[139.49497298331,35.888813213057]},"properties":{"Name":"高階小学校","Jusho":"埼玉県川越市大字砂新田58","kouzui":"○","gake":"○","takashio":"×","jishin":"○","tsunami":"×","kaji":"×","naisui":"○","kazan":"×"}}
,{"type":"Feature","geometry":{"type":"Point","coordinates":[139.48858989051,35.877808115413]},"properties":{"Name":"川越初雁高等学校","Jusho":"埼玉県川越市大字砂新田2564","kouzui":"○","gake":"○","takashio":"×","jishin":"○","tsunami":"×","kaji":"×","naisui":"○","kazan":"×"}}
,{"type":"Feature","geometry":{"type":"Point","coordinates":[139.4909074776,35.876030744824]},"properties":{"Name":"高階西中学校","Jusho":"埼玉県川越市大字砂新田2593","kouzui":"○","gake":"○","takashio":"×","jishin":"○","tsunami":"×","kaji":"×","naisui":"○","kazan":"×"}}
,{"type":"Feature","geometry":{"type":"Point","coordinates":[139.51350867883,35.883183502474]},"properties":{"Name":"寺尾小学校","Jusho":"埼玉県川越市大字寺尾979-2","kouzui":"×","gake":"○","takashio":"×","jishin":"○","tsunami":"×","kaji":"×","naisui":"○","kazan":"×"}}
,{"type":"Feature","geometry":{"type":"Point","coordinates":[139.51180787619,35.883868202325]},"properties":{"Name":"寺尾中学校","Jusho":"埼玉県川越市大字寺尾1068","kouzui":"×","gake":"○","takashio":"×","jishin":"○","tsunami":"×","kaji":"×","naisui":"○","kazan":"×"}}
,{"type":"Feature","geometry":{"type":"Point","coordinates":[139.49415902177,35.885521787681]},"properties":{"Name":"高階中学校","Jusho":"埼玉県川越市大字藤間10","kouzui":"○","gake":"○","takashio":"×","jishin":"○","tsunami":"×","kaji":"×","naisui":"○","kazan":"×"}}
,{"type":"Feature","geometry":{"type":"Point","coordinates":[139.494590527,35.876436445414]},"properties":{"Name":"高階西小学校","Jusho":"埼玉県川越市大字藤間1102","kouzui":"○","gake":"○","takashio":"×","jishin":"○","tsunami":"×","kaji":"×","naisui":"○","kazan":"×"}}
,{"type":"Feature","geometry":{"type":"Point","coordinates":[139.48606513371,35.891298833914]},"properties":{"Name":"高階北小学校","Jusho":"埼玉県川越市砂新田1-16-1","kouzui":"○","gake":"○","takashio":"×","jishin":"○","tsunami":"×","kaji":"×","naisui":"○","kazan":"×"}}
,{"type":"Feature","geometry":{"type":"Point","coordinates":[139.49928861671,35.880315417646]},"properties":{"Name":"高階南小学校","Jusho":"埼玉県川越市諏訪町12-3","kouzui":"○","gake":"○","takashio":"×","jishin":"○","tsunami":"×","kaji":"×","naisui":"○","kazan":"×"}}
,{"type":"Feature","geometry":{"type":"Point","coordinates":[139.49814919166,35.881983637012]},"properties":{"Name":"藤原町第二公園　　　　　　　　　","Jusho":"埼玉県川越市藤原町18-6","kouzui":"○","gake":"○","takashio":"×","jishin":"○","tsunami":"×","kaji":"×","naisui":"○","kazan":"×"}}
,{"type":"Feature","geometry":{"type":"Point","coordinates":[139.47246233426,35.872760436226]},"properties":{"Name":"福原小学校","Jusho":"埼玉県川越市大字今福508","kouzui":"○","gake":"○","takashio":"×","jishin":"○","tsunami":"×","kaji":"×","naisui":"○","kazan":"×"}}
,{"type":"Feature","geometry":{"type":"Point","coordinates":[139.47273869535,35.873902757369]},"properties":{"Name":"福原中学校","Jusho":"埼玉県川越市大字今福512","kouzui":"○","gake":"○","takashio":"×","jishin":"○","tsunami":"×","kaji":"×","naisui":"○","kazan":"×"}}
,{"type":"Feature","geometry":{"type":"Point","coordinates":[139.485773,35.876924]},"properties":{"Name":"南文化会館(ジョイフル) ","Jusho":"埼玉県川越市大字今福1295-2","kouzui":"○","gake":"○","takashio":"×","jishin":"○","tsunami":"×","kaji":"×","naisui":"○","kazan":"×"}}
,{"type":"Feature","geometry":{"type":"Point","coordinates":[139.47534842587,35.846616283377]},"properties":{"Name":"日本大学経済学部グラウンド","Jusho":"埼玉県川越市大字中福868-1","kouzui":"○","gake":"○","takashio":"×","jishin":"○","tsunami":"×","kaji":"×","naisui":"○","kazan":"×"}}
,{"type":"Feature","geometry":{"type":"Point","coordinates":[139.4502649238,35.912559210546]},"properties":{"Name":"川越（水上）公園","Jusho":"埼玉県川越市大字池辺880","kouzui":"×","gake":"○","takashio":"×","jishin":"○","tsunami":"×","kaji":"○","naisui":"○","kazan":"×"}}
,{"type":"Feature","geometry":{"type":"Point","coordinates":[139.43935997328,35.892551489643]},"properties":{"Name":"大東西中学校","Jusho":"埼玉県川越市大字大袋新田391","kouzui":"○","gake":"○","takashio":"×","jishin":"○","tsunami":"×","kaji":"×","naisui":"○","kazan":"×"}}
,{"type":"Feature","geometry":{"type":"Point","coordinates":[139.47003776749,35.89324155106]},"properties":{"Name":"武蔵野小学校","Jusho":"埼玉県川越市むさし野14-1","kouzui":"○","gake":"○","takashio":"×","jishin":"○","tsunami":"×","kaji":"×","naisui":"○","kazan":"×"}}
,{"type":"Feature","geometry":{"type":"Point","coordinates":[139.45398256066,35.904973584815]},"properties":{"Name":"大東東小学校","Jusho":"埼玉県川越市豊田町4-16-1","kouzui":"○","gake":"○","takashio":"×","jishin":"○","tsunami":"×","kaji":"×","naisui":"○","kazan":"×"}}
,{"type":"Feature","geometry":{"type":"Point","coordinates":[139.45231916718,35.898013912295]},"properties":{"Name":"川越南高等学校","Jusho":"埼玉県川越市南大塚1-21-1","kouzui":"○","gake":"○","takashio":"×","jishin":"○","tsunami":"×","kaji":"×","naisui":"○","kazan":"×"}}
,{"type":"Feature","geometry":{"type":"Point","coordinates":[139.45287426076,35.897372168757]},"properties":{"Name":"大東中学校","Jusho":"埼玉県川越市南大塚1-20-1","kouzui":"○","gake":"○","takashio":"×","jishin":"○","tsunami":"×","kaji":"×","naisui":"○","kazan":"×"}}
,{"type":"Feature","geometry":{"type":"Point","coordinates":[139.46917743504,35.896126272923]},"properties":{"Name":"大塚小学校","Jusho":"埼玉県川越市大塚2-10-1","kouzui":"○","gake":"○","takashio":"×","jishin":"○","tsunami":"×","kaji":"×","naisui":"○","kazan":"×"}}
,{"type":"Feature","geometry":{"type":"Point","coordinates":[139.44287673774,35.891461987651]},"properties":{"Name":"大東西小学校","Jusho":"埼玉県川越市大字山城32-5","kouzui":"○","gake":"○","takashio":"×","jishin":"○","tsunami":"×","kaji":"×","naisui":"○","kazan":"×"}}
,{"type":"Feature","geometry":{"type":"Point","coordinates":[139.45321052493,35.891690531027]},"properties":{"Name":"南台かすみ公園","Jusho":"埼玉県川越市南台2-10","kouzui":"○","gake":"○","takashio":"×","jishin":"○","tsunami":"×","kaji":"×","naisui":"○","kazan":"×"}}
,{"type":"Feature","geometry":{"type":"Point","coordinates":[139.45470974752,35.887440188342]},"properties":{"Name":"南台ふじみ公園　","Jusho":"埼玉県川越市南台3-5","kouzui":"○","gake":"○","takashio":"×","jishin":"○","tsunami":"×","kaji":"×","naisui":"○","kazan":"×"}}
,{"type":"Feature","geometry":{"type":"Point","coordinates":[139.4594338241,35.907507765899]},"properties":{"Name":"尚美学園大学川越キャンパス","Jusho":"埼玉県川越市豊田町1-1-1","kouzui":"○","gake":"○","takashio":"×","jishin":"○","tsunami":"×","kaji":"×","naisui":"○","kazan":"×"}}
,{"type":"Feature","geometry":{"type":"Point","coordinates":[139.45812118668,35.879253067921]},"properties":{"Name":"川越少年刑務所鍛錬所前駐車場","Jusho":"埼玉県川越市南大塚6-40-1","kouzui":"○","gake":"○","takashio":"×","jishin":"○","tsunami":"×","kaji":"×","naisui":"○","kazan":"×"}}
,{"type":"Feature","geometry":{"type":"Point","coordinates":[139.42096245313,35.910504303755]},"properties":{"Name":"霞ケ関中学校","Jusho":"埼玉県川越市大字笠幡72","kouzui":"○","gake":"○","takashio":"×","jishin":"○","tsunami":"×","kaji":"×","naisui":"○","kazan":"×"}}
,{"type":"Feature","geometry":{"type":"Point","coordinates":[139.42144277528,35.912080760388]},"properties":{"Name":"霞ケ関小学校","Jusho":"埼玉県川越市大字笠幡177","kouzui":"○","gake":"○","takashio":"×","jishin":"○","tsunami":"×","kaji":"×","naisui":"○","kazan":"×"}}
,{"type":"Feature","geometry":{"type":"Point","coordinates":[139.39553499168,35.911078173907]},"properties":{"Name":"川越西高等学校","Jusho":"埼玉県川越市大字笠幡2488-1","kouzui":"○","gake":"○","takashio":"×","jishin":"○","tsunami":"×","kaji":"×","naisui":"○","kazan":"×"}}
,{"type":"Feature","geometry":{"type":"Point","coordinates":[139.40668767243,35.904990823884]},"properties":{"Name":"霞ケ関西中学校","Jusho":"埼玉県川越市大字笠幡3464-3","kouzui":"○","gake":"○","takashio":"×","jishin":"○","tsunami":"×","kaji":"×","naisui":"○","kazan":"×"}}
,{"type":"Feature","geometry":{"type":"Point","coordinates":[139.40177878327,35.908757674116]},"properties":{"Name":"霞ケ関西小学校","Jusho":"埼玉県川越市大字笠幡3971-4","kouzui":"○","gake":"○","takashio":"×","jishin":"○","tsunami":"×","kaji":"×","naisui":"○","kazan":"×"}}
,{"type":"Feature","geometry":{"type":"Point","coordinates":[139.41209233911,35.907833838575]},"properties":{"Name":"秀明高等学校","Jusho":"埼玉県川越市大字笠幡4792","kouzui":"○","gake":"○","takashio":"×","jishin":"○","tsunami":"×","kaji":"×","naisui":"○","kazan":"×"}}
,{"type":"Feature","geometry":{"type":"Point","coordinates":[139.4183872712,35.90357204583]},"properties":{"Name":"霞ケ関南小学校","Jusho":"埼玉県川越市かすみ野1-1-4","kouzui":"○","gake":"○","takashio":"×","jishin":"○","tsunami":"×","kaji":"×","naisui":"○","kazan":"×"}}
,{"type":"Feature","geometry":{"type":"Point","coordinates":[139.4167351628,35.903512725002]},"properties":{"Name":"水久保第一公園","Jusho":"埼玉県川越市かすみ野1-10","kouzui":"○","gake":"○","takashio":"×","jishin":"○","tsunami":"×","kaji":"×","naisui":"○","kazan":"×"}}
,{"type":"Feature","geometry":{"type":"Point","coordinates":[139.4279,35.9119]},"properties":{"Name":"的場たぬき山公園","Jusho":"埼玉県川越市的場1-19","kouzui":"○","gake":"○","takashio":"×","jishin":"○","tsunami":"×","kaji":"×","naisui":"○","kazan":"×"}}
,{"type":"Feature","geometry":{"type":"Point","coordinates":[139.42809,35.91584]},"properties":{"Name":"的場原公園","Jusho":"埼玉県川越市的場2-17","kouzui":"○","gake":"○","takashio":"×","jishin":"○","tsunami":"×","kaji":"×","naisui":"○","kazan":"×"}}
,{"type":"Feature","geometry":{"type":"Point","coordinates":[139.44522077053,35.920327540131]},"properties":{"Name":"東京国際大学第２キャンパス","Jusho":"埼玉県川越市大字的場2509","kouzui":"×","gake":"○","takashio":"×","jishin":"○","tsunami":"×","kaji":"×","naisui":"○","kazan":"×"}}
,{"type":"Feature","geometry":{"type":"Point","coordinates":[139.42026673392,35.908645331402]},"properties":{"Name":"特別支援学校塙保己一学園","Jusho":"埼玉県川越市大字笠幡85-1","kouzui":"○","gake":"○","takashio":"×","jishin":"○","tsunami":"×","kaji":"×","naisui":"○","kazan":"×"}}
,{"type":"Feature","geometry":{"type":"Point","coordinates":[139.41988686582,35.923919842776]},"properties":{"Name":"川越西中学校","Jusho":"埼玉県川越市川鶴1-1","kouzui":"○","gake":"○","takashio":"×","jishin":"○","tsunami":"×","kaji":"×","naisui":"○","kazan":"×"}}
,{"type":"Feature","geometry":{"type":"Point","coordinates":[139.41809074116,35.923245557545]},"properties":{"Name":"川越西小学校","Jusho":"埼玉県川越市川鶴1-5","kouzui":"○","gake":"○","takashio":"×","jishin":"○","tsunami":"×","kaji":"×","naisui":"○","kazan":"×"}}
,{"type":"Feature","geometry":{"type":"Point","coordinates":[139.41196441724,35.922301023295]},"properties":{"Name":"笠幡公園","Jusho":"埼玉県川越市川鶴2-7","kouzui":"○","gake":"○","takashio":"×","jishin":"○","tsunami":"×","kaji":"×","naisui":"○","kazan":"×"}}
,{"type":"Feature","geometry":{"type":"Point","coordinates":[139.44785501204,35.920150273612]},"properties":{"Name":"霞ケ関東中学校","Jusho":"埼玉県川越市大字的場2706","kouzui":"×","gake":"○","takashio":"×","jishin":"○","tsunami":"×","kaji":"×","naisui":"○","kazan":"×"}}
,{"type":"Feature","geometry":{"type":"Point","coordinates":[139.44908916036,35.92077139822]},"properties":{"Name":"霞ケ関東小学校","Jusho":"埼玉県川越市大字的場2735-2","kouzui":"×","gake":"○","takashio":"×","jishin":"○","tsunami":"×","kaji":"×","naisui":"○","kazan":"×"}}
,{"type":"Feature","geometry":{"type":"Point","coordinates":[139.43891548447,35.926999722437]},"properties":{"Name":"東京国際大学","Jusho":"埼玉県川越市的場北1-13-1","kouzui":"○","gake":"○","takashio":"×","jishin":"○","tsunami":"×","kaji":"×","naisui":"○","kazan":"×"}}
,{"type":"Feature","geometry":{"type":"Point","coordinates":[139.428924299,35.9255054591]},"properties":{"Name":"かほく運動公園","Jusho":"埼玉県川越市霞ケ関北6-30-1","kouzui":"○","gake":"○","takashio":"×","jishin":"○","tsunami":"×","kaji":"×","naisui":"○","kazan":"×"}}
,{"type":"Feature","geometry":{"type":"Point","coordinates":[139.42818655768,35.920014669784]},"properties":{"Name":"霞ケ関北小学校","Jusho":"埼玉県川越市伊勢原町5-1-1","kouzui":"○","gake":"○","takashio":"×","jishin":"○","tsunami":"×","kaji":"×","naisui":"○","kazan":"×"}}
,{"type":"Feature","geometry":{"type":"Point","coordinates":[139.42577013105,35.923783144138]},"properties":{"Name":"御伊勢塚公園","Jusho":"埼玉県川越市伊勢原町3-3","kouzui":"○","gake":"○","takashio":"×","jishin":"○","tsunami":"×","kaji":"×","naisui":"○","kazan":"×"}}
,{"type":"Feature","geometry":{"type":"Point","coordinates":[139.45279850461,35.931058248191]},"properties":{"Name":"上戸小学校","Jusho":"埼玉県川越市大字上戸390-1","kouzui":"×","gake":"○","takashio":"×","jishin":"○","tsunami":"×","kaji":"×","naisui":"○","kazan":"×"}}
,{"type":"Feature","geometry":{"type":"Point","coordinates":[139.45635367023,35.935453417501]},"properties":{"Name":"鯨井中学校","Jusho":"埼玉県川越市大字鯨井562-2","kouzui":"×","gake":"○","takashio":"×","jishin":"○","tsunami":"×","kaji":"×","naisui":"○","kazan":"×"}}
,{"type":"Feature","geometry":{"type":"Point","coordinates":[139.43377665359,35.935673336348]},"properties":{"Name":"東洋大学","Jusho":"埼玉県川越市大字鯨井2100","kouzui":"○","gake":"○","takashio":"×","jishin":"○","tsunami":"×","kaji":"×","naisui":"○","kazan":"×"}}
,{"type":"Feature","geometry":{"type":"Point","coordinates":[139.437259,35.936585]},"properties":{"Name":"名細中学校","Jusho":"埼玉県川越市大字小堤14","kouzui":"○","gake":"○","takashio":"×","jishin":"○","tsunami":"×","kaji":"×","naisui":"○","kazan":"×"}}
,{"type":"Feature","geometry":{"type":"Point","coordinates":[139.44057247623,35.938313191033]},"properties":{"Name":"名細小学校","Jusho":"埼玉県川越市大字小堤214","kouzui":"×","gake":"○","takashio":"×","jishin":"○","tsunami":"×","kaji":"×","naisui":"○","kazan":"×"}}
,{"type":"Feature","geometry":{"type":"Point","coordinates":[139.43012967152,35.950888333839]},"properties":{"Name":"広谷小学校","Jusho":"埼玉県川越市大字下広谷558-1","kouzui":"○","gake":"○","takashio":"×","jishin":"○","tsunami":"×","kaji":"×","naisui":"○","kazan":"×"}}
,{"type":"Feature","geometry":{"type":"Point","coordinates":[139.443061,35.932767]},"properties":{"Name":"西文化会館(メルト)","Jusho":"埼玉県川越市大字鯨井1556-1","kouzui":"○","gake":"○","takashio":"×","jishin":"○","tsunami":"×","kaji":"×","naisui":"○","kazan":"×"}}
,{"type":"Feature","geometry":{"type":"Point","coordinates":[139.43642808978,35.930219838729]},"properties":{"Name":"みよしの公園","Jusho":"埼玉県川越市大字吉田685-1","kouzui":"×","gake":"○","takashio":"×","jishin":"○","tsunami":"×","kaji":"×","naisui":"○","kazan":"×"}}
,{"type":"Feature","geometry":{"type":"Point","coordinates":[139.4503952,35.92431243]},"properties":{"Name":"あおい公園","Jusho":"埼玉県川越市上戸新町36-5","kouzui":"×","gake":"○","takashio":"×","jishin":"○","tsunami":"×","kaji":"×","naisui":"○","kazan":"×"}}
,{"type":"Feature","geometry":{"type":"Point","coordinates":[139.45124105341,35.939874698534]},"properties":{"Name":"なぐわし公園","Jusho":"埼玉県川越市大字鯨井1216","kouzui":"×","gake":"○","takashio":"×","jishin":"○","tsunami":"×","kaji":"×","naisui":"○","kazan":"×"}}
,{"type":"Feature","geometry":{"type":"Point","coordinates":[139.47676822499,35.941459467565]},"properties":{"Name":"山田小学校","Jusho":"埼玉県川越市大字山田167","kouzui":"×","gake":"○","takashio":"×","jishin":"○","tsunami":"×","kaji":"×","naisui":"○","kazan":"×"}}
,{"type":"Feature","geometry":{"type":"Point","coordinates":[139.47445362515,35.939210799379]},"properties":{"Name":"山田中学校","Jusho":"埼玉県川越市大字山田550","kouzui":"×","gake":"○","takashio":"×","jishin":"○","tsunami":"×","kaji":"×","naisui":"○","kazan":"×"}}
,{"type":"Feature","geometry":{"type":"Point","coordinates":[139.47811107002,35.954664112755]},"properties":{"Name":"城西大学付属川越高等学校","Jusho":"埼玉県川越市大字山田1042","kouzui":"×","gake":"○","takashio":"×","jishin":"○","tsunami":"×","kaji":"×","naisui":"○","kazan":"×"}}
,{"type":"Feature","geometry":{"type":"Point","coordinates":[139.480344778,35.943819855865]},"properties":{"Name":"北部地域ふれあいセンター","Jusho":"埼玉県川越市大字山田1578-1","kouzui":"×","gake":"○","takashio":"×","jishin":"○","tsunami":"×","kaji":"×","naisui":"○","kazan":"×"}}
,{"type":"Feature","geometry":{"type":"Point","coordinates":[139.390169,36.147617]},"properties":{"Name":"中央公園","Jusho":"埼玉県熊谷市宮町2-39","kouzui":"×","gake":"×","takashio":"×","jishin":"○","tsunami":"×","kaji":"×","naisui":"×","kazan":"×"}}
,{"type":"Feature","geometry":{"type":"Point","coordinates":[139.3868975,36.14774993]},"properties":{"Name":"宮町公園","Jusho":"埼玉県熊谷市宮町2-68","kouzui":"×","gake":"×","takashio":"×","jishin":"○","tsunami":"×","kaji":"×","naisui":"×","kazan":"×"}}
,{"type":"Feature","geometry":{"type":"Point","coordinates":[139.395395,36.142719]},"properties":{"Name":"東公園","Jusho":"埼玉県熊谷市銀座3-1","kouzui":"×","gake":"×","takashio":"×","jishin":"○","tsunami":"×","kaji":"×","naisui":"×","kazan":"×"}}
,{"type":"Feature","geometry":{"type":"Point","coordinates":[139.3849469,36.13669269]},"properties":{"Name":"荒川公園","Jusho":"埼玉県熊谷市河原町2-173","kouzui":"×","gake":"×","takashio":"×","jishin":"○","tsunami":"×","kaji":"×","naisui":"×","kazan":"×"}}
,{"type":"Feature","geometry":{"type":"Point","coordinates":[139.35952,36.146476]},"properties":{"Name":"赤城公園","Jusho":"埼玉県熊谷市赤城町1-16","kouzui":"×","gake":"×","takashio":"×","jishin":"○","tsunami":"×","kaji":"×","naisui":"×","kazan":"×"}}
,{"type":"Feature","geometry":{"type":"Point","coordinates":[139.364168,36.146907]},"properties":{"Name":"松風公園","Jusho":"埼玉県熊谷市赤城町1-167","kouzui":"×","gake":"×","takashio":"×","jishin":"○","tsunami":"×","kaji":"×","naisui":"×","kazan":"×"}}
,{"type":"Feature","geometry":{"type":"Point","coordinates":[139.367384,36.145921]},"properties":{"Name":"堤公園","Jusho":"埼玉県熊谷市赤城町2-120","kouzui":"×","gake":"×","takashio":"×","jishin":"○","tsunami":"×","kaji":"×","naisui":"×","kazan":"×"}}
,{"type":"Feature","geometry":{"type":"Point","coordinates":[139.382916,36.14154]},"properties":{"Name":"宮前公園","Jusho":"埼玉県熊谷市宮前町1-29","kouzui":"×","gake":"×","takashio":"×","jishin":"○","tsunami":"×","kaji":"×","naisui":"×","kazan":"×"}}
,{"type":"Feature","geometry":{"type":"Point","coordinates":[139.379375,36.14869]},"properties":{"Name":"本石公園","Jusho":"埼玉県熊谷市本石1-10","kouzui":"×","gake":"×","takashio":"×","jishin":"○","tsunami":"×","kaji":"×","naisui":"×","kazan":"×"}}
,{"type":"Feature","geometry":{"type":"Point","coordinates":[139.390809,36.135803]},"properties":{"Name":"万平公園","Jusho":"埼玉県熊谷市万平町1-1","kouzui":"×","gake":"×","takashio":"×","jishin":"○","tsunami":"×","kaji":"×","naisui":"×","kazan":"×"}}
,{"type":"Feature","geometry":{"type":"Point","coordinates":[139.394888,36.135468]},"properties":{"Name":"曙公園","Jusho":"埼玉県熊谷市曙町4-8","kouzui":"×","gake":"×","takashio":"×","jishin":"○","tsunami":"×","kaji":"×","naisui":"×","kazan":"×"}}
,{"type":"Feature","geometry":{"type":"Point","coordinates":[139.373021,36.14112]},"properties":{"Name":"見晴公園","Jusho":"埼玉県熊谷市見晴町460","kouzui":"×","gake":"×","takashio":"×","jishin":"○","tsunami":"×","kaji":"×","naisui":"×","kazan":"×"}}
,{"type":"Feature","geometry":{"type":"Point","coordinates":[139.371924,36.148203]},"properties":{"Name":"石原公園","Jusho":"埼玉県熊谷市石原1652-70","kouzui":"×","gake":"×","takashio":"×","jishin":"○","tsunami":"×","kaji":"×","naisui":"×","kazan":"×"}}
,{"type":"Feature","geometry":{"type":"Point","coordinates":[139.372825,36.144235]},"properties":{"Name":"南運動場（伊勢町ふれあい公園）","Jusho":"埼玉県熊谷市伊勢町94","kouzui":"×","gake":"×","takashio":"×","jishin":"○","tsunami":"×","kaji":"×","naisui":"×","kazan":"×"}}
,{"type":"Feature","geometry":{"type":"Point","coordinates":[139.3944056,36.15379418]},"properties":{"Name":"箱田第１公園","Jusho":"埼玉県熊谷市中央2-219","kouzui":"×","gake":"×","takashio":"×","jishin":"○","tsunami":"×","kaji":"×","naisui":"×","kazan":"×"}}
,{"type":"Feature","geometry":{"type":"Point","coordinates":[139.396648,36.155903]},"properties":{"Name":"箱田第２公園","Jusho":"埼玉県熊谷市中央3-169","kouzui":"×","gake":"×","takashio":"×","jishin":"○","tsunami":"×","kaji":"×","naisui":"×","kazan":"×"}}
,{"type":"Feature","geometry":{"type":"Point","coordinates":[139.391391,36.154626]},"properties":{"Name":"箱田第４公園","Jusho":"埼玉県熊谷市中央1-148","kouzui":"×","gake":"×","takashio":"×","jishin":"○","tsunami":"×","kaji":"×","naisui":"×","kazan":"×"}}
,{"type":"Feature","geometry":{"type":"Point","coordinates":[139.39448,36.162829]},"properties":{"Name":"雀宮第３公園","Jusho":"埼玉県熊谷市肥塚591","kouzui":"×","gake":"×","takashio":"×","jishin":"○","tsunami":"×","kaji":"×","naisui":"×","kazan":"×"}}
,{"type":"Feature","geometry":{"type":"Point","coordinates":[139.390972,36.161097]},