var tokyo={"type":"FeatureCollection","name":"tokyo","features":[
{"type":"Feature","geometry":{"type":"Point","coordinates":[139.77132890862,35.676572613649]},"properties":{"Name":"京橋区民館","Jusho":"東京都中央区京橋２-６-７","kouzui":"○","gake":"×","takashio":"○","jishin":"○","tsunami":"×","kaji":"×","naisui":"○","kazan":"×"}}
,{"type":"Feature","geometry":{"type":"Point","coordinates":[139.77164071164,35.673184063993]},"properties":{"Name":"京橋プラザ","Jusho":"東京都中央区銀座１-２５-３","kouzui":"○","gake":"×","takashio":"○","jishin":"○","tsunami":"×","kaji":"×","naisui":"○","kazan":"×"}}
,{"type":"Feature","geometry":{"type":"Point","coordinates":[139.76145785516,35.67225296963]},"properties":{"Name":"泰明小学校","Jusho":"東京都中央区銀座５-１-１３","kouzui":"○","gake":"×","takashio":"○","jishin":"○","tsunami":"×","kaji":"×","naisui":"○","kazan":"×"}}
,{"type":"Feature","geometry":{"type":"Point","coordinates":[139.76482676323,35.66547476052]},"properties":{"Name":"銀座中学校","Jusho":"東京都中央区銀座８-１９-１５","kouzui":"○","gake":"×","takashio":"○","jishin":"○","tsunami":"×","kaji":"×","naisui":"○","kazan":"×"}}
,{"type":"Feature","geometry":{"type":"Point","coordinates":[139.77873354233,35.672165]},"properties":{"Name":"中央小学校","Jusho":"東京都中央区湊１-４-１","kouzui":"○","gake":"×","takashio":"○","jishin":"○","tsunami":"×","kaji":"×","naisui":"○","kazan":"×"}}
,{"type":"Feature","geometry":{"type":"Point","coordinates":[139.77633544048,35.668714209682]},"properties":{"Name":"明石小学校","Jusho":"東京都中央区明石町１-１５","kouzui":"○","gake":"×","takashio":"○","jishin":"○","tsunami":"×","kaji":"×","naisui":"○","kazan":"×"}}
,{"type":"Feature","geometry":{"type":"Point","coordinates":[139.77090638889,35.66809417547]},"properties":{"Name":"京橋築地小学校","Jusho":"東京都中央区築地２-１３-１","kouzui":"○","gake":"×","takashio":"○","jishin":"○","tsunami":"×","kaji":"×","naisui":"○","kazan":"×"}}
,{"type":"Feature","geometry":{"type":"Point","coordinates":[139.77559475463,35.67479927632]},"properties":{"Name":"京華スクエア","Jusho":"東京都中央区八丁堀３-１７-９","kouzui":"○","gake":"×","takashio":"○","jishin":"○","tsunami":"×","kaji":"×","naisui":"○","kazan":"×"}}
,{"type":"Feature","geometry":{"type":"Point","coordinates":[139.78185291534,35.675887569312]},"properties":{"Name":"明正小学校","Jusho":"東京都中央区新川２-１３-４","kouzui":"○","gake":"×","takashio":"○","jishin":"○","tsunami":"×","kaji":"×","naisui":"○","kazan":"×"}}
,{"type":"Feature","geometry":{"type":"Point","coordinates":[139.77055027117,35.68826679349]},"properties":{"Name":"常盤小学校","Jusho":"東京都中央区日本橋本石町４-４-２６","kouzui":"○","gake":"×","takashio":"○","jishin":"○","tsunami":"×","kaji":"×","naisui":"○","kazan":"×"}}
,{"type":"Feature","geometry":{"type":"Point","coordinates":[139.77709137302,35.690963780177]},"properties":{"Name":"十思スクエア","Jusho":"東京都中央区日本橋小伝馬町５-１","kouzui":"○","gake":"×","takashio":"○","jishin":"○","tsunami":"×","kaji":"×","naisui":"○","kazan":"×"}}
,{"type":"Feature","geometry":{"type":"Point","coordinates":[139.78152091534,35.684822357796]},"properties":{"Name":"日本橋小学校","Jusho":"東京都中央区日本橋人形町１-１-１７","kouzui":"○","gake":"×","takashio":"○","jishin":"○","tsunami":"×","kaji":"×","naisui":"○","kazan":"×"}}
,{"type":"Feature","geometry":{"type":"Point","coordinates":[139.78790754233,35.68335942906]},"properties":{"Name":"有馬小学校","Jusho":"東京都中央区日本橋蛎殻町２-１０-２３","kouzui":"○","gake":"×","takashio":"○","jishin":"○","tsunami":"×","kaji":"×","naisui":"○","kazan":"×"}}
,{"type":"Feature","geometry":{"type":"Point","coordinates":[139.78427837301,35.688807]},"properties":{"Name":"久松小学校","Jusho":"東京都中央区日本橋久松町７-２","kouzui":"○","gake":"×","takashio":"○","jishin":"○","tsunami":"×","kaji":"×","naisui":"○","kazan":"×"}}
,{"type":"Feature","geometry":{"type":"Point","coordinates":[139.78697608465,35.692276130571]},"properties":{"Name":"日本橋中学校","Jusho":"東京都中央区東日本橋１-１０-１","kouzui":"○","gake":"×","takashio":"○","jishin":"○","tsunami":"×","kaji":"×","naisui":"○","kazan":"×"}}
,{"type":"Feature","geometry":{"type":"Point","coordinates":[139.77680534457,35.67971388391]},"properties":{"Name":"阪本小学校","Jusho":"東京都中央区日本橋兜町１５-１８","kouzui":"○","gake":"×","takashio":"○","jishin":"○","tsunami":"×","kaji":"×","naisui":"○","kazan":"×"}}
,{"type":"Feature","geometry":{"type":"Point","coordinates":[139.78454480489,35.668668580679]},"properties":{"Name":"佃島小学校","Jusho":"東京都中央区佃２-３-１","kouzui":"○","gake":"×","takashio":"○","jishin":"○","tsunami":"○","kaji":"×","naisui":"○","kazan":"×"}}
,{"type":"Feature","geometry":{"type":"Point","coordinates":[139.78504955093,35.668311506609]},"properties":{"Name":"佃中学校","Jusho":"東京都中央区佃２-３-２","kouzui":"○","gake":"×","takashio":"○","jishin":"○","tsunami":"○","kaji":"×","naisui":"○","kazan":"×"}}
,{"type":"Feature","geometry":{"type":"Point","coordinates":[139.780102,35.660681]},"properties":{"Name":"月島第一小学校","Jusho":"東京都中央区月島４-１５-１","kouzui":"○","gake":"×","takashio":"○","jishin":"○","tsunami":"○","kaji":"×","naisui":"○","kazan":"×"}}
,{"type":"Feature","geometry":{"type":"Point","coordinates":[139.77618889815,35.660381660767]},"properties":{"Name":"月島第二小学校","Jusho":"東京都中央区勝どき１-１２-２","kouzui":"○","gake":"×","takashio":"○","jishin":"○","tsunami":"○","kaji":"×","naisui":"○","kazan":"×"}}
,{"type":"Feature","geometry":{"type":"Point","coordinates":[139.785571,35.658896]},"properties":{"Name":"月島第三小学校","Jusho":"東京都中央区晴海１-４-１","kouzui":"○","gake":"×","takashio":"○","jishin":"○","tsunami":"×","kaji":"×","naisui":"○","kazan":"×"}}
,{"type":"Feature","geometry":{"type":"Point","coordinates":[139.784863,35.659859]},"properties":{"Name":"晴海中学校","Jusho":"東京都中央区晴海１-５-３","kouzui":"○","gake":"×","takashio":"○","jishin":"○","tsunami":"×","kaji":"×","naisui":"○","kazan":"×"}}
,{"type":"Feature","geometry":{"type":"Point","coordinates":[139.77140114946,35.653299764245]},"properties":{"Name":"豊海小学校","Jusho":"東京都中央区勝どき６-６-２","kouzui":"○","gake":"×","takashio":"○","jishin":"○","tsunami":"○","kaji":"×","naisui":"○","kazan":"×"}}
,{"type":"Feature","geometry":{"type":"Point","coordinates":[139.77206137301,35.670737590957]},"properties":{"Name":"中央区役所","Jusho":"東京都中央区築地１-１-１","kouzui":"○","gake":"×","takashio":"○","jishin":"×","tsunami":"×","kaji":"×","naisui":"○","kazan":"×"}}
,{"type":"Feature","geometry":{"type":"Point","coordinates":[139.78428317791,35.682455498809]},"properties":{"Name":"日本橋区民センター","Jusho":"東京都中央区日本橋蛎殻町１-３１-１","kouzui":"○","gake":"×","takashio":"○","jishin":"×","tsunami":"×","kaji":"×","naisui":"○","kazan":"×"}}
,{"type":"Feature","geometry":{"type":"Point","coordinates":[139.782316,35.662054]},"properties":{"Name":"月島区民センター","Jusho":"東京都中央区月島４-１-１","kouzui":"○","gake":"×","takashio":"○","jishin":"×","tsunami":"○","kaji":"×","naisui":"○","kazan":"×"}}
,{"type":"Feature","geometry":{"type":"Point","coordinates":[139.774822,35.652051]},"properties":{"Name":"ほっとプラザはるみ","Jusho":"東京都中央区晴海５-２-３","kouzui":"○","gake":"×","takashio":"○","jishin":"○","tsunami":"×","kaji":"×","naisui":"○","kazan":"×"}}
,{"type":"Feature","geometry":{"type":"Point","coordinates":[139.776556,35.666229]},"properties":{"Name":"あかつき公園一帯","Jusho":"東京都中央区築地、明石町","kouzui":"×","gake":"×","takashio":"×","jishin":"×","tsunami":"×","kaji":"○","naisui":"×","kazan":"×"}}
,{"type":"Feature","geometry":{"type":"Point","coordinates":[139.784296,35.673533]},"properties":{"Name":"新川ツインビル地区","Jusho":"東京都中央区新川","kouzui":"×","gake":"×","takashio":"×","jishin":"×","tsunami":"×","kaji":"○","naisui":"×","kazan":"×"}}
,{"type":"Feature","geometry":{"type":"Point","coordinates":[139.785284,35.670674]},"properties":{"Name":"佃リバーシティ地区","Jusho":"東京都中央区佃","kouzui":"×","gake":"×","takashio":"×","jishin":"×","tsunami":"×","kaji":"○","naisui":"×","kazan":"×"}}
,{"type":"Feature","geometry":{"type":"Point","coordinates":[139.78181560846,35.655269893604]},"properties":{"Name":"晴海地区","Jusho":"東京都中央区晴海","kouzui":"×","gake":"×","takashio":"×","jishin":"×","tsunami":"×","kaji":"○","naisui":"×","kazan":"×"}}
,{"type":"Feature","geometry":{"type":"Point","coordinates":[139.749778,35.661336]},"properties":{"Name":"御成門小学校","Jusho":"東京都港区芝公園3-2-4","kouzui":"○","gake":"○","takashio":"○","jishin":"○","tsunami":"○","kaji":"×","naisui":"×","kazan":"×"}}
,{"type":"Feature","geometry":{"type":"Point","coordinates":[139.750092,35.650966]},"properties":{"Name":"芝小学校","Jusho":"東京都港区芝2-21-3","kouzui":"○","gake":"○","takashio":"○","jishin":"○","tsunami":"○","kaji":"×","naisui":"×","kazan":"×"}}
,{"type":"Feature","geometry":{"type":"Point","coordinates":[139.742324,35.653027]},"properties":{"Name":"赤羽小学校","Jusho":"東京都港区三田1-4-52","kouzui":"○","gake":"○","takashio":"○","jishin":"○","tsunami":"×","kaji":"×","naisui":"×","kazan":"×"}}
,{"type":"Feature","geometry":{"type":"Point","coordinates":[139.750419,35.66163]},"properties":{"Name":"御成門中学校","Jusho":"東京都港区西新橋3-25-30","kouzui":"○","gake":"○","takashio":"×","jishin":"○","tsunami":"○","kaji":"×","naisui":"×","kazan":"×"}}
,{"type":"Feature","geometry":{"type":"Point","coordinates":[139.757058,35.66561]},"properties":{"Name":"生涯学習センター","Jusho":"東京都港区新橋3-16-3","kouzui":"×","gake":"○","takashio":"×","jishin":"○","tsunami":"○","kaji":"×","naisui":"×","kazan":"×"}}
,{"type":"Feature","geometry":{"type":"Point","coordinates":[139.756887,35.658827]},"properties":{"Name":"エコプラザ","Jusho":"東京都港区浜松町1-13-1","kouzui":"×","gake":"○","takashio":"×","jishin":"○","tsunami":"○","kaji":"×","naisui":"×","kazan":"×"}}
,{"type":"Feature","geometry":{"type":"Point","coordinates":[139.753813,35.661199]},"properties":{"Name":"福祉プラザさくら川","Jusho":"東京都港区新橋6-19-2","kouzui":"×","gake":"○","takashio":"×","jishin":"○","tsunami":"×","kaji":"×","naisui":"×","kazan":"×"}}
,{"type":"Feature","geometry":{"type":"Point","coordinates":[139.757538,35.658824]},"properties":{"Name":"神明子ども中高生プラザ・神明いきいきプラザ","Jusho":"東京都港区浜松町1-6-7","kouzui":"×","gake":"○","takashio":"○","jishin":"○","tsunami":"○","kaji":"×","naisui":"×","kazan":"×"}}
,{"type":"Feature","geometry":{"type":"Point","coordinates":[139.748776,35.667846]},"properties":{"Name":"虎ノ門いきいきプラザ","Jusho":"東京都港区虎ノ門1-21-10","kouzui":"○","gake":"○","takashio":"○","jishin":"○","tsunami":"×","kaji":"×","naisui":"×","kazan":"×"}}
,{"type":"Feature","geometry":{"type":"Point","coordinates":[139.749751,35.648793]},"properties":{"Name":"三田いきいきプラザ","Jusho":"東京都港区芝4-1-17","kouzui":"○","gake":"○","takashio":"○","jishin":"○","tsunami":"×","kaji":"×","naisui":"×","kazan":"×"}}
,{"type":"Feature","geometry":{"type":"Point","coordinates":[139.738504,35.661842]},"properties":{"Name":"麻布小学校","Jusho":"東京都港区麻布台1-5-15","kouzui":"○","gake":"○","takashio":"○","jishin":"○","tsunami":"×","kaji":"×","naisui":"×","kazan":"×"}}
,{"type":"Feature","geometry":{"type":"Point","coordinates":[139.742695,35.658175]},"properties":{"Name":"旧飯倉小学校","Jusho":"東京都港区東麻布2-1-1","kouzui":"○","gake":"○","takashio":"○","jishin":"○","tsunami":"×","kaji":"×","naisui":"×","kazan":"×"}}
,{"type":"Feature","geometry":{"type":"Point","coordinates":[139.729964,35.649779]},"properties":{"Name":"本村小学校","Jusho":"東京都港区南麻布3-9-33","kouzui":"○","gake":"○","takashio":"○","jishin":"○","tsunami":"×","kaji":"×","naisui":"×","kazan":"×"}}
,{"type":"Feature","geometry":{"type":"Point","coordinates":[139.735665,35.650701]},"properties":{"Name":"東町小学校","Jusho":"東京都港区南麻布1-8-11","kouzui":"×","gake":"○","takashio":"×","jishin":"○","tsunami":"×","kaji":"×","naisui":"×","kazan":"×"}}
,{"type":"Feature","geometry":{"type":"Point","coordinates":[139.724888,35.656452]},"properties":{"Name":"笄小学校","Jusho":"東京都港区西麻布3-11-16","kouzui":"○","gake":"○","takashio":"○","jishin":"○","tsunami":"×","kaji":"×","naisui":"×","kazan":"×"}}
,{"type":"Feature","geometry":{"type":"Point","coordinates":[139.732209,35.660894]},"properties":{"Name":"六本木中学校","Jusho":"東京都港区六本木6-8-16","kouzui":"○","gake":"○","takashio":"○","jishin":"○","tsunami":"×","kaji":"×","naisui":"×","kazan":"×"}}
,{"type":"Feature","geometry":{"type":"Point","coordinates":[139.720523,35.656892]},"properties":{"Name":"高陵中学校","Jusho":"東京都港区西麻布4-14-8","kouzui":"○","gake":"○","takashio":"○","jishin":"○","tsunami":"×","kaji":"×","naisui":"×","kazan":"×"}}
,{"type":"Feature","geometry":{"type":"Point","coordinates":[139.731113,35.657226]},"properties":{"Name":"南山小学校","Jusho":"東京都港区元麻布3-8-15","kouzui":"○","gake":"○","takashio":"○","jishin":"○","tsunami":"×","kaji":"×","naisui":"×","kazan":"×"}}
,{"type":"Feature","geometry":{"type":"Point","coordinates":[139.735062,35.660657]},"properties":{"Name":"麻布区民センター","Jusho":"東京都港区六本木5-16-45","kouzui":"×","gake":"○","takashio":"○","jishin":"○","tsunami":"×","kaji":"×","naisui":"×","kazan":"×"}}
,{"type":"Feature","geometry":{"type":"Point","coordinates":[139.735148,35.651408]},"properties":{"Name":"南麻布いきいきプラザ","Jusho":"東京都港区南麻布1-5-26","kouzui":"×","gake":"○","takashio":"○","jishin":"○","tsunami":"×","kaji":"×","naisui":"×","kazan":"×"}}
,{"type":"Feature","geometry":{"type":"Point","coordinates":[139.72745,35.651053]},"properties":{"Name":"麻布子ども中高生プラザ・ありすいきいきプラザ","Jusho":"東京都港区南麻布4-6-7","kouzui":"○","gake":"○","takashio":"○","jishin":"○","tsunami":"×","kaji":"×","naisui":"×","kazan":"×"}}
,{"type":"Feature","geometry":{"type":"Point","coordinates":[139.722781,35.660909]},"properties":{"Name":"西麻布いきいきプラザ","Jusho":"東京都港区西麻布2-13-3","kouzui":"×","gake":"○","takashio":"○","jishin":"○","tsunami":"×","kaji":"×","naisui":"×","kazan":"×"}}
,{"type":"Feature","geometry":{"type":"Point","coordinates":[139.740899,35.656942]},"properties":{"Name":"飯倉いきいきプラザ","Jusho":"東京都港区東麻布2-16-11","kouzui":"○","gake":"○","takashio":"○","jishin":"○","tsunami":"×","kaji":"×","naisui":"×","kazan":"×"}}
,{"type":"Feature","geometry":{"type":"Point","coordinates":[139.73124,35.669195]},"properties":{"Name":"赤坂小学校","Jusho":"東京都港区赤坂8-13-29","kouzui":"×","gake":"○","takashio":"○","jishin":"○","tsunami":"×","kaji":"×","naisui":"×","kazan":"×"}}
,{"type":"Feature","geometry":{"type":"Point","coordinates":[139.719079,35.669966]},"properties":{"Name":"青山小学校","Jusho":"東京都港区南青山2-21-2","kouzui":"×","gake":"○","takashio":"○","jishin":"○","tsunami":"×","kaji":"×","naisui":"×","kazan":"×"}}
,{"type":"Feature","geometry":{"type":"Point","coordinates":[139.716128,35.663463]},"properties":{"Name":"青南小学校","Jusho":"東京都港区南青山4-21-15","kouzui":"○","gake":"○","takashio":"○","jishin":"○","tsunami":"×","kaji":"×","naisui":"×","kazan":"×"}}
,{"type":"Feature","geometry":{"type":"Point","coordinates":[139.731348,35.668213]},"properties":{"Name":"赤坂中学校※","Jusho":"東京都港区赤坂9-2-3","kouzui":"×","gake":"×","takashio":"×","jishin":"×","tsunami":"×","kaji":"×","naisui":"×","kazan":"×"}}
,{"type":"Feature","geometry":{"type":"Point","coordinates":[139.722164,35.674238]},"properties":{"Name":"青山中学校","Jusho":"東京都港区北青山1-1-9","kouzui":"○","gake":"○","takashio":"○","jishin":"○","tsunami":"×","kaji":"×","naisui":"×","kazan":"×"}}
,{"type":"Feature","geometry":{"type":"Point","coordinates":[139.731694,35.674757]},"properties":{"Name":"赤坂区民センター","Jusho":"東京都港区赤坂4-18-13","kouzui":"○","gake":"○","takashio":"○","jishin":"○","tsunami":"×","kaji":"×","naisui":"×","kazan":"×"}}
,{"type":"Feature","geometry":{"type":"Point","coordinates":[139.737538,35.669633]},"properties":{"Name":"サン・サン赤坂（赤坂子ども中高生プラザ）","Jusho":"東京都港区赤坂6-6-14","kouzui":"×","gake":"○","takashio":"○","jishin":"○","tsunami":"×","kaji":"×","naisui":"×","kazan":"×"}}
,{"type":"Feature","geometry":{"type":"Point","coordinates":[139.734936,35.670358]},"properties":{"Name":"赤坂いきいきプラザ","Jusho":"東京都港区赤坂6-4-8","kouzui":"×","gake":"○","takashio":"○","jishin":"○","tsunami":"×","kaji":"×","naisui":"×","kazan":"×"}}
,{"type":"Feature","geometry":{"type":"Point","coordinates":[139.721259,35.669159]},"properties":{"Name":"青山いきいきプラザ","Jusho":"東京都港区南青山2-16-5","kouzui":"○","gake":"○","takashio":"○","jishin":"○","tsunami":"×","kaji":"×","naisui":"×","kazan":"×"}}
,{"type":"Feature","geometry":{"type":"Point","coordinates":[139.717319,35.666481]},"properties":{"Name":"青南いきいきプラザ","Jusho":"東京都港区南青山4-10-1","kouzui":"○","gake":"○","takashio":"○","jishin":"○","tsunami":"×","kaji":"×","naisui":"×","kazan":"×"}}
,{"type":"Feature","geometry":{"type":"Point","coordinates":[139.738062,35.643176]},"properties":{"Name":"御田小学校","Jusho":"東京都港区三田4-11-38","kouzui":"○","gake":"○","takashio":"○","jishin":"○","tsunami":"×","kaji":"×","naisui":"×","kazan":"×"}}
,{"type":"Feature","geometry":{"type":"Point","coordinates":[139.73399,35.641971]},"properties":{"Name":"高輪区民センター","Jusho":"東京都港区高輪1-16-25","kouzui":"×","gake":"○","takashio":"○","jishin":"○","tsunami":"×","kaji":"×","naisui":"×","kazan":"×"}}
,{"type":"Feature","geometry":{"type":"Point","coordinates":[139.728694,35.636767]},"properties":{"Name":"白金小学校","Jusho":"東京都港区白金台1-4-26","kouzui":"×","gake":"○","takashio":"○","jishin":"○","tsunami":"×","kaji":"×","naisui":"×","kazan":"×"}}
,{"type":"Feature","geometry":{"type":"Point","coordinates":[139.729296,35.644283]},"properties":{"Name":"旧三光小学校","Jusho":"東京都港区白金3-18-2","kouzui":"○","gake":"○","takashio":"○","jishin":"○","tsunami":"×","kaji":"×","naisui":"×","kazan":"×"}}
,{"type":"Feature","geometry":{"type":"Point","coordinates":[139.726904,35.643672]},"properties":{"Name":"白金の丘学園白金の丘小・中学校","Jusho":"東京都港区白金4-1-12","kouzui":"○","gake":"○","takashio":"○","jishin":"○","tsunami":"×","kaji":"×","naisui":"×","kazan":"×"}}
,{"type":"Feature","geometry":{"type":"Point","coordinates":[139.724573,35.643503]},"properties":{"Name":"旧神応小学校","Jusho":"東京都港区白金6-9-5","kouzui":"○","gake":"○","takashio":"○","jishin":"○","tsunami":"×","kaji":"×","naisui":"×","kazan":"×"}}
,{"type":"Feature","geometry":{"type":"Point","coordinates":[139.741022,35.645328]},"properties":{"Name":"三田中学校","Jusho":"東京都港区三田4-13-13","kouzui":"○","gake":"○","takashio":"○","jishin":"○","tsunami":"○","kaji":"×","naisui":"×","kazan":"×"}}
,{"type":"Feature","geometry":{"type":"Point","coordinates":[139.734212,35.640814]},"properties":{"Name":"高松中学校","Jusho":"東京都港区高輪1-16-25","kouzui":"×","gake":"×","takashio":"○","jishin":"○","tsunami":"×","kaji":"×","naisui":"×","kazan":"×"}}
,{"type":"Feature","geometry":{"type":"Point","coordinates":[139.73437,35.636174]},"properties":{"Name":"高輪台小学校","Jusho":"東京都港区高輪2-8-24","kouzui":"○","gake":"○","takashio":"○","jishin":"○","tsunami":"×","kaji":"×","naisui":"×","kazan":"×"}}
,{"type":"Feature","geometry":{"type":"Point","coordinates":[139.734824,35.642382]},"properties":{"Name":"高輪子ども中高生プラザ","Jusho":"東京都港区高輪1-4-35","kouzui":"○","gake":"○","takashio":"○","jishin":"○","tsunami":"×","kaji":"×","naisui":"×","kazan":"×"}}
,{"type":"Feature","geometry":{"type":"Point","coordinates":[139.739558,35.646547]},"properties":{"Name":"豊岡いきいきプラザ","Jusho":"東京都港区三田5-7-7","kouzui":"×","gake":"○","takashio":"○","jishin":"○","tsunami":"×","kaji":"×","naisui":"×","kazan":"×"}}
,{"type":"Feature","geometry":{"type":"Point","coordinates":[139.735756,35.633153]},"properties":{"Name":"高輪いきいきプラザ","Jusho":"東京都港区高輪3-18-15","kouzui":"×","gake":"○","takashio":"○","jishin":"○","tsunami":"×","kaji":"×","naisui":"×","kazan":"×"}}
,{"type":"Feature","geometry":{"type":"Point","coordinates":[139.730975,35.644881]},"properties":{"Name":"白金いきいきプラザ","Jusho":"東京都港区白金3-10-12","kouzui":"×","gake":"○","takashio":"○","jishin":"○","tsunami":"×","kaji":"×","naisui":"×","kazan":"×"}}
,{"type":"Feature","geometry":{"type":"Point","coordinates":[139.725011,35.6377]},"properties":{"Name":"白金台いきいきプラザ","Jusho":"東京都港区白金台4-8-5","kouzui":"○","gake":"○","takashio":"○","jishin":"○","tsunami":"×","kaji":"×","naisui":"×","kazan":"×"}}
,{"type":"Feature","geometry":{"type":"Point","coordinates":[139.746409,35.638412]},"properties":{"Name":"芝浦小学校","Jusho":"東京都港区芝浦4-8-18","kouzui":"○","gake":"○","takashio":"○","jishin":"○","tsunami":"○","kaji":"×","naisui":"×","kazan":"×"}}
,{"type":"Feature","geometry":{"type":"Point","coordinates":[139.749232,35.629474]},"properties":{"Name":"港南小学校","Jusho":"東京都港区港南4-3-28","kouzui":"○","gake":"○","takashio":"×","jishin":"○","tsunami":"○","kaji":"×","naisui":"×","kazan":"×"}}
,{"type":"Feature","geometry":{"type":"Point","coordinates":[139.749144,35.631003]},"properties":{"Name":"港南中学校","Jusho":"東京都港区港南4-3-3","kouzui":"○","gake":"○","takashio":"×","jishin":"○","tsunami":"○","kaji":"×","naisui":"×","kazan":"×"}}
,{"type":"Feature","geometry":{"type":"Point","coordinates":[139.748568,35.640548]},"properties":{"Name":"芝浦港南区民センター","Jusho":"東京都港区芝浦4-13-1","kouzui":"○","gake":"○","takashio":"○","jishin":"○","tsunami":"×","kaji":"×","naisui":"×","kazan":"×"}}
,{"type":"Feature","geometry":{"type":"Point","coordinates":[139.751886,35.646746]},"properties":{"Name":"みなとパーク芝浦（港区スポーツセンター・男女平等参画センター）","Jusho":"東京都港区芝浦1-16-1","kouzui":"×","gake":"○","takashio":"×","jishin":"○","tsunami":"×","kaji":"×","naisui":"×","kazan":"×"}}
,{"type":"Feature","geometry":{"type":"Point","coordinates":[139.749688,35.631028]},"properties":{"Name":"港南子ども中高生プラザ","Jusho":"東京都港区港南4-3-7","kouzui":"×","gake":"○","takashio":"○","jishin":"○","tsunami":"○","kaji":"×","naisui":"×","kazan":"×"}}
,{"type":"Feature","geometry":{"type":"Point","coordinates":[139.747112,35.629514]},"properties":{"Name":"港南いきいきプラザ","Jusho":"東京都港区港南4-2-1","kouzui":"×","gake":"○","takashio":"×","jishin":"○","tsunami":"×","kaji":"×","naisui":"×","kazan":"×"}}
,{"type":"Feature","geometry":{"type":"Point","coordinates":[139.777247,35.633986]},"properties":{"Name":"お台場学園港陽小・中学校","Jusho":"東京都港区台場1-1-5","kouzui":"○","gake":"○","takashio":"○","jishin":"○","tsunami":"○","kaji":"×","naisui":"×","kazan":"×"}}
,{"type":"Feature","geometry":{"type":"Point","coordinates":[139.777122,35.629996]},"properties":{"Name":"台場区民センター","Jusho":"東京都港区台場1-5-1","kouzui":"○","gake":"○","takashio":"○","jishin":"○","tsunami":"○","kaji":"×","naisui":"×","kazan":"×"}}
,{"type":"Feature","geometry":{"type":"Point","coordinates":[139.74469451653,35.64506668776]},"properties":{"Name":"札の辻スクエア(産業振興センター)","Jusho":"東京都港区芝5-36-4","kouzui":"○","gake":"○","takashio":"○","jishin":"○","tsunami":"○","kaji":"×","naisui":"×","kazan":"×"}}
,{"type":"Feature","geometry":{"type":"Point","coordinates":[139.750911,35.646084]},"properties":{"Name":"芝浜小学校","Jusho":"東京都港区芝浦1-16-31","kouzui":"×","gake":"○","takashio":"×","jishin":"○","tsunami":"×","kaji":"×","naisui":"×","kazan":"×"}}
,{"type":"Feature","geometry":{"type":"Point","coordinates":[139.75556,35.65155]},"properties":{"Name":"障害保健福祉センター","Jusho":"東京都港区芝1-8-23","kouzui":"×","gake":"×","takashio":"×","jishin":"×","tsunami":"×","kaji":"×","naisui":"×","kazan":"×"}}
,{"type":"Feature","geometry":{"type":"Point","coordinates":[139.750146,35.659933]},"properties":{"Name":"みなと図書館","Jusho":"東京都港区芝公園3-2-25","kouzui":"×","gake":"×","takashio":"×","jishin":"×","tsunami":"○","kaji":"×","naisui":"×","kazan":"×"}}
,{"type":"Feature","geometry":{"type":"Point","coordinates":[139.752542,35.640442]},"properties":{"Name":"芝浦港南児童高齢者交流プラザ","Jusho":"東京都港区芝浦4-20-1","kouzui":"×","gake":"×","takashio":"×","jishin":"×","tsunami":"×","kaji":"×","naisui":"×","kazan":"×"}}
,{"type":"Feature","geometry":{"type":"Point","coordinates":[139.751406,35.634319]},"properties":{"Name":"みなとリサイクル清掃事務所","Jusho":"東京都港区港南3-9-59","kouzui":"×","gake":"×","takashio":"×","jishin":"×","tsunami":"○","kaji":"×","naisui":"×","kazan":"×"}}
,{"type":"Feature","geometry":{"type":"Point","coordinates":[139.749189,35.633302]},"properties":{"Name":"港南の郷","Jusho":"東京都港区港南3-3-23","kouzui":"×","gake":"×","takashio":"×","jishin":"×","tsunami":"○","kaji":"×","naisui":"×","kazan":"×"}}
,{"type":"Feature","geometry":{"type":"Point","coordinates":[139.749549,35.633009]},"properties":{"Name":"港南図書館","Jusho":"東京都港区港南3-3-17","kouzui":"×","gake":"×","takashio":"×","jishin":"×","tsunami":"○","kaji":"×","naisui":"×","kazan":"×"}}
,{"type":"Feature","geometry":{"type":"Point","coordinates":[139.72687308067,35.682251204685]},"properties":{"Name":"迎賓館一帯","Jusho":"東京都新宿区南元町、四谷、若葉","kouzui":"×","gake":"×","takashio":"×","jishin":"○","tsunami":"×","kaji":"○","naisui":"×","kazan":"×"}}
,{"type":"Feature","geometry":{"type":"Point","coordinates":[139.714415,35.705066]},"properties":{"Name":"戸山公園一帯","Jusho":"東京都新宿区大久保、戸山","kouzui":"×","gake":"×","takashio":"×","jishin":"○","tsunami":"×","kaji":"○","naisui":"×","kazan":"×"}}
,{"type":"Feature","geometry":{"type":"Point","coordinates":[139.718297,35.677574]},"properties":{"Name":"明治神宮外苑地区","Jusho":"東京都新宿区霞ヶ岳町","kouzui":"×","gake":"×","takashio":"×","jishin":"○","tsunami":"×","kaji":"○","naisui":"×","kazan":"×"}}
,{"type":"Feature","geometry":{"type":"Point","coordinates":[139.711762,35.684842]},"properties":{"Name":"新宿御苑","Jusho":"東京都新宿区内藤町","kouzui":"×","gake":"×","takashio":"×","jishin":"○","tsunami":"×","kaji":"○","naisui":"×","kazan":"×"}}
,{"type":"Feature","geometry":{"type":"Point","coordinates":[139.689571,35.689447]},"properties":{"Name":"新宿中央公園・高層ビル群一帯","Jusho":"東京都新宿区西新宿","kouzui":"×","gake":"×","takashio":"×","jishin":"○","tsunami":"×","kaji":"○","naisui":"×","kazan":"×"}}
,{"type":"Feature","geometry":{"type":"Point","coordinates":[139.70058192065,35.706897971236]},"properties":{"Name":"百人町三・四丁目地区","Jusho":"東京都新宿区百人町","kouzui":"×","gake":"×","takashio":"×","jishin":"○","tsunami":"×","kaji":"○","naisui":"×","kazan":"×"}}
,{"type":"Feature","geometry":{"type":"Point","coordinates":[139.675148,35.721122]},"properties":{"Name":"哲学堂公園一帯","Jusho":"東京都新宿区西落合、中井、中落合","kouzui":"×","gake":"×","takashio":"×","jishin":"○","tsunami":"×","kaji":"○","naisui":"×","kazan":"×"}}
,{"type":"Feature","geometry":{"type":"Point","coordinates":[139.721121,35.709045]},"properties":{"Name":"早稲田大学早稲田キャンパス一帯","Jusho":"東京都新宿区戸塚町、西早稲田、早稲田鶴巻町","kouzui":"×","gake":"×","takashio":"×","jishin":"○","tsunami":"×","kaji":"○","naisui":"×","kazan":"×"}}
,{"type":"Feature","geometry":{"type":"Point","coordinates":[139.693306,35.713384]},"properties":{"Name":"落合中央公園一帯","Jusho":"東京都新宿区上落合","kouzui":"×","gake":"×","takashio":"×","jishin":"○","tsunami":"×","kaji":"○","naisui":"×","kazan":"×"}}
,{"type":"Feature","geometry":{"type":"Point","coordinates":[139.701719,35.718228]},"properties":{"Name":"おとめ山公園地区一帯","Jusho":"東京都新宿区下落合","kouzui":"×","gake":"×","takashio":"×","jishin":"○","tsunami":"×","kaji":"○","naisui":"×","kazan":"×"}}
,{"type":"Feature","geometry":{"type":"Point","coordinates":[139.746175276881,35.7328209314317]},"properties":{"Name":"六義園","Jusho":"東京都文京区本駒込6-16-3","kouzui":"×","gake":"×","takashio":"×","jishin":"×","tsunami":"×","kaji":"○","naisui":"×","kazan":"×"}}
,{"type":"Feature","geometry":{"type":"Point","coordinates":[139.762719142092,35.7120164740694]},"properties":{"Name":"東京大学","Jusho":"東京都文京区本郷7-3-1","kouzui":"×","gake":"×","takashio":"×","jishin":"×","tsunami":"×","kaji":"○","naisui":"×","kazan":"×"}}
,{"type":"Feature","geometry":{"type":"Point","coordinates":[139.748471246843,35.7048945652878]},"properties":{"Name":"後楽園一帯","Jusho":"東京都文京区後楽1-6-6","kouzui":"×","gake":"×","takashio":"×","jishin":"×","tsunami":"×","kaji":"○","naisui":"×","kazan":"×"}}
,{"type":"Feature","geometry":{"type":"Point","coordinates":[139.732404814861,35.7185976404339]},"properties":{"Name":"お茶の水女子大学一帯・教育の森公園一帯","Jusho":"東京都文京区大塚2-1-1 文京区大塚3-29","kouzui":"×","gake":"×","takashio":"×","jishin":"×","tsunami":"×","kaji":"○","naisui":"×","kazan":"×"}}
,{"type":"Feature","geometry":{"type":"Point","coordinates":[139.726670807039,35.7208123045251]},"properties":{"Name":"護国寺一帯","Jusho":"東京都文京区大塚5-40-1","kouzui":"×","gake":"×","takashio":"×","jishin":"×","tsunami":"×","kaji":"○","naisui":"×","kazan":"×"}}
,{"type":"Feature","geometry":{"type":"Point","coordinates":[139.74416017255,35.7198756041186]},"properties":{"Name":"小石川植物園","Jusho":"東京都文京区白山3-7-1","kouzui":"×","gake":"×","takashio":"×","jishin":"×","tsunami":"×","kaji":"○","naisui":"×","kazan":"×"}}
,{"type":"Feature","geometry":{"type":"Point","coordinates":[139.721221921047,35.7151804854399]},"properties":{"Name":"目白台運動公園付近一帯","Jusho":"東京都文京区目白台1-19・20","kouzui":"×","gake":"×","takashio":"×","jishin":"×","tsunami":"×","kaji":"○","naisui":"×","kazan":"×"}}
,{"type":"Feature","geometry":{"type":"Point","coordinates":[139.67893753586,35.659014073553]},"properties":{"Name":"都立国際高等学校","Jusho":"東京都目黒区駒場2-19-59","kouzui":"×","gake":"×","takashio":"×","jishin":"○","tsunami":"×","kaji":"×","naisui":"×","kazan":"×"}}
,{"type":"Feature","geometry":{"type":"Point","coordinates":[139.68190655335,35.659870537242]},"properties":{"Name":"駒場小学校","Jusho":"東京都目黒区駒場3-11-13","kouzui":"○","gake":"○","takashio":"×","jishin":"○","tsunami":"×","kaji":"×","naisui":"○","kazan":"×"}}
,{"type":"Feature","geometry":{"type":"Point","coordinates":[139.68652846222,35.654650693991]},"properties":{"Name":"第一中学校","Jusho":"東京都目黒区大橋2-11-1","kouzui":"○","gake":"○","takashio":"×","jishin":"○","tsunami":"×","kaji":"×","naisui":"○","kazan":"×"}}
,{"type":"Feature","geometry":{"type":"Point","coordinates":[139.685869549,35.65488031971]},"properties":{"Name":"都立駒場高等学校","Jusho":"東京都目黒区大橋2-18-1","kouzui":"×","gake":"×","takashio":"×","jishin":"○","tsunami":"×","kaji":"×","naisui":"×","kazan":"×"}}
,{"type":"Feature","geometry":{"type":"Point","coordinates":[139.6927934042,35.650885131637]},"properties":{"Name":"菅刈小学校及び菅刈公園（菅刈公園は地震時のみ使用）","Jusho":"東京都目黒区青葉台3-3-26、2-11-25","kouzui":"○","gake":"×","takashio":"×","jishin":"○","tsunami":"×","kaji":"×","naisui":"○","kazan":"×"}}
,{"type":"Feature","geometry":{"type":"Point","coordinates":[139.69026782598,35.646481804842]},"properties":{"Name":"東山中学校","Jusho":"東京都目黒区東山1-24-31","kouzui":"○","gake":"○","takashio":"×","jishin":"○","tsunami":"×","kaji":"×","naisui":"○","kazan":"×"}}
,{"type":"Feature","geometry":{"type":"Point","coordinates":[139.68580941553,35.646921776078]},"properties":{"Name":"東山小学校","Jusho":"東京都目黒区東山2-24-25","kouzui":"○","gake":"○","takashio":"×","jishin":"○","tsunami":"×","kaji":"×","naisui":"○","kazan":"×"}}
,{"type":"Feature","geometry":{"type":"Point","coordinates":[139.69245111707,35.64432305976]},"properties":{"Name":"烏森小学校","Jusho":"東京都目黒区上目黒3-37-27","kouzui":"○","gake":"○","takashio":"×","jishin":"○","tsunami":"×","kaji":"×","naisui":"○","kazan":"×"}}
,{"type":"Feature","geometry":{"type":"Point","coordinates":[139.70263634791,35.639333558905]},"properties":{"Name":"めぐろ学校サポートセンター","Jusho":"東京都目黒区中目黒3-6-10","kouzui":"○","gake":"○","takashio":"×","jishin":"○","tsunami":"×","kaji":"×","naisui":"○","kazan":"×"}}
,{"type":"Feature","geometry":{"type":"Point","coordinates":[139.6989166778,35.640107898038]},"properties":{"Name":"中目黒小学校","Jusho":"東京都目黒区中目黒3-13-32","kouzui":"○","gake":"○","takashio":"×","jishin":"○","tsunami":"×","kaji":"×","naisui":"○","kazan":"×"}}
,{"type":"Feature","geometry":{"type":"Point","coordinates":[139.70923500079,35.637591290189]},"properties":{"Name":"田道小学校","Jusho":"東京都目黒区目黒1-15-28","kouzui":"×","gake":"○","takashio":"×","jishin":"○","tsunami":"×","kaji":"×","naisui":"×","kazan":"×"}}
,{"type":"Feature","geometry":{"type":"Point","coordinates":[139.70915964733,35.634186890623]},"properties":{"Name":"下目黒小学校","Jusho":"東京都目黒区目黒2-7-9","kouzui":"×","gake":"○","takashio":"×","jishin":"○","tsunami":"×","kaji":"×","naisui":"×","kazan":"×"}}
,{"type":"Feature","geometry":{"type":"Point","coordinates":[139.70751735464,35.631057439186]},"properties":{"Name":"大鳥中学校","Jusho":"東京都目黒区下目黒3-23-18","kouzui":"○","gake":"○","takashio":"×","jishin":"○","tsunami":"×","kaji":"×","naisui":"○","kazan":"×"}}
,{"type":"Feature","geometry":{"type":"Point","coordinates":[139.69911591189,35.627092595024]},"properties":{"Name":"不動小学校","Jusho":"東京都目黒区下目黒6-11-35","kouzui":"○","gake":"○","takashio":"×","jishin":"○","tsunami":"×","kaji":"×","naisui":"○","kazan":"×"}}
,{"type":"Feature","geometry":{"type":"Point","coordinates":[139.69033925624,35.638734440427]},"properties":{"Name":"上目黒小学校","Jusho":"東京都目黒区五本木1-12-13","kouzui":"○","gake":"○","takashio":"×","jishin":"○","tsunami":"×","kaji":"×","naisui":"○","kazan":"×"}}
,{"type":"Feature","geometry":{"type":"Point","coordinates":[139.69447702967,35.636898116867]},"properties":{"Name":"都立目黒高等学校","Jusho":"東京都目黒区祐天寺2-7-15","kouzui":"×","gake":"×","takashio":"×","jishin":"○","tsunami":"×","kaji":"×","naisui":"×","kazan":"×"}}
,{"type":"Feature","geometry":{"type":"Point","coordinates":[139.69836672982,35.632435183439]},"properties":{"Name":"油面小学校","Jusho":"東京都目黒区中町1-5-4","kouzui":"○","gake":"○","takashio":"×","jishin":"○","tsunami":"×","kaji":"×","naisui":"○","kazan":"×"}}
,{"type":"Feature","geometry":{"type":"Point","coordinates":[139.6938751647,35.634617823268]},"properties":{"Name":"目黒中央中学校","Jusho":"東京都目黒区中町2-37-38","kouzui":"○","gake":"○","takashio":"×","jishin":"○","tsunami":"×","kaji":"×","naisui":"○","kazan":"×"}}
,{"type":"Feature","geometry":{"type":"Point","coordinates":[139.68760774105,35.634136276295]},"properties":{"Name":"五本木小学校","Jusho":"東京都目黒区五本木2-24-3","kouzui":"○","gake":"○","takashio":"×","jishin":"○","tsunami":"×","kaji":"×","naisui":"○","kazan":"×"}}
,{"type":"Feature","geometry":{"type":"Point","coordinates":[139.689973299,35.6275797145]},"properties":{"Name":"鷹番小学校","Jusho":"東京都目黒区中央町1-20-26","kouzui":"○","gake":"○","takashio":"×","jishin":"○","tsunami":"×","kaji":"×","naisui":"○","kazan":"×"}}
,{"type":"Feature","geometry":{"type":"Point","coordinates":[139.68213017975,35.626508061977]},"properties":{"Name":"碑文谷公園及び碑文谷体育館（碑文谷公園は地震時のみ使用）","Jusho":"東京都目黒区碑文谷6-9-11、6-12-43","kouzui":"○","gake":"○","takashio":"×","jishin":"○","tsunami":"×","kaji":"×","naisui":"○","kazan":"×"}}
,{"type":"Feature","geometry":{"type":"Point","coordinates":[139.69494858385,35.623025401106]},"properties":{"Name":"月光原小学校","Jusho":"東京都目黒区目黒本町4-15-3","kouzui":"○","gake":"○","takashio":"×","jishin":"○","tsunami":"×","kaji":"×","naisui":"○","kazan":"×"}}
,{"type":"Feature","geometry":{"type":"Point","coordinates":[139.69575154995,35.61849223063]},"properties":{"Name":"向原小学校","Jusho":"東京都目黒区目黒本町6-7-15","kouzui":"×","gake":"○","takashio":"×","jishin":"○","tsunami":"×","kaji":"×","naisui":"×","kazan":"×"}}
,{"type":"Feature","geometry":{"type":"Point","coordinates":[139.6918315632,35.622972597955]},"properties":{"Name":"第七中学校","Jusho":"東京都目黒区碑文谷1-1-33","kouzui":"○","gake":"○","takashio":"×","jishin":"○","tsunami":"×","kaji":"×","naisui":"○","kazan":"×"}}
,{"type":"Feature","geometry":{"type":"Point","coordinates":[139.69064874872,35.619354926806]},"properties":{"Name":"碑小学校","Jusho":"東京都目黒区碑文谷1-18-2","kouzui":"○","gake":"○","takashio":"×","jishin":"○","tsunami":"×","kaji":"×","naisui":"○","kazan":"×"}}
,{"type":"Feature","geometry":{"type":"Point","coordinates":[139.69065363581,35.615567762264]},"properties":{"Name":"原町小学校","Jusho":"東京都目黒区原町2-18-12","kouzui":"○","gake":"○","takashio":"×","jishin":"○","tsunami":"×","kaji":"×","naisui":"○","kazan":"×"}}
,{"type":"Feature","geometry":{"type":"Point","coordinates":[139.69518643322,35.613482897004]},"properties":{"Name":"第九中学校","Jusho":"東京都目黒区洗足1-29-26","kouzui":"○","gake":"○","takashio":"×","jishin":"○","tsunami":"×","kaji":"×","naisui":"○","kazan":"×"}}
,{"type":"Feature","geometry":{"type":"Point","coordinates":[139.68243423188,35.619650961702]},"properties":{"Name":"第八中学校","Jusho":"東京都目黒区碑文谷4-19-25","kouzui":"○","gake":"○","takashio":"×","jishin":"○","tsunami":"×","kaji":"×","naisui":"○","kazan":"×"}}
,{"type":"Feature","geometry":{"type":"Point","coordinates":[139.68298567265,35.615056157039]},"properties":{"Name":"大岡山小学校","Jusho":"東京都目黒区平町2-3-1","kouzui":"○","gake":"○","takashio":"×","jishin":"○","tsunami":"×","kaji":"×","naisui":"○","kazan":"×"}}
,{"type":"Feature","geometry":{"type":"Point","coordinates":[139.67827770491,35.612677587167]},"properties":{"Name":"中根小学校","Jusho":"東京都目黒区緑が丘1-1-1","kouzui":"○","gake":"○","takashio":"×","jishin":"○","tsunami":"×","kaji":"×","naisui":"○","kazan":"×"}}
,{"type":"Feature","geometry":{"type":"Point","coordinates":[139.67901637949,35.609461479271]},"properties":{"Name":"第十一中学校","Jusho":"東京都目黒区緑が丘1-8-1","kouzui":"○","gake":"○","takashio":"×","jishin":"○","tsunami":"×","kaji":"×","naisui":"○","kazan":"×"}}
,{"type":"Feature","geometry":{"type":"Point","coordinates":[139.67331843662,35.610287475904]},"properties":{"Name":"緑ヶ丘小学校","Jusho":"東京都目黒区緑が丘2-13-1","kouzui":"○","gake":"○","takashio":"×","jishin":"○","tsunami":"×","kaji":"×","naisui":"○","kazan":"×"}}
,{"type":"Feature","geometry":{"type":"Point","coordinates":[139.66635404438,35.612274725766]},"properties":{"Name":"自由ヶ丘学園高等学校","Jusho":"東京都目黒区自由が丘2-21-1","kouzui":"×","gake":"×","takashio":"×","jishin":"○","tsunami":"×","kaji":"×","naisui":"×","kazan":"×"}}
,{"type":"Feature","geometry":{"type":"Point","coordinates":[139.66684594946,35.61533370798]},"properties":{"Name":"宮前小学校","Jusho":"東京都目黒区八雲3-13-21","kouzui":"○","gake":"○","takashio":"×","jishin":"○","tsunami":"×","kaji":"×","naisui":"○","kazan":"×"}}
,{"type":"Feature","geometry":{"type":"Point","coordinates":[139.67203575331,35.621155580524]},"properties":{"Name":"めぐろ区民キャンパス及び都立桜修館中等教育学校（都立桜修館中等教育学校は地震時のみ使用）","Jusho":"東京都目黒区八雲1-1-1、1-1-2","kouzui":"○","gake":"○","takashio":"×","jishin":"○","tsunami":"×","kaji":"×","naisui":"○","kazan":"×"}}
,{"type":"Feature","geometry":{"type":"Point","coordinates":[139.67127411509,35.618146285026]},"properties":{"Name":"八雲小学校","Jusho":"東京都目黒区八雲2-5-1","kouzui":"○","gake":"○","takashio":"×","jishin":"○","tsunami":"×","kaji":"×","naisui":"○","kazan":"×"}}
,{"type":"Feature","geometry":{"type":"Point","coordinates":[139.66866409605,35.624395185956]},"properties":{"Name":"第十中学校","Jusho":"東京都目黒区八雲5-2-1","kouzui":"○","gake":"○","takashio":"×","jishin":"○","tsunami":"×","kaji":"×","naisui":"○","kazan":"×"}}
,{"type":"Feature","geometry":{"type":"Point","coordinates":[139.66805695264,35.627153081057]},"properties":{"Name":"東根小学校","Jusho":"東京都目黒区東が丘1-20-1","kouzui":"○","gake":"○","takashio":"×","jishin":"○","tsunami":"×","kaji":"×","naisui":"○","kazan":"×"}}
,{"type":"Feature","geometry":{"type":"Point","coordinates":[139.67872221134,35.649828337522]},"properties":{"Name":"池尻区民集会所","Jusho":"東京都世田谷区池尻３-２７-２１","kouzui":"○","gake":"×","takashio":"×","jishin":"×","tsunami":"×","kaji":"×","naisui":"○","kazan":"×"}}
,{"type":"Feature","geometry":{"type":"Point","coordinates":[139.64477384651,35.647843598135]},"properties":{"Name":"宮坂区民センター","Jusho":"東京都世田谷区宮坂１-２４-６","kouzui":"○","gake":"×","takashio":"×","jishin":"×","tsunami":"×","kaji":"×","naisui":"○","kazan":"×"}}
,{"type":"Feature","geometry":{"type":"Point","coordinates":[139.63212434175,35.651807050787]},"properties":{"Name":"経堂地区会館","Jusho":"東京都世田谷区経堂３-３７-１３","kouzui":"○","gake":"×","takashio":"×","jishin":"×","tsunami":"×","kaji":"×","naisui":"○","kazan":"×"}}
,{"type":"Feature","geometry":{"type":"Point","coordinates":[139.67904549387,35.6359803844]},"properties":{"Name":"下馬地区会館","Jusho":"東京都世田谷区下馬４-１３-４","kouzui":"○","gake":"×","takashio":"×","jishin":"×","tsunami":"×","kaji":"×","naisui":"○","kazan":"×"}}
,{"type":"Feature","geometry":{"type":"Point","coordinates":[139.66253108072,35.635050210003]},"properties":{"Name":"上馬地区会館","Jusho":"東京都世田谷区上馬４-１０-１７","kouzui":"○","gake":"×","takashio":"×","jishin":"×","tsunami":"×","kaji":"×","naisui":"○","kazan":"×"}}
,{"type":"Feature","geometry":{"type":"Point","coordinates":[139.66970892617,35.662181470323]},"properties":{"Name":"北沢タウンホール","Jusho":"東京都世田谷区北沢２-８-１８","kouzui":"○","gake":"×","takashio":"×","jishin":"×","tsunami":"×","kaji":"×","naisui":"○","kazan":"×"}}
,{"type":"Feature","geometry":{"type":"Point","coordinates":[139.67333789997,35.659373900081]},"properties":{"Name":"池之上青少年会館","Jusho":"東京都世田谷区代沢２-３７ー１８","kouzui":"×","gake":"○","takashio":"×","jishin":"×","tsunami":"×","kaji":"×","naisui":"×","kazan":"×"}}
,{"type":"Feature","geometry":{"type":"Point","coordinates":[139.63827622605,35.665479991833]},"properties":{"Name":"松沢区民集会所","Jusho":"東京都世田谷区赤堤５-３１-５","kouzui":"○","gake":"×","takashio":"×","jishin":"×","tsunami":"×","kaji":"×","naisui":"○","kazan":"×"}}
,{"type":"Feature","geometry":{"type":"Point","coordinates":[139.66689523853,35.602780166825]},"properties":{"Name":"八幡小学校","Jusho":"東京都世田谷区玉川田園調布２-１７-１５ ","kouzui":"○","gake":"×","takashio":"×","jishin":"×","tsunami":"×","kaji":"×","naisui":"×","kazan":"×"}}
,{"type":"Feature","geometry":{"type":"Point","coordinates":[139.66008102057,35.603263229885]},"properties":{"Name":"九品仏小学校","Jusho":"東京都世田谷区奥沢８-１２-１ ","kouzui":"○","gake":"×","takashio":"×","jishin":"×","tsunami":"×","kaji":"×","naisui":"×","kazan":"×"}}
,{"type":"Feature","geometry":{"type":"Point","coordinates":[139.65422781415,35.604674833463]},"properties":{"Name":"尾山台小学校","Jusho":"東京都世田谷区尾山台３-１１-１ ","kouzui":"○","gake":"×","takashio":"×","jishin":"×","tsunami":"×","kaji":"×","naisui":"×","kazan":"×"}}
,{"type":"Feature","geometry":{"type":"Point","coordinates":[139.65593502151,35.605889839164]},"properties":{"Name":"尾山台中学校","Jusho":"東京都世田谷区尾山台３-２７-２３ ","kouzui":"○","gake":"×","takashio":"×","jishin":"×","tsunami":"×","kaji":"×","naisui":"×","kazan":"×"}}
,{"type":"Feature","geometry":{"type":"Point","coordinates":[139.6485161892,35.60856420098]},"properties":{"Name":"玉川区民会館","Jusho":"東京都世田谷区等々力３-４-１","kouzui":"○","gake":"×","takashio":"×","jishin":"×","tsunami":"×","kaji":"×","naisui":"×","kazan":"×"}}
,{"type":"Feature","geometry":{"type":"Point","coordinates":[139.65238619563,35.60576313317]},"properties":{"Name":"尾山台地区会館","Jusho":"東京都世田谷区等々力２-１７-１４","kouzui":"×","gake":"○","takashio":"×","jishin":"×","tsunami":"×","kaji":"×","naisui":"×","kazan":"×"}}
,{"type":"Feature","geometry":{"type":"Point","coordinates":[139.64353964407,35.610838458833]},"properties":{"Name":"玉川小学校","Jusho":"東京都世田谷区中町２-２９-１ ","kouzui":"○","gake":"×","takashio":"×","jishin":"×","tsunami":"×","kaji":"×","naisui":"×","kazan":"×"}}
,{"type":"Feature","geometry":{"type":"Point","coordinates":[139.64256528675,35.617317929537]},"properties":{"Name":"中町小学校","Jusho":"東京都世田谷区中町４-２３-１ ","kouzui":"○","gake":"×","takashio":"×","jishin":"×","tsunami":"×","kaji":"×","naisui":"×","kazan":"×"}}
,{"type":"Feature","geometry":{"type":"Point","coordinates":[139.64341619408,35.616800520747]},"properties":{"Name":"玉川中学校","Jusho":"東京都世田谷区中町４-２１-１ ","kouzui":"○","gake":"×","takashio":"×","jishin":"×","tsunami":"×","kaji":"×","naisui":"×","kazan":"×"}}
,{"type":"Feature","geometry":{"type":"Point","coordinates":[139.64103024747,35.611442727038]},"properties":{"Name":"上野毛地区会館","Jusho":"東京都世田谷区中町２-３３-１１","kouzui":"×","gake":"○","takashio":"×","jishin":"×","tsunami":"×","kaji":"×","naisui":"×","kazan":"×"}}
,{"type":"Feature","geometry":{"type":"Point","coordinates":[139.63158643694,35.618723307049]},"properties":{"Name":"瀬田小学校","Jusho":"東京都世田谷区瀬田２-１５-１ ","kouzui":"○","gake":"×","takashio":"×","jishin":"×","tsunami":"×","kaji":"×","naisui":"×","kazan":"×"}}
,{"type":"Feature","geometry":{"type":"Point","coordinates":[139.63293391728,35.618427474504]},"properties":{"Name":"瀬田中学校","Jusho":"東京都世田谷区瀬田２-１７-１ ","kouzui":"○","gake":"×","takashio":"×","jishin":"×","tsunami":"×","kaji":"×","naisui":"×","kazan":"×"}}
,{"type":"Feature","geometry":{"type":"Point","coordinates":[139.62729602239,35.621371073071]},"properties":{"Name":"瀬田地区会館","Jusho":"東京都世田谷区瀬田４-１８-１１","kouzui":"×","gake":"○","takashio":"×","jishin":"×","tsunami":"×","kaji":"×","naisui":"×","kazan":"×"}}
,{"type":"Feature","geometry":{"type":"Point","coordinates":[139.64771264047,35.619072737442]},"properties":{"Name":"都立園芸高校","Jusho":"東京都世田谷区深沢５-３８-１","kouzui":"○","gake":"×","takashio":"×","jishin":"×","tsunami":"×","kaji":"×","naisui":"×","kazan":"×"}}
,{"type":"Feature","geometry":{"type":"Point","coordinates":[139.647847,35.623325]},"properties":{"Name":"都立深沢高校","Jusho":"東京都世田谷区深沢７-３-１４","kouzui":"○","gake":"×","takashio":"×","jishin":"×","tsunami":"×","kaji":"×","naisui":"×","kazan":"×"}}
,{"type":"Feature","geometry":{"type":"Point","coordinates":[139.65162314818,35.612821293412]},"properties":{"Name":"東京都市大学等々力キャンパス","Jusho":"東京都世田谷区等々力８-９-１８","kouzui":"○","gake":"×","takashio":"×","jishin":"×","tsunami":"×","kaji":"×","naisui":"×","kazan":"×"}}
,{"type":"Feature","geometry":{"type":"Point","coordinates":[139.60480054765,35.645849155239]},"properties":{"Name":"祖師谷小学校","Jusho":"東京都世田谷区祖師谷３-４９-１","kouzui":"○","gake":"×","takashio":"×","jishin":"×","tsunami":"×","kaji":"×","naisui":"×","kazan":"×"}}
,{"type":"Feature","geometry":{"type":"Point","coordinates":[139.599078492,35.635444061874]},"properties":{"Name":"明正小学校","Jusho":"東京都世田谷区成城３-３-１ ","kouzui":"○","gake":"×","takashio":"×","jishin":"×","tsunami":"×","kaji":"×","naisui":"×","kazan":"×"}}
,{"type":"Feature","geometry":{"type":"Point","coordinates":[139.59809671258,35.65165457912]},"properties":{"Name":"千歳小学校","Jusho":"東京都世田谷区成城９-６-１","kouzui":"○","gake":"×","takashio":"×","jishin":"×","tsunami":"×","kaji":"×","naisui":"×","kazan":"×"}}
,{"type":"Feature","geometry":{"type":"Point","coordinates":[139.59548972132,35.651677942634]},"properties":{"Name":"都立総合工科高校","Jusho":"東京都世田谷区成城９-２５-１","kouzui":"○","gake":"×","takashio":"×","jishin":"×","tsunami":"×","kaji":"×","naisui":"×","kazan":"×"}}
,{"type":"Feature","geometry":{"type":"Point","coordinates":[139.60101936535,35.633797790342]},"properties":{"Name":"砧中学校","Jusho":"東京都世田谷区成城１-１０-１ ","kouzui":"○","gake":"×","takashio":"×","jishin":"×","tsunami":"×","kaji":"×","naisui":"×","kazan":"×"}}
,{"type":"Feature","geometry":{"type":"Point","coordinates":[139.60070572596,35.641239597376]},"properties":{"Name":"砧総合支所 成城ホール","Jusho":"東京都世田谷区成城６-２-１","kouzui":"○","gake":"×","takashio":"×","jishin":"×","tsunami":"×","kaji":"×","naisui":"×","kazan":"×"}}
,{"type":"Feature","geometry":{"type":"Point","coordinates":[139.600898,35.641267]},"properties":{"Name":"砧総合支所 集会室等","Jusho":"東京都世田谷区成城６-２-１","kouzui":"×","gake":"○","takashio":"×","jishin":"×","tsunami":"×","kaji":"×","naisui":"×","kazan":"×"}}
,{"type":"Feature","geometry":{"type":"Point","coordinates":[139.59762691202,35.634114838659]},"properties":{"Name":"成城さくら児童館","Jusho":"東京都世田谷区成城３-１８-２３","kouzui":"×","gake":"○","takashio":"×","jishin":"×","tsunami":"×","kaji":"×","naisui":"×","kazan":"×"}}
,{"type":"Feature","geometry":{"type":"Point","coordinates":[139.62074074005,35.658998849109]},"properties":{"Name":"希望丘複合施設（区民集会所）","Jusho":"東京都世田谷区船橋６-２５-１","kouzui":"○","gake":"×","takashio":"×","jishin":"×","tsunami":"×","kaji":"×","naisui":"×","kazan":"×"}}
,{"type":"Feature","geometry":{"type":"Point","coordinates":[139.60524469628,35.631761594684]},"properties":{"Name":"砧小学校","Jusho":"東京都世田谷区喜多見６-９-１ ","kouzui":"○","gake":"×","takashio":"×","jishin":"×","tsunami":"×","kaji":"×","naisui":"×","kazan":"×"}}
,{"type":"Feature","geometry":{"type":"Point","coordinates":[139.61319814454,35.621157908732]},"properties":{"Name":"砧南中学校","Jusho":"東京都世田谷区鎌田３-１３-２０","kouzui":"○","gake":"×","takashio":"×","jishin":"×","tsunami":"×","kaji":"×","naisui":"×","kazan":"×"}}
,{"type":"Feature","geometry":{"type":"Point","coordinates":[139.58977670555,35.637051522486]},"properties":{"Name":"喜多見地区会館","Jusho":"東京都世田谷区喜多見８-２３-２３","kouzui":"×","gake":"○","takashio":"×","jishin":"×","tsunami":"×","kaji":"×","naisui":"×","kazan":"×"}}
,{"type":"Feature","geometry":{"type":"Point","coordinates":[139.6133540628,35.61703543666]},"properties":{"Name":"鎌田区民集会所","Jusho":"東京都世田谷区鎌田２-１-２４","kouzui":"○","gake":"×","takashio":"×","jishin":"×","tsunami":"×","kaji":"×","naisui":"×","kazan":"×"}}
,{"type":"Feature","geometry":{"type":"Point","coordinates":[139.61300586896,35.643416322918]},"properties":{"Name":"山野小学校","Jusho":"東京都世田谷区砧６-７-１","kouzui":"○","gake":"×","takashio":"×","jishin":"×","tsunami":"×","kaji":"×","naisui":"×","kazan":"×"}}
,{"type":"Feature","geometry":{"type":"Point","coordinates":[139.61947822306,35.625031158611]},"properties":{"Name":"岡本地区会館","Jusho":"東京都世田谷区岡本１-２５-４","kouzui":"×","gake":"○","takashio":"×","jishin":"×","tsunami":"×","kaji":"×","naisui":"×","kazan":"×"}}
,{"type":"Feature","geometry":{"type":"Point","coordinates":[139.61082515445,35.634896178004]},"properties":{"Name":"大蔵地区会館","Jusho":"東京都世田谷区砧３-５-６","kouzui":"×","gake":"○","takashio":"×","jishin":"×","tsunami":"×","kaji":"×","naisui":"×","kazan":"×"}}
,{"type":"Feature","geometry":{"type":"Point","coordinates":[139.61234221222,35.630374576827]},"properties":{"Name":"区立総合運動場体育館","Jusho":"東京都世田谷区大蔵４-６-１","kouzui":"○","gake":"×","takashio":"×","jishin":"×","tsunami":"×","kaji":"×","naisui":"×","kazan":"×"}}
,{"type":"Feature","geometry":{"type":"Point","coordinates":[139.61477050952,35.631580058536]},"properties":{"Name":"区立大蔵第二運動場体育館","Jusho":"東京都世田谷区大蔵４-７-１","kouzui":"○","gake":"×","takashio":"×","jishin":"×","tsunami":"×","kaji":"×","naisui":"×","kazan":"×"}}
,{"type":"Feature","geometry":{"type":"Point","coordinates":[139.62115284529,35.624166964989]},"properties":{"Name":"聖ドミニコ学園","Jusho":"東京都世田谷区岡本１-１０-１","kouzui":"○","gake":"×","takashio":"×","jishin":"×","tsunami":"×","kaji":"×","naisui":"×","kazan":"×"}}
,{"type":"Feature","geometry":{"type":"Point","coordinates":[139.60855957553,35.617869147311]},"properties":{"Name":"駒澤大学玉川校舎","Jusho":"東京都世田谷区宇奈根１-１-１","kouzui":"○","gake":"×","takashio":"×","jishin":"×","tsunami":"×","kaji":"×","naisui":"×","kazan":"×"}}
,{"type":"Feature","geometry":{"type":"Point","coordinates":[139.61050932847,35.619706472855]},"properties":{"Name":"ゆうぽうと世田谷レクセンター","Jusho":"東京都世田谷区鎌田２-１７-１","kouzui":"○","gake":"×","takashio":"×","jishin":"×","tsunami":"×","kaji":"×","naisui":"×","kazan":"×"}}
,{"type":"Feature","geometry":{"type":"Point","coordinates":[139.61151037309,35.625088027757]},"properties":{"Name":"氷川神社","Jusho":"東京都世田谷区大蔵６-６-７","kouzui":"○","gake":"×","takashio":"×","jishin":"×","tsunami":"×","kaji":"×","naisui":"×","kazan":"×"}}
,{"type":"Feature","geometry":{"type":"Point","coordinates":[139.62563950018,35.66755828741]},"properties":{"Name":"上北沢区民センター","Jusho":"東京都世田谷区上北沢３-８-９","kouzui":"○","gake":"×","takashio":"×","jishin":"×","tsunami":"×","kaji":"×","naisui":"○","kazan":"×"}}
,{"type":"Feature","geometry":{"type":"Point","coordinates":[139.59665788697,35.653584776097]},"properties":{"Name":"上祖師谷地区会館","Jusho":"東京都世田谷区上祖師谷４-５-６","kouzui":"○","gake":"×","takashio":"×","jishin":"×","tsunami":"×","kaji":"×","naisui":"○","kazan":"×"}}
,{"type":"Feature","geometry":{"type":"Point","coordinates":[139.60052123181,35.668834960124]},"properties":{"Name":"烏山区民センター","Jusho":"東京都世田谷区南烏山６-２-１９","kouzui":"○","gake":"×","takashio":"×","jishin":"×","tsunami":"×","kaji":"×","naisui":"○","kazan":"×"}}
,{"type":"Feature","geometry":{"type":"Point","coordinates":[139.63682228645,35.705968224218]},"properties":{"Name":"杉並第一小学校","Jusho":"東京都杉並区阿佐谷北1-5-27","kouzui":"○","gake":"○","takashio":"×","jishin":"○","tsunami":"×","kaji":"○","naisui":"○","kazan":"×"}}
,{"type":"Feature","geometry":{"type":"Point","coordinates":[139.63157623062,35.692916604764]},"properties":{"Name":"杉並第二小学校","Jusho":"東京都杉並区成 田 西3-4-1","kouzui":"○","gake":"○","takashio":"×","jishin":"○","tsunami":"×","kaji":"○","naisui":"○","kazan":"×"}}
,{"type":"Feature","geometry":{"type":"Point","coordinates":[139.63124052957,35.703190735384]},"properties":{"Name":"杉並第七小学校","Jusho":"東京都杉並区阿佐谷南3-19-2","kouzui":"×","gake":"×","takashio":"×","jishin":"○","tsunami":"×","kaji":"○","naisui":"×","kazan":"×"}}
,{"type":"Feature","geometry":{"type":"Point","coordinates":[139.62256702943,35.694524673334]},"properties":{"Name":"西田小学校","Jusho":"東京都杉並区荻窪1-38-15","kouzui":"×","gake":"×","takashio":"×","jishin":"○","tsunami":"×","kaji":"○","naisui":"×","kazan":"×"}}
,{"type":"Feature","geometry":{"type":"Point","coordinates":[139.63902044892,35.691057625384]},"properties":{"Name":"東田小学校","Jusho":"東京都杉並区成 田 東1-21-1","kouzui":"○","gake":"○","takashio":"×","jishin":"○","tsunami":"×","kaji":"○","naisui":"○","kazan":"×"}}
,{"type":"Feature","geometry":{"type":"Point","coordinates":[139.64350788764,35.708422575592]},"properties":{"Name":"馬橋小学校","Jusho":"東京都杉並区高円寺北4-28-5","kouzui":"×","gake":"×","takashio":"×","jishin":"○","tsunami":"×","kaji":"○","naisui":"×","kazan":"×"}}
,{"type":"Feature","geometry":{"type":"Point","coordinates":[139.65511692778,35.707038970367]},"properties":{"Name":"高円寺学園","Jusho":"東京都杉並区高円寺北1-4-11","kouzui":"×","gake":"×","takashio":"×","jishin":"○","tsunami":"×","kaji":"○","naisui":"×","kazan":"×"}}
,{"type":"Feature","geometry":{"type":"Point","coordinates":[139.64125000832,35.711945522401]},"properties":{"Name":"杉森中学校","Jusho":"東京都杉並区阿佐谷北5-45-24","kouzui":"×","gake":"×","takashio":"×","jishin":"○","tsunami":"×","kaji":"○","naisui":"×","kazan":"×"}}
,{"type":"Feature","geometry":{"type":"Point","coordinates":[139.63627683339,35.700321509478]},"properties":{"Name":"阿佐ヶ谷中学校","Jusho":"東京都杉並区阿佐谷南1-17-3","kouzui":"○","gake":"○","takashio":"×","jishin":"○","tsunami":"×","kaji":"○","naisui":"○","kazan":"×"}}
,{"type":"Feature","geometry":{"type":"Point","coordinates":[139.63468823579,35.694341229826]},"properties":{"Name":"東田中学校","Jusho":"東京都杉並区成 田 東3-19-17","kouzui":"×","gake":"×","takashio":"×","jishin":"○","tsunami":"×","kaji":"○","naisui":"×","kazan":"×"}}
,{"type":"Feature","geometry":{"type":"Point","coordinates":[139.62222560789,35.69651172749]},"properties":{"Name":"松溪中学校","Jusho":"東京都杉並区荻窪2-3-1","kouzui":"×","gake":"×","takashio":"×","jishin":"○","tsunami":"×","kaji":"○","naisui":"×","kazan":"×"}}
,{"type":"Feature","geometry":{"type":"Point","coordinates":[139.60854438101,35.711966998693]},"properties":{"Name":"桃井第一小学校","Jusho":"東京都杉並区桃井2-6-1","kouzui":"×","gake":"×","takashio":"×","jishin":"○","tsunami":"×","kaji":"○","naisui":"×","kazan":"×"}}
,{"type":"Feature","geometry":{"type":"Point","coordinates":[139.61940968623,35.722127254956]},"properties":{"Name":"桃井第五小学校","Jusho":"東京都杉並区下 井 草4-22-4","kouzui":"×","gake":"×","takashio":"×","jishin":"○","tsunami":"×","kaji":"○","naisui":"×","kazan":"×"}}
,{"type":"Feature","geometry":{"type":"Point","coordinates":[139.60988168316,35.721110510543]},"properties":{"Name":"四宮小学校","Jusho":"東京都杉並区上 井 草2-12-26","kouzui":"○","gake":"○","takashio":"×","jishin":"○","tsunami":"×","kaji":"○","naisui":"○","kazan":"×"}}
,{"type":"Feature","geometry":{"type":"Point","coordinates":[139.62050499237,35.71660622782]},"properties":{"Name":"沓掛小学校","Jusho":"東京都杉並区清水3-1-9","kouzui":"×","gake":"×","takashio":"×","jishin":"○","tsunami":"×","kaji":"○","naisui":"×","kazan":"×"}}
,{"type":"Feature","geometry":{"type":"Point","coordinates":[139.61927901721,35.728304204983]},"properties":{"Name":"八成小学校","Jusho":"東京都杉並区井草2-25-4","kouzui":"×","gake":"×","takashio":"×","jishin":"○","tsunami":"×","kaji":"○","naisui":"×","kazan":"×"}}
,{"type":"Feature","geometry":{"type":"Point","coordinates":[139.63037899282,35.717667427736]},"properties":{"Name":"東原中学校","Jusho":"東京都杉並区下 井 草1-28-5","kouzui":"×","gake":"×","takashio":"×","jishin":"○","tsunami":"×","kaji":"○","naisui":"×","kazan":"×"}}
,{"type":"Feature","geometry":{"type":"Point","coordinates":[139.6193035674,35.719512986472]},"properties":{"Name":"中瀬中学校","Jusho":"東京都杉並区下 井 草4-3-29","kouzui":"○","gake":"○","takashio":"×","jishin":"○","tsunami":"×","kaji":"○","naisui":"○","kazan":"×"}}
,{"type":"Feature","geometry":{"type":"Point","coordinates":[139.61052296386,35.718067689126]},"properties":{"Name":"井荻中学校","Jusho":"東京都杉並区今川2-13-24","kouzui":"×","gake":"×","takashio":"×","jishin":"○","tsunami":"×","kaji":"○","naisui":"×","kazan":"×"}}
,{"type":"Feature","geometry":{"type":"Point","coordinates":[139.63065519581,35.671500955664]},"properties":{"Name":"高井戸第三小学校","Jusho":"東京都杉並区下高井戸4-16-24","kouzui":"○","gake":"○","takashio":"×","jishin":"○","tsunami":"×","kaji":"○","naisui":"○","kazan":"×"}}
,{"type":"Feature","geometry":{"type":"Point","coordinates":[139.62881389687,35.685039852686]},"properties":{"Name":"浜田山小学校","Jusho":"東京都杉並区浜 田 山4-23-1","kouzui":"×","gake":"×","takashio":"×","jishin":"○","tsunami":"×","kaji":"○","naisui":"×","kazan":"×"}}
,{"type":"Feature","geometry":{"type":"Point","coordinates":[139.65650625004,35.67569161816]},"properties":{"Name":"旧新泉小学校","Jusho":"東京都杉並区和泉1-44-26","kouzui":"×","gake":"×","takashio":"×","jishin":"○","tsunami":"×","kaji":"○","naisui":"×","kazan":"×"}}
,{"type":"Feature","geometry":{"type":"Point","coordinates":[139.65867175494,35.6796697771]},"properties":{"Name":"方南小学校","Jusho":"東京都杉並区方南1-52-14","kouzui":"○","gake":"○","takashio":"×","jishin":"○","tsunami":"×","kaji":"○","naisui":"○","kazan":"×"}}
,{"type":"Feature","geometry":{"type":"Point","coordinates":[139.63888956918,35.673273344374]},"properties":{"Name":"永福小学校","Jusho":"東京都杉並区永福2-16-33","kouzui":"○","gake":"○","takashio":"×","jishin":"○","tsunami":"×","kaji":"○","naisui":"○","kazan":"×"}}
,{"type":"Feature","geometry":{"type":"Point","coordinates":[139.63457314583,35.673308188969]},"properties":{"Name":"向陽中学校","Jusho":"東京都杉並区下高井戸3-24-1","kouzui":"×","gake":"×","takashio":"×","jishin":"○","tsunami":"×","kaji":"○","naisui":"×","kazan":"×"}}
,{"type":"Feature","geometry":{"type":"Point","coordinates":[139.65518492373,35.684599469361]},"properties":{"Name":"泉南中学校","Jusho":"東京都杉並区堀 ノ 内1-3-1","kouzui":"○","gake":"○","takashio":"×","jishin":"○","tsunami":"×","kaji":"○","naisui":"○","kazan":"×"}}
,{"type":"Feature","geometry":{"type":"Point","coordinates":[139.63346152149,35.713266123388]},"properties":{"Name":"杉並第九小学校","Jusho":"東京都杉並区本天沼1-2-19","kouzui":"×","gake":"×","takashio":"×","jishin":"○","tsunami":"×","kaji":"○","naisui":"×","kazan":"×"}}
,{"type":"Feature","geometry":{"type":"Point","coordinates":[139.617277222,35.701486449732]},"properties":{"Name":"桃井第二小学校","Jusho":"東京都杉並区荻窪5-10-25","kouzui":"×","gake":"×","takashio":"×","jishin":"○","tsunami":"×","kaji":"○","naisui":"×","kazan":"×"}}
,{"type":"Feature","geometry":{"type":"Point","coordinates":[139.62293281037,35.710904589057]},"properties":{"Name":"天沼小学校","Jusho":"東京都杉並区天沼2-46-3","kouzui":"×","gake":"×","takashio":"×","jishin":"○","tsunami":"×","kaji":"○","naisui":"×","kazan":"×"}}
,{"type":"Feature","geometry":{"type":"Point","coordinates":[139.62139796329,35.712025910593]},"properties":{"Name":"天沼中学校","Jusho":"東京都杉並区本天沼3-10-20","kouzui":"×","gake":"×","takashio":"×","jishin":"○","tsunami":"×","kaji":"○","naisui":"×","kazan":"×"}}
,{"type":"Feature","geometry":{"type":"Point","coordinates":[139.61852869058,35.708113558313]},"properties":{"Name":"保育室若杉","Jusho":"東京都杉並区天沼3-15-20","kouzui":"×","gake":"×","takashio":"×","jishin":"○","tsunami":"×","kaji":"○","naisui":"×","kazan":"×"}}
,{"type":"Feature","geometry":{"type":"Point","coordinates":[139.60895493035,35.700424105187]},"properties":{"Name":"神明中学校","Jusho":"東京都杉並区南荻窪2-37-28","kouzui":"×","gake":"×","takashio":"×","jishin":"○","tsunami":"×","kaji":"○","naisui":"×","kazan":"×"}}
,{"type":"Feature","geometry":{"type":"Point","coordinates":[139.65647198891,35.700014097561]},"properties":{"Name":"杉並第三小学校","Jusho":"東京都杉並区高円寺南1-15-13","kouzui":"○","gake":"○","takashio":"×","jishin":"○","tsunami":"×","kaji":"○","naisui":"○","kazan":"×"}}
,{"type":"Feature","geometry":{"type":"Point","coordinates":[139.64320852958,35.701799217281]},"properties":{"Name":"杉並第六小学校","Jusho":"東京都杉並区阿佐谷南1-24-21","kouzui":"×","gake":"×","takashio":"×","jishin":"○","tsunami":"×","kaji":"○","naisui":"×","kazan":"×"}}
,{"type":"Feature","geometry":{"type":"Point","coordinates":[139.65424,35.699745]},"properties":{"Name":"旧杉並第八小学校(高円寺体育館)","Jusho":"東京都杉並区高円寺南2-36-31","kouzui":"×","gake":"×","takashio":"×","jishin":"○","tsunami":"×","kaji":"○","naisui":"×","kazan":"×"}}
,{"type":"Feature","geometry":{"type":"Point","coordinates":[139.65750174703,35.697387570474]},"properties":{"Name":"杉並第十小学校","Jusho":"東京都杉並区和田3-55-49","kouzui":"×","gake":"×","takashio":"×","jishin":"○","tsunami":"×","kaji":"○","naisui":"×","kazan":"×"}}
,{"type":"Feature","geometry":{"type":"Point","coordinates":[139.649949452,35.683334739568]},"properties":{"Name":"大宮小学校","Jusho":"東京都杉並区堀ノ内1-12-16","kouzui":"×","gake":"×","takashio":"×","jishin":"○","tsunami":"×","kaji":"○","naisui":"×","kazan":"×"}}
,{"type":"Feature","geometry":{"type":"Point","coordinates":[139.64718396107,35.692844698919]},"properties":{"Name":"堀之内小学校","Jusho":"東京都杉並区堀ノ内3-24-11","kouzui":"○","gake":"○","takashio":"×","jishin":"○","tsunami":"×","kaji":"○","naisui":"○","kazan":"×"}}
,{"type":"Feature","geometry":{"type":"Point","coordinates":[139.65743264375,35.690707148568]},"properties":{"Name":"和田小学校","Jusho":"東京都杉並区和田2-30-21","kouzui":"○","gake":"○","takashio":"×","jishin":"○","tsunami":"×","kaji":"○","naisui":"○","kazan":"×"}}
,{"type":"Feature","geometry":{"type":"Point","coordinates":[139.65002882363,35.685528668131]},"properties":{"Name":"済美小学校","Jusho":"東京都杉並区堀ノ内1-17-24","kouzui":"×","gake":"×","takashio":"×","jishin":"○","tsunami":"×","kaji":"○","naisui":"×","kazan":"×"}}
,{"type":"Feature","geometry":{"type":"Point","coordinates":[139.64269108447,35.686707635274]},"properties":{"Name":"松ノ木小学校","Jusho":"東京都杉並区松ノ木1-2-26","kouzui":"×","gake":"×","takashio":"×","jishin":"○","tsunami":"×","kaji":"○","naisui":"×","kazan":"×"}}
,{"type":"Feature","geometry":{"type":"Point","coordinates":[139.65761206627,35.69540507489]},"properties":{"Name":"高南中学校","Jusho":"東京都杉並区和田3-40-10","kouzui":"×","gake":"×","takashio":"×","jishin":"○","tsunami":"×","kaji":"○","naisui":"×","kazan":"×"}}
,{"type":"Feature","geometry":{"type":"Point","coordinates":[139.64127105232,35.686458400105]},"properties":{"Name":"松ノ木中学校","Jusho":"東京都杉並区松ノ木1-4-1","kouzui":"○","gake":"○","takashio":"×","jishin":"○","tsunami":"×","kaji":"○","naisui":"○","kazan":"×"}}
,{"type":"Feature","geometry":{"type":"Point","coordinates":[139.64889151906,35.686377491052]},"properties":{"Name":"大宮中学校","Jusho":"東京都杉並区堀ノ内1-16-38","kouzui":"○","gake":"○","takashio":"×","jishin":"○","tsunami":"×","kaji":"○","naisui":"○","kazan":"×"}}
,{"type":"Feature","geometry":{"type":"Point","coordinates":[139.65868504813,35.690248112175]},"properties":{"Name":"和田中学校","Jusho":"東京都杉並区和田2-21-8","kouzui":"×","gake":"×","takashio":"×","jishin":"○","tsunami":"×","kaji":"○","naisui":"×","kazan":"×"}}
,{"type":"Feature","geometry":{"type":"Point","coordinates":[139.61178355906,35.694862544026]},"properties":{"Name":"荻窪小学校","Jusho":"東京都杉並区宮前2-13-18","kouzui":"○","gake":"○","takashio":"×","jishin":"○","tsunami":"×","kaji":"○","naisui":"○","kazan":"×"}}
,{"type":"Feature","geometry":{"type":"Point","coordinates":[139.61428421342,35.68412765985]},"properties":{"Name":"高井戸小学校","Jusho":"東京都杉並区高井戸西2-2-1","kouzui":"○","gake":"○","takashio":"×","jishin":"○","tsunami":"×","kaji":"○","naisui":"○","kazan":"×"}}
,{"type":"Feature","geometry":{"type":"Point","coordinates":[139.5997142234,35.691604461769]},"properties":{"Name":"高井戸第二小学校","Jusho":"東京都杉並区久我山4-49-1","kouzui":"×","gake":"×","takashio":"×","jishin":"○","tsunami":"×","kaji":"○","naisui":"×","kazan":"×"}}
,{"type":"Feature","geometry":{"type":"Point","coordinates":[139.60183334971,35.698311281308]},"properties":{"Name":"高井戸第四小学校","Jusho":"東京都杉並区西荻南1-8-16","kouzui":"×","gake":"×","takashio":"×","jishin":"○","tsunami":"×","kaji":"○","naisui":"×","kazan":"×"}}
,{"type":"Feature","geometry":{"type":"Point","coordinates":[139.59282945073,35.700470122026]},"properties":{"Name":"松庵小学校","Jusho":"東京都杉並区松庵2-23-24","kouzui":"×","gake":"×","takashio":"×","jishin":"○","tsunami":"×","kaji":"○","naisui":"×","kazan":"×"}}
,{"type":"Feature","geometry":{"type":"Point","coordinates":[139.60682741372,35.679274963086]},"properties":{"Name":"富士見丘小学校","Jusho":"東京都杉並区上高井戸2-16-13","kouzui":"×","gake":"×","takashio":"×","jishin":"○","tsunami":"×","kaji":"○","naisui":"×","kazan":"×"}}
,{"type":"Feature","geometry":{"type":"Point","coordinates":[139.6200667314,35.680078705238]},"properties":{"Name":"高井戸東小学校","Jusho":"東京都杉並区高井戸東1-12-1","kouzui":"○","gake":"○","takashio":"×","jishin":"○","tsunami":"×","kaji":"○","naisui":"○","kazan":"×"}}
,{"type":"Feature","geometry":{"type":"Point","coordinates":[139.60642274358,35.686581493205]},"properties":{"Name":"久我山小学校","Jusho":"東京都杉並区久我山5-18-7","kouzui":"×","gake":"×","takashio":"×","jishin":"○","tsunami":"×","kaji":"○","naisui":"×","kazan":"×"}}
,{"type":"Feature","geometry":{"type":"Point","coordinates":[139.6109339696,35.693334579479]},"properties":{"Name":"宮前中学校","Jusho":"東京都杉並区宮前2-12-1","kouzui":"×","gake":"×","takashio":"×","jishin":"○","tsunami":"×","kaji":"○","naisui":"×","kazan":"×"}}
,{"type":"Feature","geometry":{"type":"Point","coordinates":[139.6062448588,35.682373034457]},"properties":{"Name":"富士見丘中学校","Jusho":"東京都杉並区久我山2-20-1","kouzui":"×","gake":"×","takashio":"×","jishin":"○","tsunami":"×","kaji":"○","naisui":"×","kazan":"×"}}
,{"type":"Feature","geometry":{"type":"Point","coordinates":[139.62293261594,35.681079822978]},"properties":{"Name":"高井戸中学校","Jusho":"東京都杉並区高井戸東1-28-1","kouzui":"×","gake":"×","takashio":"×","jishin":"○","tsunami":"×","kaji":"○","naisui":"×","kazan":"×"}}
,{"type":"Feature","geometry":{"type":"Point","coordinates":[139.60215342299,35.692269603459]},"properties":{"Name":"西宮中学校","Jusho":"東京都杉並区宮前5-1-25","kouzui":"×","gake":"×","takashio":"×","jishin":"○","tsunami":"×","kaji":"○","naisui":"×","kazan":"×"}}
,{"type":"Feature","geometry":{"type":"Point","coordinates":[139.6018847074,35.705223352231]},"properties":{"Name":"桃井第三小学校","Jusho":"東京都杉並区西荻北2-10-7","kouzui":"○","gake":"○","takashio":"×","jishin":"○","tsunami":"×","kaji":"○","naisui":"○","kazan":"×"}}
,{"type":"Feature","geometry":{"type":"Point","coordinates":[139.59410222116,35.716792739949]},"properties":{"Name":"桃井第四小学校","Jusho":"東京都杉並区善福寺3-3-5","kouzui":"×","gake":"×","takashio":"×","jishin":"○","tsunami":"×","kaji":"○","naisui":"×","kazan":"×"}}
,{"type":"Feature","geometry":{"type":"Point","coordinates":[139.59603350725,35.711128994099]},"properties":{"Name":"井荻小学校","Jusho":"東京都杉並区善福 寺1-10-19","kouzui":"×","gake":"×","takashio":"×","jishin":"○","tsunami":"×","kaji":"○","naisui":"×","kazan":"×"}}
,{"type":"Feature","geometry":{"type":"Point","coordinates":[139.60183917304,35.719849647978]},"properties":{"Name":"三谷小学校","Jusho":"東京都杉並区上井草3-14-12","kouzui":"×","gake":"×","takashio":"×","jishin":"○","tsunami":"×","kaji":"○","naisui":"×","kazan":"×"}}
,{"type":"Feature","geometry":{"type":"Point","coordinates":[139.6031571979,35.721788531398]},"properties":{"Name":"井草中学校","Jusho":"東京都杉並区上 井草3-20-11","kouzui":"×","gake":"×","takashio":"×","jishin":"○","tsunami":"×","kaji":"○","naisui":"×","kazan":"×"}}
,{"type":"Feature","geometry":{"type":"Point","coordinates":[139.59713217882,35.710314960983]},"properties":{"Name":"荻窪中学校","Jusho":"東京都杉並区善福寺1-8-3","kouzui":"○","gake":"○","takashio":"×","jishin":"○","tsunami":"×","kaji":"○","naisui":"○","kazan":"×"}}
,{"type":"Feature","geometry":{"type":"Point","coordinates":[139.648754,35.674544]},"properties":{"Name":"杉並和泉学園","Jusho":"東京都杉並区和泉2-17-21","kouzui":"×","gake":"×","takashio":"×","jishin":"○","tsunami":"×","kaji":"○","naisui":"×","kazan":"×"}}
,{"type":"Feature","geometry":{"type":"Point","coordinates":[139.64379446182,35.709617837759]},"properties":{"Name":"馬橋公園","Jusho":"東京都杉並区高円寺北4-35-5","kouzui":"×","gake":"×","takashio":"×","jishin":"○","tsunami":"×","kaji":"○","naisui":"×","kazan":"×"}}
,{"type":"Feature","geometry":{"type":"Point","coordinates":[139.62514211467,35.675352436037]},"properties":{"Name":"塚山公園","Jusho":"東京都杉並区下高井戸5-23-12","kouzui":"×","gake":"×","takashio":"×","jishin":"○","tsunami":"×","kaji":"○","naisui":"×","kazan":"×"}}
,{"type":"Feature","geometry":{"type":"Point","coordinates":[139.61899449162,35.698505903173]},"properties":{"Name":"荻窪地域区民センター","Jusho":"東京都杉並区荻窪2-34-20","kouzui":"○","gake":"○","takashio":"×","jishin":"○","tsunami":"×","kaji":"○","naisui":"○","kazan":"×"}}
,{"type":"Feature","geometry":{"type":"Point","coordinates":[139.59937159504,35.686631449452]},"properties":{"Name":"久我山会館","Jusho":"東京都杉並区久我山3-23-20","kouzui":"○","gake":"○","takashio":"×","jishin":"×","tsunami":"×","kaji":"×","naisui":"○","kazan":"×"}}
,{"type":"Feature","geometry":{"type":"Point","coordinates":[139.63712221433,35.671368159941]},"properties":{"Name":"下高井戸おおぞら公園","Jusho":"東京都杉並区下高井戸2-28-23","kouzui":"×","gake":"×","takashio":"×","jishin":"○","tsunami":"×","kaji":"○","naisui":"×","kazan":"×"}}
,{"type":"Feature","geometry":{"type":"Point","coordinates":[139.61663187238,35.683776797854]},"properties":{"Name":"高井戸地域区民センター","Jusho":"東京都杉並区高井戸東3-7-5","kouzui":"○","gake":"○","takashio":"×","jishin":"○","tsunami":"×","kaji":"○","naisui":"○","kazan":"×"}}
,{"type":"Feature","geometry":{"type":"Point","coordinates":[139.60217854901,35.71264346516]},"properties":{"Name":"西荻地域区民センター","Jusho":"東京都杉並区桃井4-3-2","kouzui":"○","gake":"○","takashio":"×","jishin":"○","tsunami":"×","kaji":"○","naisui":"○","kazan":"×"}}
,{"type":"Feature","geometry":{"type":"Point","coordinates":[139.641225,35.705338]},"properties":{"Name":"阿佐谷地域区民センター","Jusho":"東京都杉並区阿佐谷北1-1-1","kouzui":"○","gake":"○","takashio":"×","jishin":"○","tsunami":"×","kaji":"○","naisui":"○","kazan":"×"}}
,{"type":"Feature","geometry":{"type":"Point","coordinates":[139.659539,35.691606]},"properties":{"Name":"高円寺地域区民センター（和田区民集会所）","Jusho":"東京都杉並区和田1-41-10","kouzui":"○","gake":"○","takashio":"×","jishin":"○","tsunami":"×","kaji":"○","naisui":"○","kazan":"×"}}
,{"type":"Feature","geometry":{"type":"Point","coordinates":[139.64607255582,35.675601834097]},"properties":{"Name":"永福和泉地域区民センター","Jusho":"東京都杉並区和泉3-8-18","kouzui":"○","gake":"○","takashio":"×","jishin":"○","tsunami":"×","kaji":"○","naisui":"○","kazan":"×"}}
,{"type":"Feature","geometry":{"type":"Point","coordinates":[139.61650013799,35.72085425537]},"properties":{"Name":"井草地域区民センター","Jusho":"東京都杉並区下井草5-7-22","kouzui":"○","gake":"○","takashio":"×","jishin":"○","tsunami":"×","kaji":"○","naisui":"○","kazan":"×"}}
,{"type":"Feature","geometry":{"type":"Point","coordinates":[139.732940259289,35.7358928389286]},"properties":{"Name":"清和小学校","Jusho":"東京都豊島区巣鴨３-14-１","kouzui":"○","gake":"○","takashio":"×","jishin":"○","tsunami":"×","kaji":"×","naisui":"○","kazan":"×"}}
,{"type":"Feature","geometry":{"type":"Point","coordinates":[139.72598511859,35.7384943065396]},"properties":{"Name":"西巣鴨小学校","Jusho":"東京都豊島区西巣鴨１-27-１","kouzui":"○","gake":"○","takashio":"×","jishin":"○","tsunami":"×","kaji":"×","naisui":"○","kazan":"×"}}
,{"type":"Feature","geometry":{"type":"Point","coordinates":[139.733371769114,35.7411464524503]},"properties":{"Name":"朝日小学校","Jusho":"東京都豊島区巣鴨５-33-１","kouzui":"○","gake":"○","takashio":"×","jishin":"○","tsunami":"×","kaji":"×","naisui":"○","kazan":"×"}}
,{"type":"Feature","geometry":{"type":"Point","coordinates":[139.729477897504,35.7415370452459]},"properties":{"Name":"巣鴨北中学校","Jusho":"東京都豊島区西巣鴨３-17-１","kouzui":"○","gake":"○","takashio":"×","jishin":"○","tsunami":"×","kaji":"×","naisui":"○","kazan":"×"}}
,{"type":"Feature","geometry":{"type":"Point","coordinates":[139.722033274768,35.7349976860914]},"properties":{"Name":"豊成小学校","Jusho":"東京都豊島区上池袋１-18-24","kouzui":"○","gake":"○","takashio":"×","jishin":"○","tsunami":"×","kaji":"×","naisui":"○","kazan":"×"}}
,{"type":"Feature","geometry":{"type":"Point","coordinates":[139.723611638078,35.7289542040509]},"properties":{"Name":"朋有小学校","Jusho":"東京都豊島区東池袋４-40-１","kouzui":"○","gake":"○","takashio":"×","jishin":"○","tsunami":"×","kaji":"×","naisui":"○","kazan":"×"}}
,{"type":"Feature","geometry":{"type":"Point","coordinates":[139.704566807421,35.7356947654356]},"properties":{"Name":"みらい館大明","Jusho":"東京都豊島区池袋３-30-８","kouzui":"○","gake":"○","takashio":"×","jishin":"○","tsunami":"×","kaji":"×","naisui":"○","kazan":"×"}}
,{"type":"Feature","geometry":{"type":"Point","coordinates":[139.709265053499,35.7377523607823]},"properties":{"Name":"池袋小学校","Jusho":"東京都豊島区池袋４-23-８","kouzui":"○","gake":"○","takashio":"×","jishin":"○","tsunami":"×","kaji":"×","naisui":"○","kazan":"×"}}
,{"type":"Feature","geometry":{"type":"Point","coordinates":[139.700270849717,35.7279344778416]},"properties":{"Name":"西池袋中学校","Jusho":"東京都豊島区西池袋４-７-１","kouzui":"○","gake":"○","takashio":"×","jishin":"○","tsunami":"×","kaji":"×","naisui":"○","kazan":"×"}}
,{"type":"Feature","geometry":{"type":"Point","coordinates":[139.702805012468,35.7284820595885]},"properties":{"Name":"池袋第三小学校","Jusho":"東京都豊島区西池袋３-１４-３","kouzui":"○","gake":"○","takashio":"×","jishin":"○","tsunami":"×","kaji":"×","naisui":"○","kazan":"×"}}
,{"type":"Feature","geometry":{"type":"Point","coordinates":[139.714834203318,35.7243741278095]},"properties":{"Name":"南池袋小学校","Jusho":"東京都豊島区南池袋３-18-12","kouzui":"○","gake":"○","takashio":"×","jishin":"○","tsunami":"×","kaji":"×","naisui":"○","kazan":"×"}}
,{"type":"Feature","geometry":{"type":"Point","coordinates":[139.713845569977,35.7165106631227]},"properties":{"Name":"高南小学校","Jusho":"東京都豊島区高田２-12-７","kouzui":"○","gake":"×","takashio":"×","jishin":"○","tsunami":"×","kaji":"×","naisui":"○","kazan":"×"}}
,{"type":"Feature","geometry":{"type":"Point","coordinates":[139.709001519962,35.7208268047451]},"properties":{"Name":"目白小学校","Jusho":"東京都豊島区目白２-11-６","kouzui":"○","gake":"○","takashio":"×","jishin":"○","tsunami":"×","kaji":"×","naisui":"○","kazan":"×"}}
,{"type":"Feature","geometry":{"type":"Point","coordinates":[139.711573677515,35.7172164252169]},"properties":{"Name":"千登世橋中学校","Jusho":"東京都豊島区目白１-１-１","kouzui":"×","gake":"×","takashio":"×","jishin":"○","tsunami":"×","kaji":"×","naisui":"×","kazan":"×"}}
,{"type":"Feature","geometry":{"type":"Point","coordinates":[139.69020707376,35.7286665374714]},"properties":{"Name":"長崎小学校","Jusho":"東京都豊島区長崎２-６-３","kouzui":"○","gake":"○","takashio":"×","jishin":"○","tsunami":"×","kaji":"×","naisui":"○","kazan":"×"}}
,{"type":"Feature","geometry":{"type":"Point","coordinates":[139.693122952927,35.7247222468588]},"properties":{"Name":"富士見台小学校","Jusho":"東京都豊島区南長崎１-10-５","kouzui":"○","gake":"○","takashio":"×","jishin":"○","tsunami":"×","kaji":"×","naisui":"○","kazan":"×"}}
,{"type":"Feature","geometry":{"type":"Point","coordinates":[139.696884838253,35.7252863127352]},"properties":{"Name":"旧真和中学校","Jusho":"東京都豊島区目白５-24-12","kouzui":"○","gake":"○","takashio":"×","jishin":"○","tsunami":"×","kaji":"×","naisui":"○","kazan":"×"}}
,{"type":"Feature","geometry":{"type":"Point","coordinates":[139.685560188823,35.7267569079369]},"properties":{"Name":"椎名町小学校","Jusho":"東京都豊島区南長崎４-30-５","kouzui":"○","gake":"○","takashio":"×","jishin":"○","tsunami":"×","kaji":"×","naisui":"○","kazan":"×"}}
,{"type":"Feature","geometry":{"type":"Point","coordinates":[139.683852464941,35.7245084209613]},"properties":{"Name":"南長崎スポーツ公園","Jusho":"東京都豊島区南長崎４-13-５","kouzui":"○","gake":"○","takashio":"×","jishin":"○","tsunami":"×","kaji":"×","naisui":"○","kazan":"×"}}
,{"type":"Feature","geometry":{"type":"Point","coordinates":[139.687314989565,35.7350674081911]},"properties":{"Name":"千早小学校","Jusho":"東京都豊島区千早３-33-５","kouzui":"○","gake":"○","takashio":"×","jishin":"○","tsunami":"×","kaji":"×","naisui":"○","kazan":"×"}}
,{"type":"Feature","geometry":{"type":"Point","coordinates":[139.680406089564,35.7360772330737]},"properties":{"Name":"さくら小学校","Jusho":"東京都豊島区長崎６-16-１","kouzui":"○","gake":"○","takashio":"×","jishin":"○","tsunami":"×","kaji":"×","naisui":"○","kazan":"×"}}
,{"type":"Feature","geometry":{"type":"Point","coordinates":[139.684179650816,35.7359699421442]},"properties":{"Name":"明豊中学校","Jusho":"東京都豊島区長崎５-31-29","kouzui":"○","gake":"○","takashio":"×","jishin":"○","tsunami":"×","kaji":"×","naisui":"○","kazan":"×"}}
,{"type":"Feature","geometry":{"type":"Point","coordinates":[139.689549138133,35.7399603103024]},"properties":{"Name":"豊島体育館","Jusho":"東京都豊島区要町３-47-８","kouzui":"○","gake":"○","takashio":"×","jishin":"○","tsunami":"×","kaji":"×","naisui":"○","kazan":"×"}}
,{"type":"Feature","geometry":{"type":"Point","coordinates":[139.691004659452,35.7358011194859]},"properties":{"Name":"西部区民事務所","Jusho":"東京都豊島区千早２-39-16","kouzui":"○","gake":"○","takashio":"×","jishin":"○","tsunami":"×","kaji":"×","naisui":"○","kazan":"×"}}
,{"type":"Feature","geometry":{"type":"Point","coordinates":[139.6935718442,35.7340842597505]},"properties":{"Name":"要小学校","Jusho":"東京都豊島区要町２-３-20","kouzui":"○","gake":"○","takashio":"×","jishin":"○","tsunami":"×","kaji":"×","naisui":"○","kazan":"×"}}
,{"type":"Feature","geometry":{"type":"Point","coordinates":[139.697170790873,35.7395695556943]},"properties":{"Name":"高松小学校","Jusho":"東京都豊島区高松２-57-22","kouzui":"○","gake":"○","takashio":"×","jishin":"○","tsunami":"×","kaji":"×","naisui":"○","kazan":"×"}}
,{"type":"Feature","geometry":{"type":"Point","coordinates":[139.700261530604,35.7360465886746]},"properties":{"Name":"千川中学校","Jusho":"東京都豊島区高松１-９-21","kouzui":"○","gake":"○","takashio":"×","jishin":"○","tsunami":"×","kaji":"×","naisui":"○","kazan":"×"}}
,{"type":"Feature","geometry":{"type":"Point","coordinates":[139.738244033846,35.736466499864]},"properties":{"Name":"仰高小学校","Jusho":"東京都豊島区駒込５-１-19","kouzui":"○","gake":"○","takashio":"×","jishin":"○","tsunami":"×","kaji":"×","naisui":"○","kazan":"×"}}
,{"type":"Feature","geometry":{"type":"Point","coordinates":[139.742937899613,35.7383736877017]},"properties":{"Name":"駒込小学校","Jusho":"東京都豊島区駒込３-13-１","kouzui":"○","gake":"○","takashio":"×","jishin":"○","tsunami":"×","kaji":"×","naisui":"○","kazan":"×"}}
,{"type":"Feature","geometry":{"type":"Point","coordinates":[139.741891837165,35.7359308885642]},"properties":{"Name":"駒込中学校","Jusho":"東京都豊島区駒込４-５-１","kouzui":"○","gake":"○","takashio":"×","jishin":"○","tsunami":"×","kaji":"×","naisui":"○","kazan":"×"}}
,{"type":"Feature","geometry":{"type":"Point","coordinates":[139.714541046111,35.7443283273987]},"properties":{"Name":"旧文成小学校","Jusho":"東京都豊島区池袋本町4-36-1","kouzui":"○","gake":"○","takashio":"×","jishin":"○","tsunami":"×","kaji":"×","naisui":"○","kazan":"×"}}
,{"type":"Feature","geometry":{"type":"Point","coordinates":[139.714708574141,35.7406415293884]},"properties":{"Name":"池袋本町小学校 池袋中学校（連携校）","Jusho":"東京都豊島区池袋本町１-43-１","kouzui":"○","gake":"○","takashio":"×","jishin":"○","tsunami":"×","kaji":"×","naisui":"○","kazan":"×"}}
,{"type":"Feature","geometry":{"type":"Point","coordinates":[139.734802957542,35.7286309641225]},"properties":{"Name":"巣鴨小学校","Jusho":"東京都豊島区南大塚１-24-10","kouzui":"○","gake":"○","takashio":"×","jishin":"○","tsunami":"×","kaji":"×","naisui":"○","kazan":"×"}}
,{"type":"Feature","geometry":{"type":"Point","coordinates":[139.727545851762,35.7288491778063]},"properties":{"Name":"西巣鴨中学校","Jusho":"東京都豊島区南大塚３-18-１","kouzui":"○","gake":"○","takashio":"×","jishin":"○","tsunami":"×","kaji":"×","naisui":"○","kazan":"×"}}
,{"type":"Feature","geometry":{"type":"Point","coordinates":[139.791035,35.734917]},"properties":{"Name":"瑞光小学校 　洪水時は3階以上に避難 ・高潮時は3階以上に避難 ・内水氾濫時は2階以上に避難","Jusho":"東京都荒川区南千住1-51-1","kouzui":"○","gake":"×","takashio":"○","jishin":"×","tsunami":"×","kaji":"×","naisui":"○","kazan":"×"}}
,{"type":"Feature","geometry":{"type":"Point","coordinates":[139.794525,35.733556]},"properties":{"Name":"第二瑞光小学校 　洪水時は3階以上に避難 ・高潮時は3階以上に避難 ・内水氾濫時は2階以上に避難","Jusho":"東京都荒川区南千住5-8-1","kouzui":"○","gake":"×","takashio":"○","jishin":"×","tsunami":"×","kaji":"×","naisui":"○","kazan":"×"}}
,{"type":"Feature","geometry":{"type":"Point","coordinates":[139.7987,35.735615]},"properties":{"Name":"第三瑞光小学校 　洪水時は3階以上に避難 ・高潮時は3階以上に避難 ・内水氾濫時は2階以上に避難","Jusho":"東京都荒川区南千住7-9-1","kouzui":"○","gake":"×","takashio":"○","jishin":"×","tsunami":"×","kaji":"×","naisui":"○","kazan":"×"}}
,{"type":"Feature","geometry":{"type":"Point","coordinates":[139.807227,35.735143]},"properties":{"Name":"汐入小学校 　洪水時は3階以上に避難 ・高潮時は3階以上に避難 ・内水氾濫時は1階以上に避難","Jusho":"東京都荒川区南千住8-2-3","kouzui":"○","gake":"×","takashio":"○","jishin":"×","tsunami":"×","kaji":"×","naisui":"○","kazan":"×"}}
,{"type":"Feature","geometry":{"type":"Point","coordinates":[139.811625,35.73895]},"properties":{"Name":"汐入東小学校 　洪水時は3階以上に避難 ・高潮時は3階以上に避難 ・内水氾濫時は1階以上に避難","Jusho":"東京都荒川区南千住8-9-3","kouzui":"○","gake":"×","takashio":"○","jishin":"×","tsunami":"×","kaji":"×","naisui":"○","kazan":"×"}}
,{"type":"Feature","geometry":{"type":"Point","coordinates":[139.789219,35.733175]},"properties":{"Name":"第六瑞光小学校 　洪水時は3階以上に避難 ・高潮時は3階以上に避難 ・内水氾濫時は1階以上に避難","Jusho":"東京都荒川区南千住1-4-11","kouzui":"○","gake":"×","takashio":"○","jishin":"×","tsunami":"×","kaji":"×","naisui":"○","kazan":"×"}}
,{"type":"Feature","geometry":{"type":"Point","coordinates":[139.77731,35.736346]},"properties":{"Name":"峡田小学校 　洪水時は3階以上に避難 ・高潮時は3階以上に避難 ・内水氾濫時は1階以上に避難","Jusho":"東京都荒川区荒川3-77-1","kouzui":"○","gake":"×","takashio":"○","jishin":"×","tsunami":"×","kaji":"×","naisui":"○","kazan":"×"}}
,{"type":"Feature","geometry":{"type":"Point","coordinates":[139.782497,35.738546]},"properties":{"Name":"第二峡田小学校 　洪水時は3階以上に避難 ・高潮時は3階以上に避難 ・内水氾濫時は2階以上に避難","Jusho":"東京都荒川区荒川2-30-1","kouzui":"○","gake":"×","takashio":"○","jishin":"×","tsunami":"×","kaji":"×","naisui":"○","kazan":"×"}}
,{"type":"Feature","geometry":{"type":"Point","coordinates":[139.786082,35.73356]},"properties":{"Name":"第三峡田小学校 　洪水時は3階以上に避難 ・高潮時は3階以上に避難 ・内水氾濫時は2階以上に避難","Jusho":"東京都荒川区荒川1-43-1","kouzui":"○","gake":"×","takashio":"○","jishin":"×","tsunami":"×","kaji":"×","naisui":"○","kazan":"×"}}
,{"type":"Feature","geometry":{"type":"Point","coordinates":[139.780005,35.744951]},"properties":{"Name":"第四峡田小学校 　洪水時は3階以上に避難 ・高潮時は3階以上に避難 ・内水氾濫時は2階以上に避難","Jusho":"東京都荒川区町屋2-11-6","kouzui":"○","gake":"×","takashio":"○","jishin":"×","tsunami":"×","kaji":"×","naisui":"○","kazan":"×"}}
,{"type":"Feature","geometry":{"type":"Point","coordinates":[139.781599,35.748273]},"properties":{"Name":"第五峡田小学校 　洪水時は3階以上に避難 ・高潮時は3階以上に避難 ・内水氾濫時は2階以上に避難","Jusho":"東京都荒川区町屋3-17-24","kouzui":"○","gake":"×","takashio":"○","jishin":"×","tsunami":"×","kaji":"×","naisui":"○","kazan":"×"}}
,{"type":"Feature","geometry":{"type":"Point","coordinates":[139.787807,35.748338]},"properties":{"Name":"第七峡田小学校 　洪水時は3階以上に避難 ・高潮時は3階以上に避難 ・内水氾濫時は2階以上に避難","Jusho":"東京都荒川区町屋8-19-12","kouzui":"○","gake":"×","takashio":"○","jishin":"×","tsunami":"×","kaji":"×","naisui":"○","kazan":"×"}}
,{"type":"Feature","geometry":{"type":"Point","coordinates":[139.779499,35.742441]},"properties":{"Name":"第九峡田小学校 　洪水時は3階以上に避難 ・高潮時は3階以上に避難 ・内水氾濫時は2階以上に避難","Jusho":"東京都荒川区荒川6-8-1","kouzui":"○","gake":"×","takashio":"○","jishin":"×","tsunami":"×","kaji":"×","naisui":"○","kazan":"×"}}
,{"type":"Feature","geometry":{"type":"Point","coordinates":[139.768811,35.747275]},"properties":{"Name":"尾久小学校 　洪水時は3階以上に避難 ・高潮時は3階以上に避難 ・内水氾濫時は2階以上に避難","Jusho":"東京都荒川区東尾久5-6-7","kouzui":"○","gake":"×","takashio":"○","jishin":"×","tsunami":"×","kaji":"×","naisui":"○","kazan":"×"}}
,{"type":"Feature","geometry":{"type":"Point","coordinates":[139.758432,35.750244]},"properties":{"Name":"尾久西小学校 　洪水時は3階以上に避難 ・高潮時は3階以上に避難 ・内水氾濫時は2階以上に避難","Jusho":"東京都荒川区西尾久5-27-12","kouzui":"○","gake":"×","takashio":"○","jishin":"×","tsunami":"×","kaji":"×","naisui":"○","kazan":"×"}}
,{"type":"Feature","geometry":{"type":"Point","coordinates":[139.754180327853,35.7520906587388]},"properties":{"Name":"尾久第六小学校 　洪水時は3階以上に避難 ・高潮時は3階以上に避難 ・内水氾濫時は2階以上に避難","Jusho":"東京都荒川区西尾久8-26-9","kouzui":"○","gake":"×","takashio":"○","jishin":"×","tsunami":"×","kaji":"×","naisui":"○","kazan":"×"}}
,{"type":"Feature","geometry":{"type":"Point","coordinates":[139.769642,35.743209]},"properties":{"Name":"赤土小学校 　洪水時は3階以上に避難 ・高潮時は3階以上に避難 ・内水氾濫時は2階以上に避難","Jusho":"東京都荒川区東尾久2-43-9","kouzui":"○","gake":"×","takashio":"○","jishin":"×","tsunami":"×","kaji":"×","naisui":"○","kazan":"×"}}
,{"type":"Feature","geometry":{"type":"Point","coordinates":[139.77711,35.74902]},"properties":{"Name":"大門小学校 　洪水時は3階以上に避難 ・高潮時は3階以上に避難 ・内水氾濫時は2階以上に避難","Jusho":"東京都荒川区町屋4-27-8","kouzui":"○","gake":"×","takashio":"○","jishin":"×","tsunami":"×","kaji":"×","naisui":"○","kazan":"×"}}
,{"type":"Feature","geometry":{"type":"Point","coordinates":[139.764603,35.746006]},"properties":{"Name":"尾久宮前小学校 　洪水時は3階以上に避難 ・高潮時は3階以上に避難 ・内水氾濫時は1階以上に避難","Jusho":"東京都荒川区西尾久1-4-17","kouzui":"○","gake":"×","takashio":"○","jishin":"×","tsunami":"×","kaji":"×","naisui":"○","kazan":"×"}}
,{"type":"Feature","geometry":{"type":"Point","coordinates":[139.77824,35.728401]},"properties":{"Name":"第二日暮里小学校 　洪水時は3階以上に避難 ・高潮時は3階以上に避難 ・内水氾濫時は1階以上に避難","Jusho":"東京都荒川区東日暮里5-2-1","kouzui":"○","gake":"×","takashio":"○","jishin":"×","tsunami":"×","kaji":"×","naisui":"○","kazan":"×"}}
,{"type":"Feature","geometry":{"type":"Point","coordinates":[139.781392,35.728858]},"properties":{"Name":"第三日暮里小学校 　洪水時は3階以上に避難 ・高潮時は3階以上に避難 ・内水氾濫時は2階以上に避難","Jusho":"東京都荒川区東日暮里3-10-17","kouzui":"○","gake":"×","takashio":"○","jishin":"×","tsunami":"×","kaji":"×","naisui":"○","kazan":"×"}}
,{"type":"Feature","geometry":{"type":"Point","coordinates":[139.769690904004,35.7355755718368]},"properties":{"Name":"第六日暮里小学校 　洪水時は3階以上に避難 ・高潮時は3階以上に避難 ・内水氾濫時は1階以上に避難","Jusho":"東京都荒川区西日暮里6-35-16","kouzui":"○","gake":"×","takashio":"○","jishin":"×","tsunami":"×","kaji":"×","naisui":"○","kazan":"×"}}
,{"type":"Feature","geometry":{"type":"Point","coordinates":[139.772516,35.731341]},"properties":{"Name":"ひぐらし小学校 　洪水時は3階以上に避難 ・高潮時は3階以上に避難 ・内水氾濫時は2階以上に避難","Jusho":"東京都荒川区西日暮里2-32-5","kouzui":"○","gake":"×","takashio":"○","jishin":"×","tsunami":"×","kaji":"×","naisui":"○","kazan":"×"}}
,{"type":"Feature","geometry":{"type":"Point","coordinates":[139.787752,35.734498]},"properties":{"Name":"第一中学校 　洪水時は3階以上に避難 ・高潮時は3階以上に避難 ・内水氾濫時は2階以上に避難","Jusho":"東京都荒川区荒川1-30-1","kouzui":"○","gake":"×","takashio":"○","jishin":"×","tsunami":"×","kaji":"×","naisui":"○","kazan":"×"}}
,{"type":"Feature","geometry":{"type":"Point","coordinates":[139.811259,35.737841]},"properties":{"Name":"第三中学校 　洪水時は3階以上に避難 ・高潮時は3階以上に避難 ・内水氾濫時は1階以上に避難","Jusho":"東京都荒川区南千住8-10-1","kouzui":"○","gake":"×","takashio":"○","jishin":"×","tsunami":"×","kaji":"×","naisui":"○","kazan":"×"}}
,{"type":"Feature","geometry":{"type":"Point","coordinates":[139.77556,35.741247]},"properties":{"Name":"第四中学校 　洪水時は3階以上に避難 ・高潮時は3階以上に避難 ・内水氾濫時は2階以上に避難","Jusho":"東京都荒川区荒川6-57-1","kouzui":"○","gake":"×","takashio":"○","jishin":"×","tsunami":"×","kaji":"×","naisui":"○","kazan":"×"}}
,{"type":"Feature","geometry":{"type":"Point","coordinates":[139.787328,35.744473]},"properties":{"Name":"第五中学校 　洪水時は3階以上に避難 ・高潮時は3階以上に避難 ・内水氾濫時は2階以上に避難","Jusho":"東京都荒川区町屋1-37-16","kouzui":"○","gake":"×","takashio":"○","jishin":"×","tsunami":"×","kaji":"×","naisui":"○","kazan":"×"}}
,{"type":"Feature","geometry":{"type":"Point","coordinates":[139.758105,35.746484]},"properties":{"Name":"第七中学校 　洪水時は3階以上に避難 ・高潮時は3階以上に避難 ・内水氾濫時は1階以上に避難","Jusho":"東京都荒川区西尾久4-30-28","kouzui":"○","gake":"×","takashio":"○","jishin":"×","tsunami":"×","kaji":"×","naisui":"○","kazan":"×"}}
,{"type":"Feature","geometry":{"type":"Point","coordinates":[139.772874,35.743212]},"properties":{"Name":"第九中学校 　洪水時は3階以上に避難 ・高潮時は3階以上に避難 ・内水氾濫時は2階以上に避難","Jusho":"東京都荒川区東尾久2-23-5","kouzui":"○","gake":"×","takashio":"○","jishin":"×","tsunami":"×","kaji":"×","naisui":"○","kazan":"×"}}
,{"type":"Feature","geometry":{"type":"Point","coordinates":[139.763883,35.753188]},"properties":{"Name":"尾久八幡中学校 　洪水時は3階以上に避難 ・高潮時は3階以上に避難 ・内水氾濫時は2階以上に避難","Jusho":"東京都荒川区西尾久3-13-1","kouzui":"○","gake":"×","takashio":"○","jishin":"×","tsunami":"×","kaji":"×","naisui":"○","kazan":"×"}}
,{"type":"Feature","geometry":{"type":"Point","coordinates":[139.799676,35.736128]},"properties":{"Name":"南千住第二中学校 　洪水時は3階以上に避難 ・高潮時は3階以上に避難 ・内水氾濫時は1階以上に避難","Jusho":"東京都荒川区南千住7-25-1","kouzui":"○","gake":"×","takashio":"○","jishin":"×","tsunami":"×","kaji":"×","naisui":"○","kazan":"×"}}
,{"type":"Feature","geometry":{"type":"Point","coordinates":[139.779438,35.751075]},"properties":{"Name":"原中学校 　洪水時は3階以上に避難 ・高潮時は3階以上に避難 ・内水氾濫時は2階以上に避難","Jusho":"東京都荒川区町屋5-12-6","kouzui":"○","gake":"×","takashio":"○","jishin":"×","tsunami":"×","kaji":"×","naisui":"○","kazan":"×"}}
,{"type":"Feature","geometry":{"type":"Point","coordinates":[139.77174,35.732574]},"properties":{"Name":"諏訪台中学校 　洪水時は3階以上に避難 ・高潮時は3階以上に避難 ・内水氾濫時は2階以上に避難","Jusho":"東京都荒川区西日暮里2-36-8","kouzui":"○","gake":"×","takashio":"○","jishin":"×","tsunami":"×","kaji":"×","naisui":"○","kazan":"×"}}
,{"type":"Feature","geometry":{"type":"Point","coordinates":[139.780123188249,35.7348606986698]},"properties":{"Name":"生涯学習・教育センター 　洪水時は3階以上に避難 ・高潮時は3階以上に避難 ・内水氾濫時は2階以上に避難","Jusho":"東京都荒川区荒川3-49-1","kouzui":"○","gake":"×","takashio":"○","jishin":"×","tsunami":"×","kaji":"×","naisui":"○","kazan":"×"}}
,{"type":"Feature","geometry":{"type":"Point","coordinates":[139.792264790851,35.7374244452601]},"properties":{"Name":"荒川工業高等学校 　洪水時は3階以上に避難 ・高潮時は3階以上に避難 ・内水氾濫時は1階以上に避難","Jusho":"東京都荒川区南千住6-42-1","kouzui":"○","gake":"×","takashio":"○","jishin":"×","tsunami":"×","kaji":"×","naisui":"○","kazan":"×"}}
,{"type":"Feature","geometry":{"type":"Point","coordinates":[139.777845,35.72612]},"properties":{"Name":"竹台高等学校 　洪水時は3階以上に避難 ・高潮時は3階以上に避難 ・内水氾濫時は1階以上に避難","Jusho":"東京都荒川区東日暮里5-14-1","kouzui":"○","gake":"×","takashio":"○","jishin":"×","tsunami":"×","kaji":"×","naisui":"○","kazan":"×"}}
,{"type":"Feature","geometry":{"type":"Point","coordinates":[139.768871,35.748244]},"properties":{"Name":"男女平等推進センター 　洪水時は3階以上に避難 ・高潮時は3階以上に避難 ・内水氾濫時は2階以上に避難","Jusho":"東京都荒川区東尾久5-9-3","kouzui":"○","gake":"×","takashio":"○","jishin":"×","tsunami":"×","kaji":"×","naisui":"○","kazan":"×"}}
,{"type":"Feature","geometry":{"type":"Point","coordinates":[139.767582,35.729621]},"properties":{"Name":"諏訪台ひろば館","Jusho":"東京都荒川区西日暮里3-3-12","kouzui":"○","gake":"○","takashio":"○","jishin":"×","tsunami":"×","kaji":"×","naisui":"○","kazan":"×"}}
,{"type":"Feature","geometry":{"type":"Point","coordinates":[139.783399,35.750406]},"properties":{"Name":"荒木田ふれあい館 　洪水時は3階以上に避難 ・高潮時は3階以上に避難 ・内水氾濫時は2階以上に避難","Jusho":"東京都荒川区町屋6-13-2","kouzui":"○","gake":"×","takashio":"○","jishin":"×","tsunami":"×","kaji":"×","naisui":"○","kazan":"×"}}
,{"type":"Feature","geometry":{"type":"Point","coordinates":[139.753454,35.751598]},"properties":{"Name":"西尾久ふれあい館 　洪水時は3階以上に避難 ・高潮時は3階以上に避難 ・内水氾濫時は2階以上に避難","Jusho":"東京都荒川区西尾久8-33-31","kouzui":"○","gake":"×","takashio":"○","jishin":"×","tsunami":"×","kaji":"×","naisui":"○","kazan":"×"}}
,{"type":"Feature","geometry":{"type":"Point","coordinates":[139.807037,35.734517]},"properties":{"Name":"汐入ふれあい館 　洪水時は3階以上に避難 ・高潮時は3階以上に避難 ・内水氾濫時は1階以上に避難","Jusho":"東京都荒川区南千住8-2-2","kouzui":"○","gake":"×","takashio":"○","jishin":"×","tsunami":"×","kaji":"×","naisui":"○","kazan":"×"}}
,{"type":"Feature","geometry":{"type":"Point","coordinates":[139.770781,35.736279]},"properties":{"Name":"西日暮里ふれあい館 　洪水時は3階以上に避難 ・高潮時は3階以上に避難 ・内水氾濫時は1階以上に避難","Jusho":"東京都荒川区西日暮里6-24-4","kouzui":"○","gake":"×","takashio":"○","jishin":"×","tsunami":"×","kaji":"×","naisui":"○","kazan":"×"}}
,{"type":"Feature","geometry":{"type":"Point","coordinates":[139.783956079551,35.7425071840642]},"properties":{"Name":"荒川山吹ふれあい館 　洪水時は3階以上に避難 ・高潮時は3階以上に避難 ・内水氾濫時は2階以上に避難","Jusho":"東京都荒川区荒川7-6-8","kouzui":"○","gake":"×","takashio":"○","jishin":"×","tsunami":"×","kaji":"×","naisui":"○","kazan":"×"}}
,{"type":"Feature","geometry":{"type":"Point","coordinates":[139.798309,35.733205]},"properties":{"Name":"南千住駅前ふれあい館 　洪水時は3階以上に避難 ・高潮時は3階以上に避難 ・内水氾濫時は2階以上に避難","Jusho":"東京都荒川区南千住7-1-1","kouzui":"○","gake":"×","takashio":"○","jishin":"×","tsunami":"×","kaji":"×","naisui":"○","kazan":"×"}}
,{"type":"Feature","geometry":{"type":"Point","coordinates":[139.784091,35.733795]},"properties":{"Name":"峡田ふれあい館 　洪水時は3階以上に避難 ・高潮時は3階以上に避難 ・内水氾濫時は2階以上に避難","Jusho":"東京都荒川区荒川3-3-10","kouzui":"○","gake":"×","takashio":"○","jishin":"×","tsunami":"×","kaji":"×","naisui":"○","kazan":"×"}}
,{"type":"Feature","geometry":{"type":"Point","coordinates":[139.79104,35.738172]},"properties":{"Name":"南千住ふれあい館 　洪水時は3階以上に避難 ・高潮時は3階以上に避難 ・内水氾濫時は2階以上に避難","Jusho":"東京都荒川区南千住6-36-13","kouzui":"○","gake":"×","takashio":"○","jishin":"×","tsunami":"×","kaji":"×","naisui":"○","kazan":"×"}}
,{"type":"Feature","geometry":{"type":"Point","coordinates":[139.785824,35.744088]},"properties":{"Name":"町屋ふれあい館 　洪水時は3階以上に避難 ・高潮時は3階以上に避難 ・内水氾濫時は2階以上に避難","Jusho":"東京都荒川区町屋1-35-8","kouzui":"○","gake":"×","takashio":"○","jishin":"×","tsunami":"×","kaji":"×","naisui":"○","kazan":"×"}}
,{"type":"Feature","geometry":{"type":"Point","coordinates":[139.7634,35.750208]},"properties":{"Name":"尾久ふれあい館 　洪水時は3階以上に避難 ・高潮時は3階以上に避難 ・内水氾濫時は2階以上に避難","Jusho":"東京都荒川区西尾久2-25-13","kouzui":"○","gake":"×","takashio":"○","jishin":"×","tsunami":"×","kaji":"×","naisui":"○","kazan":"×"}}
,{"type":"Feature","geometry":{"type":"Point","coordinates":[139.806454,35.731301]},"properties":{"Name":"石浜ふれあい館 　洪水時は3階以上に避難 ・高潮時は3階以上に避難 ・内水氾濫時は1階以上に避難","Jusho":"東京都荒川区南千住3-28-2","kouzui":"○","gake":"×","takashio":"○","jishin":"×","tsunami":"×","kaji":"×","naisui":"○","kazan":"×"}}
,{"type":"Feature","geometry":{"type":"Point","coordinates":[139.781378,35.729964]},"properties":{"Name":"夕やけこやけふれあい館 　洪水時は3階以上に避難 ・高潮時は3階以上に避難 ・内水氾濫時は2階以上に避難","Jusho":"東京都荒川区東日暮里3-11-19","kouzui":"○","gake":"×","takashio":"○","jishin":"×","tsunami":"×","kaji":"×","naisui":"○","kazan":"×"}}
,{"type":"Feature","geometry":{"type":"Point","coordinates":[139.784164,35.739521]},"properties":{"Name":"ゆいの森あらかわ 　洪水時は3階以上に避難 ・高潮時は3階以上に避難 ・内水氾濫時は2階以上に避難","Jusho":"東京都荒川区荒川2-50-1","kouzui":"○","gake":"×","takashio":"○","jishin":"×","tsunami":"×","kaji":"×","naisui":"○","kazan":"×"}}
,{"type":"Feature","geometry":{"type":"Point","coordinates":[139.789947923955,35.7297897213432]},"properties":{"Name":"東日暮里ふれあい館 　洪水時は2階に避難 ・高潮時は2階に避難 ・内水氾濫時は2階に避難","Jusho":"東京都荒川区東日暮里1-17-13","kouzui":"○","gake":"×","takashio":"○","jishin":"×","tsunami":"×","kaji":"×","naisui":"○","kazan":"×"}}
,{"type":"Feature","geometry":{"type":"Point","coordinates":[139.771409558784,35.7447026193951]},"properties":{"Name":"東尾久本町通りふれあい館 　洪水時は3階以上に避難 ・高潮時は3階以上に避難 ・内水氾濫時は2階以上に避難","Jusho":"東京都荒川区東尾久2-37-14","kouzui":"○","gake":"×","takashio":"○","jishin":"×","tsunami":"×","kaji":"×","naisui":"○","kazan":"×"}}
,{"type":"Feature","geometry":{"type":"Point","coordinates":[139.776007641765,35.7330316246348]},"properties":{"Name":"ひぐらしふれあい館 　洪水時は3階以上に避難 ・高潮時は3階以上に避難 ・内水氾濫時は2階以上に避難","Jusho":"東京都荒川区東日暮里6-28-15","kouzui":"○","gake":"×","takashio":"○","jishin":"×","tsunami":"×","kaji":"×","naisui":"○","kazan":"×"}}
,{"type":"Feature","geometry":{"type":"Point","coordinates":[139.77295482321,35.7278863545699]},"properties":{"Name":"日暮里サニーホール","Jusho":"東京都荒川区東日暮里5-50-5","kouzui":"○","gake":"○","takashio":"○","jishin":"×","tsunami":"×","kaji":"×","naisui":"○","kazan":"×"}}
,{"type":"Feature","geometry":{"type":"Point","coordinates":[139.764946987775,35.7324009619097]},"properties":{"Name":"学校法人開成学園","Jusho":"東京都荒川区西日暮里4-2-4","kouzui":"×","gake":"○","takashio":"×","jishin":"×","tsunami":"×","kaji":"×","naisui":"×","kazan":"×"}}
,{"type":"Feature","geometry":{"type":"Point","coordinates":[139.686678,35.775317]},"properties":{"Name":"志村小学校","Jusho":"東京都板橋区志村2-16-3 ","kouzui":"○","gake":"×","takashio":"×","jishin":"○","tsunami":"×","kaji":"×","naisui":"×","kazan":"×"}}
,{"type":"Feature","geometry":{"type":"Point","coordinates":[139.701485,35.766389]},"properties":{"Name":"志村第一小学校","Jusho":"東京都板橋区泉町17-1","kouzui":"○","gake":"×","takashio":"×","jishin":"○","tsunami":"×","kaji":"×","naisui":"×","kazan":"×"}}
,{"type":"Feature","geometry":{"type":"Point","coordinates":[139.697821,35.772598]},"properties":{"Name":"志村第二小学校","Jusho":"東京都板橋区志村1-7-1","kouzui":"○","gake":"○","takashio":"×","jishin":"○","tsunami":"×","kaji":"×","naisui":"○","kazan":"×"}}
,{"type":"Feature","geometry":{"type":"Point","coordinates":[139.705108,35.766907]},"properties":{"Name":"志村第三小学校","Jusho":"東京都板橋区清水町83-1","kouzui":"○","gake":"×","takashio":"×","jishin":"○","tsunami":"×","kaji":"×","naisui":"×","kazan":"×"}}
,{"type":"Feature","geometry":{"type":"Point","coordinates":[139.701101,35.780084]},"properties":{"Name":"志村第四小学校","Jusho":"東京都板橋区小豆沢4-13-1","kouzui":"○","gake":"○","takashio":"×","jishin":"○","tsunami":"×","kaji":"×","naisui":"○","kazan":"×"}}
,{"type":"Feature","geometry":{"type":"Point","coordinates":[139.668473,35.776933]},"properties":{"Name":"志村第五小学校","Jusho":"東京都板橋区西台3-38-23","kouzui":"○","gake":"○","takashio":"×","jishin":"○","tsunami":"×","kaji":"×","naisui":"○","kazan":"×"}}
,{"type":"Feature","geometry":{"type":"Point","coordinates":[139.680686,35.783777]},"properties":{"Name":"志村第六小学校","Jusho":"東京都板橋区坂下2-18-1","kouzui":"×","gake":"×","takashio":"×","jishin":"○","tsunami":"×","kaji":"×","naisui":"×","kazan":"×"}}
,{"type":"Feature","geometry":{"type":"Point","coordinates":[139.687633,35.768392]},"properties":{"Name":"前野小学校","Jusho":"東京都板橋区前野町6-40-1","kouzui":"○","gake":"○","takashio":"×","jishin":"○","tsunami":"×","kaji":"×","naisui":"○","kazan":"×"}}
,{"type":"Feature","geometry":{"type":"Point","coordinates":[139.681188,35.766482]},"properties":{"Name":"中台小学校","Jusho":"東京都板橋区中台1-9-7","kouzui":"○","gake":"×","takashio":"×","jishin":"○","tsunami":"×","kaji":"×","naisui":"×","kazan":"×"}}
,{"type":"Feature","geometry":{"type":"Point","coordinates":[139.681513,35.793629]},"properties":{"Name":"舟渡小学校","Jusho":"東京都板橋区舟渡3-6-15","kouzui":"×","gake":"×","takashio":"×","jishin":"○","tsunami":"×","kaji":"×","naisui":"×","kazan":"×"}}
,{"type":"Feature","geometry":{"type":"Point","coordinates":[139.665177,35.793751]},"properties":{"Name":"新河岸小学校","Jusho":"東京都板橋区新河岸1-3-1","kouzui":"×","gake":"×","takashio":"×","jishin":"○","tsunami":"×","kaji":"×","naisui":"×","kazan":"×"}}
,{"type":"Feature","geometry":{"type":"Point","coordinates":[139.695334,35.763895]},"properties":{"Name":"富士見台小学校","Jusho":"東京都板橋区前野町1-10-1","kouzui":"○","gake":"×","takashio":"×","jishin":"○","tsunami":"×","kaji":"×","naisui":"×","kazan":"×"}}
,{"type":"Feature","geometry":{"type":"Point","coordinates":[139.676448,35.787757]},"properties":{"Name":"蓮根小学校","Jusho":"東京都板橋区蓮根3-10-1","kouzui":"×","gake":"×","takashio":"×","jishin":"○","tsunami":"×","kaji":"×","naisui":"×","kazan":"×"}}
,{"type":"Feature","geometry":{"type":"Point","coordinates":[139.677801,35.788232]},"properties":{"Name":"蓮根第二小学校","Jusho":"東京都板橋区蓮根3-15-5","kouzui":"×","gake":"×","takashio":"×","jishin":"○","tsunami":"×","kaji":"×","naisui":"×","kazan":"×"}}
,{"type":"Feature","geometry":{"type":"Point","coordinates":[139.68021,35.77897]},"properties":{"Name":"志村坂下小学校","Jusho":"東京都板橋区相生町26-14","kouzui":"○","gake":"×","takashio":"×","jishin":"○","tsunami":"×","kaji":"×","naisui":"×","kazan":"×"}}
,{"type":"Feature","geometry":{"type":"Point","coordinates":[139.68505,35.773031]},"properties":{"Name":"北前野小学校","Jusho":"東京都板橋区前野町5-44-3","kouzui":"○","gake":"×","takashio":"×","jishin":"○","tsunami":"×","kaji":"×","naisui":"×","kazan":"×"}}
,{"type":"Feature","geometry":{"type":"Point","coordinates":[139.679513,35.772598]},"properties":{"Name":"緑小学校","Jusho":"東京都板橋区中台3-27-1","kouzui":"○","gake":"×","takashio":"×","jishin":"○","tsunami":"×","kaji":"×","naisui":"×","kazan":"×"}}
,{"type":"Feature","geometry":{"type":"Point","coordinates":[139.67538,35.769345]},"properties":{"Name":"若木小学校","Jusho":"東京都板橋区若木1-14-1","kouzui":"○","gake":"○","takashio":"×","jishin":"○","tsunami":"×","kaji":"×","naisui":"○","kazan":"×"}}
,{"type":"Feature","geometry":{"type":"Point","coordinates":[139.70764,35.753778]},"properties":{"Name":"板橋第一小学校","Jusho":"東京都板橋区氷川町13-1","kouzui":"○","gake":"×","takashio":"×","jishin":"○","tsunami":"×","kaji":"×","naisui":"×","kazan":"×"}}
,{"type":"Feature","geometry":{"type":"Point","coordinates":[139.707683,35.753791]},"properties":{"Name":"板橋第二小学校","Jusho":"東京都板橋区板橋2-52-1","kouzui":"○","gake":"×","takashio":"×","jishin":"○","tsunami":"×","kaji":"×","naisui":"×","kazan":"×"}}
,{"type":"Feature","geometry":{"type":"Point","coordinates":[139.716439,35.74992]},"properties":{"Name":"板橋第四小学校","Jusho":"東京都板橋区板橋4-9-13","kouzui":"○","gake":"×","takashio":"×","jishin":"○","tsunami":"×","kaji":"×","naisui":"○","kazan":"×"}}
,{"type":"Feature","geometry":{"type":"Point","coordinates":[139.70482,35.741643]},"properties":{"Name":"板橋第五小学校","Jusho":"東京都板橋区中丸町19-1","kouzui":"○","gake":"×","takashio":"×","jishin":"○","tsunami":"×","kaji":"×","naisui":"×","kazan":"×"}}
,{"type":"Feature","geometry":{"type":"Point","coordinates":[139.700276,35.747209]},"properties":{"Name":"板橋第六小学校","Jusho":"東京都板橋区大山町13-1","kouzui":"○","gake":"×","takashio":"×","jishin":"○","tsunami":"×","kaji":"×","naisui":"×","kazan":"×"}}
,{"type":"Feature","geometry":{"type":"Point","coordinates":[139.704657,35.745568]},"properties":{"Name":"板橋第七小学校","Jusho":"東京都板橋区大山金井町31-1","kouzui":"○","gake":"×","takashio":"×","jishin":"○","tsunami":"×","kaji":"×","naisui":"×","kazan":"×"}}
,{"type":"Feature","geometry":{"type":"Point","coordinates":[139.700034,35.759627]},