var wakayama={"type":"FeatureCollection","name":"wakayama","features":[
{"type":"Feature","geometry":{"type":"Point","coordinates":[135.1763991,34.2365759]},"properties":{"Name":"和歌山信愛大学（屋内運動場・グラウンド）","Jusho":"和歌山県和歌山市住吉町1","kouzui":"○","gake":"○","takashio":"×","jishin":"○","tsunami":"○","kaji":"○","naisui":"○","kazan":"×"}}
,{"type":"Feature","geometry":{"type":"Point","coordinates":[135.1710126,34.23488756]},"properties":{"Name":"伏虎義務教育学校","Jusho":"和歌山県和歌山市鷺ノ森南ノ丁１","kouzui":"○","gake":"○","takashio":"×","jishin":"○","tsunami":"○","kaji":"○","naisui":"○","kazan":"×"}}
,{"type":"Feature","geometry":{"type":"Point","coordinates":[135.171189,34.226376]},"properties":{"Name":"和歌山城公園","Jusho":"和歌山県和歌山市一番丁３","kouzui":"×","gake":"×","takashio":"×","jishin":"○","tsunami":"○","kaji":"○","naisui":"×","kazan":"×"}}
,{"type":"Feature","geometry":{"type":"Point","coordinates":[135.1682661,34.230141]},"properties":{"Name":"汀公園","Jusho":"和歌山県和歌山市西汀丁２７","kouzui":"×","gake":"×","takashio":"×","jishin":"○","tsunami":"○","kaji":"○","naisui":"×","kazan":"×"}}
,{"type":"Feature","geometry":{"type":"Point","coordinates":[135.172199409844,34.2301235204128]},"properties":{"Name":"和歌山城ホール","Jusho":"和歌山県和歌山市七番丁25番地の1","kouzui":"○","gake":"○","takashio":"×","jishin":"○","tsunami":"○","kaji":"○","naisui":"○","kazan":"×"}}
,{"type":"Feature","geometry":{"type":"Point","coordinates":[135.1673183,34.23666733]},"properties":{"Name":"和歌山市民図書館（屋上）","Jusho":"和歌山県和歌山市屏風丁１７番地","kouzui":"×","gake":"×","takashio":"×","jishin":"×","tsunami":"○","kaji":"×","naisui":"×","kazan":"×"}}
,{"type":"Feature","geometry":{"type":"Point","coordinates":[135.179358,34.2255825]},"properties":{"Name":"広瀬小学校","Jusho":"和歌山県和歌山市広瀬中ノ丁１-５","kouzui":"○","gake":"○","takashio":"×","jishin":"○","tsunami":"○","kaji":"○","naisui":"○","kazan":"×"}}
,{"type":"Feature","geometry":{"type":"Point","coordinates":[135.1800062,34.2252208]},"properties":{"Name":"岡東公園","Jusho":"和歌山県和歌山市広瀬中ノ丁１-１６","kouzui":"×","gake":"×","takashio":"×","jishin":"○","tsunami":"○","kaji":"○","naisui":"×","kazan":"×"}}
,{"type":"Feature","geometry":{"type":"Point","coordinates":[135.175006,34.2259416]},"properties":{"Name":"岡公園","Jusho":"和歌山県和歌山市岡山丁３","kouzui":"×","gake":"×","takashio":"×","jishin":"○","tsunami":"○","kaji":"○","naisui":"×","kazan":"×"}}
,{"type":"Feature","geometry":{"type":"Point","coordinates":[135.1808486,34.2229554]},"properties":{"Name":"南片原公園","Jusho":"和歌山県和歌山市雄松町１-１２","kouzui":"×","gake":"×","takashio":"×","jishin":"○","tsunami":"○","kaji":"○","naisui":"×","kazan":"×"}}
,{"type":"Feature","geometry":{"type":"Point","coordinates":[135.166118,34.2280649]},"properties":{"Name":"雄湊グラウンド","Jusho":"和歌山県和歌山市東坂ノ上丁３","kouzui":"×","gake":"×","takashio":"×","jishin":"○","tsunami":"○","kaji":"○","naisui":"×","kazan":"×"}}
,{"type":"Feature","geometry":{"type":"Point","coordinates":[135.1677526,34.23066507]},"properties":{"Name":"あいあいセンター","Jusho":"和歌山県和歌山市小人町２９","kouzui":"○","gake":"○","takashio":"×","jishin":"○","tsunami":"○","kaji":"○","naisui":"○","kazan":"×"}}
,{"type":"Feature","geometry":{"type":"Point","coordinates":[135.1662944,34.2271223]},"properties":{"Name":"雄湊公園","Jusho":"和歌山県和歌山市有田屋町５","kouzui":"×","gake":"×","takashio":"×","jishin":"○","tsunami":"○","kaji":"○","naisui":"×","kazan":"×"}}
,{"type":"Feature","geometry":{"type":"Point","coordinates":[135.1613268,34.2266182]},"properties":{"Name":"牛町公園","Jusho":"和歌山県和歌山市南牛町４８","kouzui":"×","gake":"×","takashio":"×","jishin":"○","tsunami":"×","kaji":"○","naisui":"×","kazan":"×"}}
,{"type":"Feature","geometry":{"type":"Point","coordinates":[135.1629055,34.2312057]},"properties":{"Name":"河岸公園","Jusho":"和歌山県和歌山市久保丁４丁目７０","kouzui":"×","gake":"×","takashio":"×","jishin":"○","tsunami":"○","kaji":"○","naisui":"×","kazan":"×"}}
,{"type":"Feature","geometry":{"type":"Point","coordinates":[135.1656994,34.2342337]},"properties":{"Name":"湊北公園","Jusho":"和歌山県和歌山市伝法橋南ノ丁１８","kouzui":"×","gake":"×","takashio":"×","jishin":"○","tsunami":"○","kaji":"○","naisui":"×","kazan":"×"}}
,{"type":"Feature","geometry":{"type":"Point","coordinates":[135.1608441,34.2237537]},"properties":{"Name":"土佐町公園","Jusho":"和歌山県和歌山市土佐町１-４３","kouzui":"×","gake":"×","takashio":"×","jishin":"○","tsunami":"×","kaji":"○","naisui":"×","kazan":"×"}}
,{"type":"Feature","geometry":{"type":"Point","coordinates":[135.164909,34.2293706]},"properties":{"Name":"県営住宅雄湊団地","Jusho":"和歌山県和歌山市男野芝丁３","kouzui":"○","gake":"×","takashio":"×","jishin":"×","tsunami":"○","kaji":"×","naisui":"×","kazan":"×"}}
,{"type":"Feature","geometry":{"type":"Point","coordinates":[135.167953,34.224804]},"properties":{"Name":"和歌山県民文化会館","Jusho":"和歌山県和歌山市小松原通１-１","kouzui":"×","gake":"×","takashio":"×","jishin":"×","tsunami":"○","kaji":"×","naisui":"×","kazan":"×"}}
,{"type":"Feature","geometry":{"type":"Point","coordinates":[135.1814638,34.233039]},"properties":{"Name":"大新小学校","Jusho":"和歌山県和歌山市新大工町２３","kouzui":"○","gake":"○","takashio":"×","jishin":"○","tsunami":"○","kaji":"○","naisui":"○","kazan":"×"}}
,{"type":"Feature","geometry":{"type":"Point","coordinates":[135.1821424,34.2324393]},"properties":{"Name":"大新公園","Jusho":"和歌山県和歌山市坊主丁１２","kouzui":"×","gake":"×","takashio":"×","jishin":"○","tsunami":"○","kaji":"○","naisui":"×","kazan":"×"}}
,{"type":"Feature","geometry":{"type":"Point","coordinates":[135.1890831,34.2269248]},"properties":{"Name":"新南小学校","Jusho":"和歌山県和歌山市木広町４-２３","kouzui":"○","gake":"○","takashio":"×","jishin":"○","tsunami":"○","kaji":"○","naisui":"○","kazan":"×"}}
,{"type":"Feature","geometry":{"type":"Point","coordinates":[135.1857455,34.2300877]},"properties":{"Name":"城東中学校","Jusho":"和歌山県和歌山市美園町２-６３","kouzui":"○","gake":"○","takashio":"×","jishin":"○","tsunami":"○","kaji":"○","naisui":"○","kazan":"×"}}
,{"type":"Feature","geometry":{"type":"Point","coordinates":[135.190289,34.2270017]},"properties":{"Name":"ふれ愛センター","Jusho":"和歌山県和歌山市木広町５-１-９","kouzui":"○","gake":"○","takashio":"×","jishin":"○","tsunami":"○","kaji":"○","naisui":"○","kazan":"×"}}
,{"type":"Feature","geometry":{"type":"Point","coordinates":[135.1880923,34.2268583]},"properties":{"Name":"新南公園","Jusho":"和歌山県和歌山市木広町３-１１","kouzui":"×","gake":"×","takashio":"×","jishin":"○","tsunami":"○","kaji":"○","naisui":"×","kazan":"×"}}
,{"type":"Feature","geometry":{"type":"Point","coordinates":[135.186656,34.2301798]},"properties":{"Name":"美園公園","Jusho":"和歌山県和歌山市美園町２-９５","kouzui":"×","gake":"×","takashio":"×","jishin":"○","tsunami":"○","kaji":"○","naisui":"×","kazan":"×"}}
,{"type":"Feature","geometry":{"type":"Point","coordinates":[135.1875539,34.22129088]},"properties":{"Name":"イズミヤ和歌山店（駐車場）","Jusho":"和歌山県和歌山市新生町７-２０","kouzui":"×","gake":"×","takashio":"×","jishin":"×","tsunami":"○","kaji":"×","naisui":"×","kazan":"×"}}
,{"type":"Feature","geometry":{"type":"Point","coordinates":[135.170337,34.216335]},"properties":{"Name":"吹上小学校","Jusho":"和歌山県和歌山市吹上４-１-１５","kouzui":"○","gake":"○","takashio":"×","jishin":"○","tsunami":"○","kaji":"○","naisui":"○","kazan":"×"}}
,{"type":"Feature","geometry":{"type":"Point","coordinates":[135.17426,34.2182455]},"properties":{"Name":"桐蔭中学校・高等学校","Jusho":"和歌山県和歌山市吹上５-６-１８","kouzui":"○","gake":"○","takashio":"×","jishin":"○","tsunami":"○","kaji":"○","naisui":"○","kazan":"×"}}
,{"type":"Feature","geometry":{"type":"Point","coordinates":[135.1751514,34.21761082]},"properties":{"Name":"きのくに青雲高等学校","Jusho":"和歌山県和歌山市吹上５丁目６-８","kouzui":"○","gake":"○","takashio":"×","jishin":"○","tsunami":"○","kaji":"○","naisui":"○","kazan":"×"}}
,{"type":"Feature","geometry":{"type":"Point","coordinates":[135.1755691,34.2165093]},"properties":{"Name":"吹上公園","Jusho":"和歌山県和歌山市堀止東２-１０","kouzui":"×","gake":"×","takashio":"×","jishin":"○","tsunami":"○","kaji":"○","naisui":"×","kazan":"×"}}
,{"type":"Feature","geometry":{"type":"Point","coordinates":[135.1732121,34.2149416]},"properties":{"Name":"堀止公園","Jusho":"和歌山県和歌山市堀止東１-４-２３","kouzui":"×","gake":"×","takashio":"×","jishin":"○","tsunami":"○","kaji":"○","naisui":"×","kazan":"×"}}
,{"type":"Feature","geometry":{"type":"Point","coordinates":[135.1730713,34.22370575]},"properties":{"Name":"和歌山大学附属小・中学校(体育館、グラウンド)","Jusho":"和歌山県和歌山市吹上１-４-１","kouzui":"×","gake":"×","takashio":"×","jishin":"×","tsunami":"○","kaji":"×","naisui":"×","kazan":"×"}}
,{"type":"Feature","geometry":{"type":"Point","coordinates":[135.1626731,34.2183027]},"properties":{"Name":"砂山小学校","Jusho":"和歌山県和歌山市砂山南２-１-５２","kouzui":"○","gake":"○","takashio":"×","jishin":"○","tsunami":"○","kaji":"○","naisui":"○","kazan":"×"}}
,{"type":"Feature","geometry":{"type":"Point","coordinates":[135.1640062,34.2151996]},"properties":{"Name":"西和中学校","Jusho":"和歌山県和歌山市砂山南３-３-９","kouzui":"○","gake":"○","takashio":"×","jishin":"○","tsunami":"○","kaji":"○","naisui":"○","kazan":"×"}}
,{"type":"Feature","geometry":{"type":"Point","coordinates":[135.161468,34.2157493]},"properties":{"Name":"県立和歌山商業高等学校","Jusho":"和歌山県和歌山市砂山南３-３-９４","kouzui":"○","gake":"○","takashio":"×","jishin":"○","tsunami":"○","kaji":"○","naisui":"○","kazan":"×"}}
,{"type":"Feature","geometry":{"type":"Point","coordinates":[135.1630611,34.2217803]},"properties":{"Name":"砂山公園","Jusho":"和歌山県和歌山市出口中ノ丁７","kouzui":"×","gake":"×","takashio":"×","jishin":"○","tsunami":"○","kaji":"○","naisui":"×","kazan":"×"}}
,{"type":"Feature","geometry":{"type":"Point","coordinates":[135.1670955,34.221142]},"properties":{"Name":"長町公園","Jusho":"和歌山県和歌山市東長町９-８","kouzui":"×","gake":"×","takashio":"×","jishin":"○","tsunami":"○","kaji":"○","naisui":"×","kazan":"×"}}
,{"type":"Feature","geometry":{"type":"Point","coordinates":[135.1535637,34.2206585]},"properties":{"Name":"港公園","Jusho":"和歌山県和歌山市築港４-１４","kouzui":"×","gake":"×","takashio":"×","jishin":"○","tsunami":"×","kaji":"○","naisui":"×","kazan":"×"}}
,{"type":"Feature","geometry":{"type":"Point","coordinates":[135.1585823,34.2174802]},"properties":{"Name":"湊御殿公園","Jusho":"和歌山県和歌山市湊御殿３-７","kouzui":"×","gake":"×","takashio":"×","jishin":"○","tsunami":"×","kaji":"○","naisui":"×","kazan":"×"}}
,{"type":"Feature","geometry":{"type":"Point","coordinates":[135.1615348,34.2204303]},"properties":{"Name":"端ノ丁公園","Jusho":"和歌山県和歌山市土佐町３-６","kouzui":"×","gake":"×","takashio":"×","jishin":"○","tsunami":"×","kaji":"○","naisui":"×","kazan":"×"}}
,{"type":"Feature","geometry":{"type":"Point","coordinates":[135.158509,34.212885]},"properties":{"Name":"オークワ大浦街道店（屋上駐車場）","Jusho":"和歌山県和歌山市湊西ノ坪４５-１","kouzui":"×","gake":"×","takashio":"×","jishin":"×","tsunami":"○","kaji":"×","naisui":"×","kazan":"×"}}
,{"type":"Feature","geometry":{"type":"Point","coordinates":[135.14916839895,34.218039437991]},"properties":{"Name":"市営薬種畑団地","Jusho":"和歌山県和歌山市湊１４１４-８","kouzui":"×","gake":"×","takashio":"×","jishin":"×","tsunami":"○","kaji":"×","naisui":"×","kazan":"×"}}
,{"type":"Feature","geometry":{"type":"Point","coordinates":[135.14341,34.222437]},"properties":{"Name":"青岸エネルギーセンター","Jusho":"和歌山県和歌山市湊１３４２-３","kouzui":"×","gake":"×","takashio":"×","jishin":"×","tsunami":"○","kaji":"×","naisui":"×","kazan":"×"}}
,{"type":"Feature","geometry":{"type":"Point","coordinates":[135.140907,34.221559]},"properties":{"Name":"青岸クリーンセンター","Jusho":"和歌山県和歌山市湊１３４２-３９","kouzui":"×","gake":"×","takashio":"×","jishin":"×","tsunami":"○","kaji":"×","naisui":"×","kazan":"×"}}
,{"type":"Feature","geometry":{"type":"Point","coordinates":[135.15774,34.21779]},"properties":{"Name":"市営湊御殿第2団地","Jusho":"和歌山県和歌山市湊御殿３-８-２","kouzui":"×","gake":"×","takashio":"×","jishin":"×","tsunami":"○","kaji":"×","naisui":"×","kazan":"×"}}
,{"type":"Feature","geometry":{"type":"Point","coordinates":[135.166961,34.222715]},"properties":{"Name":"市営東長町団地","Jusho":"和歌山県和歌山市東長町７-３５","kouzui":"×","gake":"×","takashio":"×","jishin":"×","tsunami":"○","kaji":"×","naisui":"×","kazan":"×"}}
,{"type":"Feature","geometry":{"type":"Point","coordinates":[135.15824,34.2121555]},"properties":{"Name":"湊パーソナルヴィラ","Jusho":"和歌山県和歌山市湊１８","kouzui":"×","gake":"×","takashio":"×","jishin":"×","tsunami":"○","kaji":"×","naisui":"×","kazan":"×"}}
,{"type":"Feature","geometry":{"type":"Point","coordinates":[135.1487023,34.22034486]},"properties":{"Name":"和歌山下津港湾事務所庁舎","Jusho":"和歌山県和歌山市築港６丁目２２","kouzui":"○","gake":"×","takashio":"○","jishin":"×","tsunami":"○","kaji":"×","naisui":"×","kazan":"×"}}
,{"type":"Feature","geometry":{"type":"Point","coordinates":[135.160756,34.21669]},"properties":{"Name":"近畿財務局和歌山合同宿舎(１～３号棟)","Jusho":"和歌山県和歌山市砂山南３-１-６５","kouzui":"×","gake":"×","takashio":"×","jishin":"×","tsunami":"○","kaji":"×","naisui":"×","kazan":"×"}}
,{"type":"Feature","geometry":{"type":"Point","coordinates":[135.1636348,34.2087299]},"properties":{"Name":"今福小学校","Jusho":"和歌山県和歌山市今福３-７-４６","kouzui":"○","gake":"○","takashio":"×","jishin":"○","tsunami":"○","kaji":"○","naisui":"○","kazan":"×"}}
,{"type":"Feature","geometry":{"type":"Point","coordinates":[135.1665029,34.2116615]},"properties":{"Name":"今福公園","Jusho":"和歌山県和歌山市今福２-２１１-３","kouzui":"×","gake":"×","takashio":"×","jishin":"○","tsunami":"○","kaji":"○","naisui":"×","kazan":"×"}}
,{"type":"Feature","geometry":{"type":"Point","coordinates":[135.165204,34.2110281]},"properties":{"Name":"県営住宅今福第一団地","Jusho":"和歌山県和歌山市今福２-３-４５","kouzui":"○","gake":"×","takashio":"×","jishin":"×","tsunami":"○","kaji":"×","naisui":"×","kazan":"×"}}
,{"type":"Feature","geometry":{"type":"Point","coordinates":[135.1638002,34.20936116]},"properties":{"Name":"県営住宅今福第二団地(１～5号棟)","Jusho":"和歌山県和歌山市今福３-６-２２","kouzui":"○","gake":"×","takashio":"×","jishin":"×","tsunami":"○","kaji":"×","naisui":"×","kazan":"×"}}
,{"type":"Feature","geometry":{"type":"Point","coordinates":[135.1732151,34.2083352]},"properties":{"Name":"高松小学校","Jusho":"和歌山県和歌山市東高松２-４-４５","kouzui":"○","gake":"○","takashio":"×","jishin":"○","tsunami":"○","kaji":"○","naisui":"○","kazan":"×"}}
,{"type":"Feature","geometry":{"type":"Point","coordinates":[135.168894,34.2074395]},"properties":{"Name":"きのくに志学館","Jusho":"和歌山県和歌山市西高松１-７-３８","kouzui":"○","gake":"○","takashio":"×","jishin":"○","tsunami":"○","kaji":"○","naisui":"○","kazan":"×"}}
,{"type":"Feature","geometry":{"type":"Point","coordinates":[135.176806,34.2098213]},"properties":{"Name":"宇須児童遊園","Jusho":"和歌山県和歌山市宇須３-１３６-１０","kouzui":"×","gake":"×","takashio":"×","jishin":"○","tsunami":"○","kaji":"○","naisui":"×","kazan":"×"}}
,{"type":"Feature","geometry":{"type":"Point","coordinates":[135.1767026,34.2145633]},"properties":{"Name":"新堀児童遊園","Jusho":"和歌山県和歌山市新堀東２-３１０-９６","kouzui":"×","gake":"×","takashio":"×","jishin":"○","tsunami":"○","kaji":"○","naisui":"×","kazan":"×"}}
,{"type":"Feature","geometry":{"type":"Point","coordinates":[135.171517,34.206414]},"properties":{"Name":"インペリアル高松","Jusho":"和歌山県和歌山市東高松３-１-２８","kouzui":"×","gake":"×","takashio":"×","jishin":"×","tsunami":"○","kaji":"×","naisui":"×","kazan":"×"}}
,{"type":"Feature","geometry":{"type":"Point","coordinates":[135.2061372,34.2252673]},"properties":{"Name":"宮小学校","Jusho":"和歌山県和歌山市秋月４７５","kouzui":"○","gake":"○","takashio":"×","jishin":"○","tsunami":"○","kaji":"○","naisui":"○","kazan":"×"}}
,{"type":"Feature","geometry":{"type":"Point","coordinates":[135.1988301,34.2341451]},"properties":{"Name":"太田小学校","Jusho":"和歌山県和歌山市太田６３６","kouzui":"○","gake":"○","takashio":"×","jishin":"○","tsunami":"○","kaji":"○","naisui":"○","kazan":"×"}}
,{"type":"Feature","geometry":{"type":"Point","coordinates":[135.2034652,34.2283011]},"properties":{"Name":"日進中学校","Jusho":"和歌山県和歌山市秋月３６５-３","kouzui":"○","gake":"○","takashio":"×","jishin":"○","tsunami":"○","kaji":"○","naisui":"○","kazan":"×"}}
,{"type":"Feature","geometry":{"type":"Point","coordinates":[135.1997047,34.2275597]},"properties":{"Name":"向陽中学校・高等学校","Jusho":"和歌山県和歌山市太田１２７","kouzui":"○","gake":"○","takashio":"×","jishin":"○","tsunami":"○","kaji":"○","naisui":"○","kazan":"×"}}
,{"type":"Feature","geometry":{"type":"Point","coordinates":[135.1978376,34.2194941]},"properties":{"Name":"和歌山東公園(体育館含む)","Jusho":"和歌山県和歌山市北出島１３３","kouzui":"○","gake":"○","takashio":"×","jishin":"○","tsunami":"○","kaji":"○","naisui":"○","kazan":"×"}}
,{"type":"Feature","geometry":{"type":"Point","coordinates":[135.198003,34.2305579]},"properties":{"Name":"太田第一公園","Jusho":"和歌山県和歌山市太田３-２","kouzui":"×","gake":"×","takashio":"×","jishin":"○","tsunami":"○","kaji":"○","naisui":"×","kazan":"×"}}
,{"type":"Feature","geometry":{"type":"Point","coordinates":[135.195046,34.2316681]},"properties":{"Name":"太田第二公園","Jusho":"和歌山県和歌山市太田２-１２","kouzui":"×","gake":"×","takashio":"×","jishin":"○","tsunami":"○","kaji":"○","naisui":"×","kazan":"×"}}
,{"type":"Feature","geometry":{"type":"Point","coordinates":[135.2090697,34.2327418]},"properties":{"Name":"鳴神公園","Jusho":"和歌山県和歌山市鳴神９５１","kouzui":"×","gake":"×","takashio":"×","jishin":"○","tsunami":"○","kaji":"○","naisui":"×","kazan":"×"}}
,{"type":"Feature","geometry":{"type":"Point","coordinates":[135.19261,34.2304105]},"properties":{"Name":"太田第四公園","Jusho":"和歌山県和歌山市太田１-８","kouzui":"×","gake":"×","takashio":"×","jishin":"○","tsunami":"○","kaji":"○","naisui":"×","kazan":"×"}}
,{"type":"Feature","geometry":{"type":"Point","coordinates":[135.2042259,34.2344245]},"properties":{"Name":"出水公園","Jusho":"和歌山県和歌山市秋月７５-１","kouzui":"×","gake":"×","takashio":"×","jishin":"○","tsunami":"○","kaji":"○","naisui":"×","kazan":"×"}}
,{"type":"Feature","geometry":{"type":"Point","coordinates":[135.1967124,34.2284924]},"properties":{"Name":"南太田公園","Jusho":"和歌山県和歌山市太田４-８","kouzui":"×","gake":"×","takashio":"×","jishin":"○","tsunami":"○","kaji":"○","naisui":"×","kazan":"×"}}
,{"type":"Feature","geometry":{"type":"Point","coordinates":[135.19203,34.2380539]},"properties":{"Name":"宮北小学校","Jusho":"和歌山県和歌山市納定２１","kouzui":"○","gake":"○","takashio":"×","jishin":"○","tsunami":"○","kaji":"○","naisui":"○","kazan":"×"}}
,{"type":"Feature","geometry":{"type":"Point","coordinates":[135.1863372,34.2329559]},"properties":{"Name":"城東公園","Jusho":"和歌山県和歌山市友田町３-２９-１","kouzui":"×","gake":"×","takashio":"×","jishin":"○","tsunami":"○","kaji":"○","naisui":"×","kazan":"×"}}
,{"type":"Feature","geometry":{"type":"Point","coordinates":[135.1963935,34.2337505]},"properties":{"Name":"黒田公園","Jusho":"和歌山県和歌山市黒田２-４","kouzui":"×","gake":"×","takashio":"×","jishin":"○","tsunami":"○","kaji":"○","naisui":"×","kazan":"×"}}
,{"type":"Feature","geometry":{"type":"Point","coordinates":[135.1949688,34.238798]},"properties":{"Name":"宮北公園","Jusho":"和歌山県和歌山市黒田３５９-１","kouzui":"×","gake":"×","takashio":"×","jishin":"○","tsunami":"○","kaji":"○","naisui":"×","kazan":"×"}}
,{"type":"Feature","geometry":{"type":"Point","coordinates":[135.2007109,34.2464501]},"properties":{"Name":"四箇郷小学校","Jusho":"和歌山県和歌山市有本１８３","kouzui":"○","gake":"○","takashio":"×","jishin":"○","tsunami":"○","kaji":"○","naisui":"○","kazan":"×"}}
,{"type":"Feature","geometry":{"type":"Point","coordinates":[135.2002508,34.2503419]},"properties":{"Name":"四箇郷北小学校","Jusho":"和歌山県和歌山市有本３２１","kouzui":"○","gake":"○","takashio":"×","jishin":"○","tsunami":"○","kaji":"○","naisui":"○","kazan":"×"}}
,{"type":"Feature","geometry":{"type":"Point","coordinates":[135.1899213,34.2462935]},"properties":{"Name":"紀之川中学校","Jusho":"和歌山県和歌山市有本６６８-１","kouzui":"○","gake":"○","takashio":"×","jishin":"○","tsunami":"○","kaji":"○","naisui":"○","kazan":"×"}}
,{"type":"Feature","geometry":{"type":"Point","coordinates":[135.2085871,34.2424438]},"properties":{"Name":"松島公園","Jusho":"和歌山県和歌山市松島２６２-３５","kouzui":"×","gake":"×","takashio":"×","jishin":"○","tsunami":"○","kaji":"○","naisui":"×","kazan":"×"}}
,{"type":"Feature","geometry":{"type":"Point","coordinates":[135.1857785,34.2396308]},"properties":{"Name":"中之島小学校","Jusho":"和歌山県和歌山市中之島１４９１","kouzui":"○","gake":"○","takashio":"×","jishin":"○","tsunami":"○","kaji":"○","naisui":"○","kazan":"×"}}
,{"type":"Feature","geometry":{"type":"Point","coordinates":[135.1868293,34.237371]},"properties":{"Name":"県立体育館(駐車場含む)","Jusho":"和歌山県和歌山市中之島２２３８","kouzui":"○","gake":"○","takashio":"×","jishin":"○","tsunami":"○","kaji":"○","naisui":"○","kazan":"×"}}
,{"type":"Feature","geometry":{"type":"Point","coordinates":[135.1870651,34.2395434]},"properties":{"Name":"中之島公園","Jusho":"和歌山県和歌山市中之島１４９５","kouzui":"×","gake":"×","takashio":"×","jishin":"○","tsunami":"○","kaji":"○","naisui":"×","kazan":"×"}}
,{"type":"Feature","geometry":{"type":"Point","coordinates":[135.1863213,34.2365681]},"properties":{"Name":"向之芝公園","Jusho":"和歌山県和歌山市中之島２２５１","kouzui":"×","gake":"×","takashio":"×","jishin":"○","tsunami":"○","kaji":"○","naisui":"×","kazan":"×"}}
,{"type":"Feature","geometry":{"type":"Point","coordinates":[135.181196,34.2420647]},"properties":{"Name":"紀和駅前公園","Jusho":"和歌山県和歌山市中之島８０３-２０","kouzui":"×","gake":"×","takashio":"×","jishin":"○","tsunami":"○","kaji":"○","naisui":"×","kazan":"×"}}
,{"type":"Feature","geometry":{"type":"Point","coordinates":[135.1821562,34.2196463]},"properties":{"Name":"芦原小学校","Jusho":"和歌山県和歌山市雄松町４-２５","kouzui":"○","gake":"○","takashio":"×","jishin":"○","tsunami":"○","kaji":"○","naisui":"○","kazan":"×"}}
,{"type":"Feature","geometry":{"type":"Point","coordinates":[135.1835823,34.2232994]},"properties":{"Name":"中央コミュニティセンター","Jusho":"和歌山県和歌山市三沢町１-２","kouzui":"○","gake":"○","takashio":"×","jishin":"○","tsunami":"○","kaji":"○","naisui":"○","kazan":"×"}}
,{"type":"Feature","geometry":{"type":"Point","coordinates":[135.1864091,34.2130033]},"properties":{"Name":"宮前小学校","Jusho":"和歌山県和歌山市北中島１-７-４","kouzui":"○","gake":"○","takashio":"×","jishin":"○","tsunami":"○","kaji":"○","naisui":"○","kazan":"×"}}
,{"type":"Feature","geometry":{"type":"Point","coordinates":[135.1908498,34.2123205]},"properties":{"Name":"東和中学校","Jusho":"和歌山県和歌山市杭ノ瀬１１６","kouzui":"○","gake":"○","takashio":"×","jishin":"○","tsunami":"○","kaji":"○","naisui":"○","kazan":"×"}}
,{"type":"Feature","geometry":{"type":"Point","coordinates":[135.1959635,34.2139233]},"properties":{"Name":"杭ノ瀬北公園","Jusho":"和歌山県和歌山市杭ノ瀬６２-１","kouzui":"×","gake":"×","takashio":"×","jishin":"○","tsunami":"○","kaji":"○","naisui":"×","kazan":"×"}}
,{"type":"Feature","geometry":{"type":"Point","coordinates":[135.1915678,34.2172253]},"properties":{"Name":"南出島公園","Jusho":"和歌山県和歌山市南出島２９-１６","kouzui":"×","gake":"×","takashio":"×","jishin":"○","tsunami":"○","kaji":"○","naisui":"×","kazan":"×"}}
,{"type":"Feature","geometry":{"type":"Point","coordinates":[135.189124,34.217756]},"properties":{"Name":"手平第二公園","Jusho":"和歌山県和歌山市手平２-２２３-１","kouzui":"×","gake":"×","takashio":"×","jishin":"○","tsunami":"○","kaji":"○","naisui":"×","kazan":"×"}}
,{"type":"Feature","geometry":{"type":"Point","coordinates":[135.199594,34.2135598]},"properties":{"Name":"杭ノ瀬公園","Jusho":"和歌山県和歌山市杭ノ瀬８-１","kouzui":"×","gake":"×","takashio":"×","jishin":"○","tsunami":"○","kaji":"○","naisui":"×","kazan":"×"}}
,{"type":"Feature","geometry":{"type":"Point","coordinates":[135.184894,34.210142]},"properties":{"Name":"Nビル　パレスNAKASHIMA","Jusho":"和歌山県和歌山市小雑賀３-６-９","kouzui":"×","gake":"×","takashio":"×","jishin":"×","tsunami":"○","kaji":"×","naisui":"×","kazan":"×"}}
,{"type":"Feature","geometry":{"type":"Point","coordinates":[135.184597,34.203184]},"properties":{"Name":"グリーンフル小雑賀","Jusho":"和歌山県和歌山市小雑賀５８３-１","kouzui":"×","gake":"×","takashio":"×","jishin":"×","tsunami":"○","kaji":"×","naisui":"×","kazan":"×"}}
,{"type":"Feature","geometry":{"type":"Point","coordinates":[135.186326,34.2085539]},"properties":{"Name":"オークワ教育研修センター","Jusho":"和歌山県和歌山市中島１８５-３","kouzui":"×","gake":"×","takashio":"×","jishin":"×","tsunami":"○","kaji":"×","naisui":"×","kazan":"×"}}
,{"type":"Feature","geometry":{"type":"Point","coordinates":[135.19026,34.21848]},"properties":{"Name":"和歌山ビッグ愛","Jusho":"和歌山県和歌山市手平２-１-２","kouzui":"×","gake":"×","takashio":"×","jishin":"×","tsunami":"○","kaji":"×","naisui":"×","kazan":"×"}}
,{"type":"Feature","geometry":{"type":"Point","coordinates":[135.19081255455,34.220039838162]},"properties":{"Name":"和歌山ビッグ愛（敷地部分）・和歌山ビッグホエール（駐車場含む）","Jusho":"和歌山県和歌山市手平2丁目1ー2 和歌山県和歌山市手平2丁目1-1","kouzui":"×","gake":"×","takashio":"×","jishin":"○","tsunami":"○","kaji":"○","naisui":"×","kazan":"×"}}
,{"type":"Feature","geometry":{"type":"Point","coordinates":[135.183318,34.195357]},"properties":{"Name":"オークワセントラルシティ和歌山店（屋上駐車場）","Jusho":"和歌山県和歌山市小雑賀８０５-１","kouzui":"×","gake":"×","takashio":"×","jishin":"×","tsunami":"○","kaji":"×","naisui":"×","kazan":"×"}}
,{"type":"Feature","geometry":{"type":"Point","coordinates":[135.185727,34.1963704]},"properties":{"Name":"１２３＋Ｎ和歌山本店（立体駐車場棟）","Jusho":"和歌山県和歌山市小雑賀７６２-１","kouzui":"×","gake":"×","takashio":"×","jishin":"×","tsunami":"○","kaji":"×","naisui":"×","kazan":"×"}}
,{"type":"Feature","geometry":{"type":"Point","coordinates":[135.1445482,34.2333278]},"properties":{"Name":"湊小学校","Jusho":"和歌山県和歌山市湊２丁目１７-４０","kouzui":"○","gake":"○","takashio":"×","jishin":"○","tsunami":"○","kaji":"○","naisui":"○","kazan":"×"}}
,{"type":"Feature","geometry":{"type":"Point","coordinates":[135.1472478,34.2332471]},"properties":{"Name":"湊公園","Jusho":"和歌山県和歌山市湊３-３０１","kouzui":"×","gake":"×","takashio":"×","jishin":"○","tsunami":"○","kaji":"○","naisui":"×","kazan":"×"}}
,{"type":"Feature","geometry":{"type":"Point","coordinates":[135.1588088,34.2437832]},"properties":{"Name":"野崎小学校","Jusho":"和歌山県和歌山市野崎１３０-１","kouzui":"○","gake":"○","takashio":"×","jishin":"○","tsunami":"○","kaji":"○","naisui":"○","kazan":"×"}}
,{"type":"Feature","geometry":{"type":"Point","coordinates":[135.1638648,34.2513568]},"properties":{"Name":"福島小学校","Jusho":"和歌山県和歌山市福島１３５-４","kouzui":"○","gake":"○","takashio":"×","jishin":"○","tsunami":"○","kaji":"○","naisui":"○","kazan":"×"}}
,{"type":"Feature","geometry":{"type":"Point","coordinates":[135.1516415,34.2511718]},"properties":{"Name":"野崎西小学校","Jusho":"和歌山県和歌山市梶取３０１-３","kouzui":"○","gake":"○","takashio":"×","jishin":"○","tsunami":"○","kaji":"○","naisui":"○","kazan":"×"}}
,{"type":"Feature","geometry":{"type":"Point","coordinates":[135.1527169,34.2410674]},"properties":{"Name":"河北中学校","Jusho":"和歌山県和歌山市北島３７０-１","kouzui":"○","gake":"○","takashio":"×","jishin":"○","tsunami":"○","kaji":"○","naisui":"○","kazan":"×"}}
,{"type":"Feature","geometry":{"type":"Point","coordinates":[135.1462355,34.2447818]},"properties":{"Name":"島橋公園","Jusho":"和歌山県和歌山市島橋西ノ丁1","kouzui":"×","gake":"×","takashio":"×","jishin":"○","tsunami":"×","kaji":"○","naisui":"×","kazan":"×"}}
,{"type":"Feature","geometry":{"type":"Point","coordinates":[135.1640947,34.2518604]},"properties":{"Name":"福島公園","Jusho":"和歌山県和歌山市福島１２０-１","kouzui":"×","gake":"×","takashio":"×","jishin":"○","tsunami":"○","kaji":"○","naisui":"×","kazan":"×"}}
,{"type":"Feature","geometry":{"type":"Point","coordinates":[135.1581486,34.2466715]},"properties":{"Name":"野崎公園","Jusho":"和歌山県和歌山市野崎１９１-１他","kouzui":"×","gake":"×","takashio":"×","jishin":"○","tsunami":"○","kaji":"○","naisui":"×","kazan":"×"}}
,{"type":"Feature","geometry":{"type":"Point","coordinates":[135.157845,34.238782]},"properties":{"Name":"市営北島団地","Jusho":"和歌山県和歌山市北島４３３-１","kouzui":"×","gake":"×","takashio":"×","jishin":"×","tsunami":"○","kaji":"×","naisui":"×","kazan":"×"}}
,{"type":"Feature","geometry":{"type":"Point","coordinates":[135.149429,34.249859]},"properties":{"Name":"クローバーメゾン狐島","Jusho":"和歌山県和歌山市狐島６２２-１","kouzui":"×","gake":"×","takashio":"×","jishin":"×","tsunami":"○","kaji":"×","naisui":"×","kazan":"×"}}
,{"type":"Feature","geometry":{"type":"Point","coordinates":[135.1653121,34.25104189]},"properties":{"Name":"アイビースクエア","Jusho":"和歌山県和歌山市福島２９３-１","kouzui":"○","gake":"×","takashio":"×","jishin":"×","tsunami":"○","kaji":"×","naisui":"×","kazan":"×"}}
,{"type":"Feature","geometry":{"type":"Point","coordinates":[135.162809,34.249245]},"properties":{"Name":"メゾンたんぽぽ","Jusho":"和歌山県和歌山市福島７２-１","kouzui":"○","gake":"×","takashio":"×","jishin":"×","tsunami":"○","kaji":"×","naisui":"×","kazan":"×"}}
,{"type":"Feature","geometry":{"type":"Point","coordinates":[135.1618459,34.24601226]},"properties":{"Name":"リベラルパレス福島","Jusho":"和歌山県和歌山市福島６７９-６","kouzui":"○","gake":"×","takashio":"×","jishin":"×","tsunami":"○","kaji":"×","naisui":"×","kazan":"×"}}
,{"type":"Feature","geometry":{"type":"Point","coordinates":[135.2049079,34.1989928]},"properties":{"Name":"三田小学校","Jusho":"和歌山県和歌山市和田４１９-１","kouzui":"○","gake":"○","takashio":"×","jishin":"○","tsunami":"○","kaji":"○","naisui":"○","kazan":"×"}}
,{"type":"Feature","geometry":{"type":"Point","coordinates":[135.198958,34.2104533]},"properties":{"Name":"あけぼの団地","Jusho":"和歌山県和歌山市田尻１７８-５","kouzui":"×","gake":"×","takashio":"×","jishin":"×","tsunami":"○","kaji":"×","naisui":"×","kazan":"×"}}
,{"type":"Feature","geometry":{"type":"Point","coordinates":[135.2034574,34.20275624]},"properties":{"Name":"三田山","Jusho":"和歌山県和歌山市坂田336番他","kouzui":"×","gake":"×","takashio":"×","jishin":"×","tsunami":"○","kaji":"×","naisui":"×","kazan":"×"}}
,{"type":"Feature","geometry":{"type":"Point","coordinates":[135.1348537,34.2520163]},"properties":{"Name":"松江小学校","Jusho":"和歌山県和歌山市松江北４-１-１","kouzui":"○","gake":"○","takashio":"×","jishin":"○","tsunami":"○","kaji":"○","naisui":"○","kazan":"×"}}
,{"type":"Feature","geometry":{"type":"Point","coordinates":[135.1310505,34.2510502]},"properties":{"Name":"河西中学校","Jusho":"和歌山県和歌山市松江北５-１９-１","kouzui":"○","gake":"○","takashio":"×","jishin":"○","tsunami":"○","kaji":"○","naisui":"○","kazan":"×"}}
,{"type":"Feature","geometry":{"type":"Point","coordinates":[135.134374,34.2493338]},"properties":{"Name":"河西コミュニティセンター","Jusho":"和歌山県和歌山市松江北２-２０-７","kouzui":"○","gake":"○","takashio":"×","jishin":"○","tsunami":"○","kaji":"○","naisui":"○","kazan":"×"}}
,{"type":"Feature","geometry":{"type":"Point","coordinates":[135.138336,34.248661]},"properties":{"Name":"市営ラブリー松江団地","Jusho":"和歌山県和歌山市松江北2丁目２-５","kouzui":"×","gake":"×","takashio":"×","jishin":"×","tsunami":"○","kaji":"×","naisui":"×","kazan":"×"}}
,{"type":"Feature","geometry":{"type":"Point","coordinates":[135.139328,34.247364]},"properties":{"Name":"県営住宅東松江団地","Jusho":"和歌山県和歌山市松江東4丁目６-２８","kouzui":"○","gake":"×","takashio":"×","jishin":"×","tsunami":"○","kaji":"×","naisui":"×","kazan":"×"}}
,{"type":"Feature","geometry":{"type":"Point","coordinates":[135.126802,34.2573866]},"properties":{"Name":"木本小学校","Jusho":"和歌山県和歌山市榎原２５５","kouzui":"○","gake":"○","takashio":"×","jishin":"○","tsunami":"○","kaji":"○","naisui":"○","kazan":"×"}}
,{"type":"Feature","geometry":{"type":"Point","coordinates":[135.1327066,34.26334]},"properties":{"Name":"木本公園","Jusho":"和歌山県和歌山市木ノ本７６１-２","kouzui":"×","gake":"×","takashio":"×","jishin":"○","tsunami":"○","kaji":"○","naisui":"×","kazan":"×"}}
,{"type":"Feature","geometry":{"type":"Point","coordinates":[135.133509,34.256883]},"properties":{"Name":"榎原公園","Jusho":"和歌山県和歌山市榎原２６-２","kouzui":"×","gake":"×","takashio":"×","jishin":"○","tsunami":"○","kaji":"○","naisui":"×","kazan":"×"}}
,{"type":"Feature","geometry":{"type":"Point","coordinates":[135.125812,34.2660269]},"properties":{"Name":"木本聖地霊園","Jusho":"和歌山県和歌山市木ノ本１５６０-１","kouzui":"×","gake":"×","takashio":"×","jishin":"×","tsunami":"○","kaji":"×","naisui":"×","kazan":"×"}}
,{"type":"Feature","geometry":{"type":"Point","coordinates":[135.1502235,34.2599671]},"properties":{"Name":"貴志小学校","Jusho":"和歌山県和歌山市栄谷８９５-２","kouzui":"○","gake":"○","takashio":"×","jishin":"○","tsunami":"○","kaji":"○","naisui":"○","kazan":"×"}}
,{"type":"Feature","geometry":{"type":"Point","coordinates":[135.1400455,34.2569583]},"properties":{"Name":"貴志南小学校","Jusho":"和歌山県和歌山市中野１１-１","kouzui":"○","gake":"○","takashio":"×","jishin":"○","tsunami":"○","kaji":"○","naisui":"○","kazan":"×"}}
,{"type":"Feature","geometry":{"type":"Point","coordinates":[135.155021,34.269665]},"properties":{"Name":"藤戸台小学校","Jusho":"和歌山県和歌山市栄谷９７４-２４５","kouzui":"○","gake":"○","takashio":"×","jishin":"○","tsunami":"○","kaji":"○","naisui":"○","kazan":"×"}}
,{"type":"Feature","geometry":{"type":"Point","coordinates":[135.1434851,34.2677535]},"properties":{"Name":"貴志中学校","Jusho":"和歌山県和歌山市梅原５７９-２","kouzui":"○","gake":"○","takashio":"×","jishin":"○","tsunami":"○","kaji":"○","naisui":"○","kazan":"×"}}
,{"type":"Feature","geometry":{"type":"Point","coordinates":[135.1393051,34.2530625]},"properties":{"Name":"市民体育館","Jusho":"和歌山県和歌山市土入３１８-１","kouzui":"○","gake":"○","takashio":"×","jishin":"○","tsunami":"○","kaji":"○","naisui":"○","kazan":"×"}}
,{"type":"Feature","geometry":{"type":"Point","coordinates":[135.153285,34.2674457]},"properties":{"Name":"和歌山大学(体育館)","Jusho":"和歌山県和歌山市栄谷９３０","kouzui":"○","gake":"○","takashio":"×","jishin":"○","tsunami":"○","kaji":"○","naisui":"○","kazan":"×"}}
,{"type":"Feature","geometry":{"type":"Point","coordinates":[135.1636319,34.2614944]},"properties":{"Name":"栄谷公園","Jusho":"和歌山県和歌山市栄谷４９６、４９７","kouzui":"×","gake":"×","takashio":"×","jishin":"○","tsunami":"○","kaji":"○","naisui":"×","kazan":"×"}}
,{"type":"Feature","geometry":{"type":"Point","coordinates":[135.154821,34.2558884]},"properties":{"Name":"栄谷団地公園","Jusho":"和歌山県和歌山市栄谷１５３-２","kouzui":"×","gake":"×","takashio":"×","jishin":"○","tsunami":"○","kaji":"○","naisui":"×","kazan":"×"}}
,{"type":"Feature","geometry":{"type":"Point","coordinates":[135.1582498,34.256117]},"properties":{"Name":"栄谷南公園","Jusho":"和歌山県和歌山市栄谷８３-１","kouzui":"×","gake":"×","takashio":"×","jishin":"○","tsunami":"○","kaji":"○","naisui":"×","kazan":"×"}}
,{"type":"Feature","geometry":{"type":"Point","coordinates":[135.1397226,34.2510949]},"properties":{"Name":"二葉団地児童遊園","Jusho":"和歌山県和歌山市土入２９１-８８","kouzui":"×","gake":"×","takashio":"×","jishin":"○","tsunami":"○","kaji":"○","naisui":"×","kazan":"×"}}
,{"type":"Feature","geometry":{"type":"Point","coordinates":[135.146798,34.250449]},"properties":{"Name":"マスターズエル延時","Jusho":"和歌山県和歌山市延時１４０-１","kouzui":"×","gake":"×","takashio":"×","jishin":"×","tsunami":"○","kaji":"×","naisui":"×","kazan":"×"}}
,{"type":"Feature","geometry":{"type":"Point","coordinates":[135.136398,34.27013]},"properties":{"Name":"和歌山カントリー倶楽部（駐車場・通路）","Jusho":"和歌山県和歌山市梅原５８５","kouzui":"×","gake":"×","takashio":"×","jishin":"×","tsunami":"○","kaji":"×","naisui":"×","kazan":"×"}}
,{"type":"Feature","geometry":{"type":"Point","coordinates":[135.1759572,34.259043]},"properties":{"Name":"楠見小学校","Jusho":"和歌山県和歌山市大谷３４９-２","kouzui":"○","gake":"○","takashio":"×","jishin":"○","tsunami":"○","kaji":"○","naisui":"○","kazan":"×"}}
,{"type":"Feature","geometry":{"type":"Point","coordinates":[135.1677049,34.2576402]},"properties":{"Name":"楠見西小学校","Jusho":"和歌山県和歌山市市小路３１","kouzui":"○","gake":"○","takashio":"×","jishin":"○","tsunami":"○","kaji":"○","naisui":"○","kazan":"×"}}
,{"type":"Feature","geometry":{"type":"Point","coordinates":[135.1814187,34.2572732]},"properties":{"Name":"楠見東小学校","Jusho":"和歌山県和歌山市善明寺１５０-１","kouzui":"○","gake":"○","takashio":"×","jishin":"○","tsunami":"○","kaji":"○","naisui":"○","kazan":"×"}}
,{"type":"Feature","geometry":{"type":"Point","coordinates":[135.1801613,34.2663996]},"properties":{"Name":"楠見中学校","Jusho":"和歌山県和歌山市善明寺７０６","kouzui":"○","gake":"○","takashio":"×","jishin":"○","tsunami":"○","kaji":"○","naisui":"○","kazan":"×"}}
,{"type":"Feature","geometry":{"type":"Point","coordinates":[135.1700077,34.2548965]},"properties":{"Name":"和歌山北高等学校","Jusho":"和歌山県和歌山市市小路３８８","kouzui":"○","gake":"○","takashio":"×","jishin":"○","tsunami":"○","kaji":"○","naisui":"○","kazan":"×"}}
,{"type":"Feature","geometry":{"type":"Point","coordinates":[135.1634717,34.254355]},"properties":{"Name":"河北コミュニティセンター","Jusho":"和歌山県和歌山市市小路１９２-３","kouzui":"○","gake":"○","takashio":"×","jishin":"○","tsunami":"○","kaji":"○","naisui":"○","kazan":"×"}}
,{"type":"Feature","geometry":{"type":"Point","coordinates":[135.1853234,34.2608872]},"properties":{"Name":"善明寺公園","Jusho":"和歌山県和歌山市善明寺３６３-２","kouzui":"×","gake":"×","takashio":"×","jishin":"○","tsunami":"○","kaji":"○","naisui":"×","kazan":"×"}}
,{"type":"Feature","geometry":{"type":"Point","coordinates":[135.162724,34.2584246]},"properties":{"Name":"平井公園","Jusho":"和歌山県和歌山市市小路２５３-１","kouzui":"×","gake":"×","takashio":"×","jishin":"○","tsunami":"○","kaji":"○","naisui":"×","kazan":"×"}}
,{"type":"Feature","geometry":{"type":"Point","coordinates":[135.1662476,34.2633961]},"properties":{"Name":"平井中央公園","Jusho":"和歌山県和歌山市平井４７０-１","kouzui":"×","gake":"×","takashio":"×","jishin":"○","tsunami":"○","kaji":"○","naisui":"×","kazan":"×"}}
,{"type":"Feature","geometry":{"type":"Point","coordinates":[135.1672688,34.257205]},"properties":{"Name":"市小路公園","Jusho":"和歌山県和歌山市市小路４４-１","kouzui":"×","gake":"×","takashio":"×","jishin":"○","tsunami":"○","kaji":"○","naisui":"×","kazan":"×"}}
,{"type":"Feature","geometry":{"type":"Point","coordinates":[135.1810104,34.2654075]},"properties":{"Name":"善明寺北公園","Jusho":"和歌山県和歌山市善明寺７０６-１２３","kouzui":"×","gake":"×","takashio":"×","jishin":"○","tsunami":"○","kaji":"○","naisui":"×","kazan":"×"}}
,{"type":"Feature","geometry":{"type":"Point","coordinates":[135.1838523,34.2587]},"properties":{"Name":"善明寺中央公園","Jusho":"和歌山県和歌山市善明寺１１３-４","kouzui":"×","gake":"×","takashio":"×","jishin":"○","tsunami":"○","kaji":"○","naisui":"×","kazan":"×"}}
,{"type":"Feature","geometry":{"type":"Point","coordinates":[135.2270591,34.2387666]},"properties":{"Name":"西和佐小学校","Jusho":"和歌山県和歌山市栗栖８４-１","kouzui":"○","gake":"○","takashio":"×","jishin":"○","tsunami":"○","kaji":"○","naisui":"○","kazan":"×"}}
,{"type":"Feature","geometry":{"type":"Point","coordinates":[135.2246182,34.2312945]},"properties":{"Name":"岩橋公園","Jusho":"和歌山県和歌山市岩橋１５６０-１","kouzui":"×","gake":"×","takashio":"×","jishin":"○","tsunami":"○","kaji":"○","naisui":"×","kazan":"×"}}
,{"type":"Feature","geometry":{"type":"Point","coordinates":[135.230344711517,34.2409683010538]},"properties":{"Name":"西和佐公園","Jusho":"和歌山県和歌山市岩橋714番1","kouzui":"×","gake":"×","takashio":"×","jishin":"○","tsunami":"○","kaji":"○","naisui":"×","kazan":"×"}}
,{"type":"Feature","geometry":{"type":"Point","coordinates":[135.2200774,34.2147905]},"properties":{"Name":"岡崎小学校","Jusho":"和歌山県和歌山市寺内４２６","kouzui":"○","gake":"○","takashio":"×","jishin":"○","tsunami":"○","kaji":"○","naisui":"○","kazan":"×"}}
,{"type":"Feature","geometry":{"type":"Point","coordinates":[135.2260147,34.2075754]},"properties":{"Name":"和歌山東高等学校","Jusho":"和歌山県和歌山市森小手穂１３６","kouzui":"○","gake":"○","takashio":"×","jishin":"○","tsunami":"○","kaji":"○","naisui":"○","kazan":"×"}}
,{"type":"Feature","geometry":{"type":"Point","coordinates":[135.2268305,34.2060435]},"properties":{"Name":"東部コミュニティセンター","Jusho":"和歌山県和歌山市寺内６６５","kouzui":"○","gake":"○","takashio":"×","jishin":"○","tsunami":"○","kaji":"○","naisui":"○","kazan":"×"}}
,{"type":"Feature","geometry":{"type":"Point","coordinates":[135.2110086,34.2170045]},"properties":{"Name":"岡崎中央児童遊園","Jusho":"和歌山県和歌山市井辺１４４-１０７","kouzui":"×","gake":"×","takashio":"×","jishin":"○","tsunami":"○","kaji":"○","naisui":"×","kazan":"×"}}
,{"type":"Feature","geometry":{"type":"Point","coordinates":[135.2029298,34.21554735]},"properties":{"Name":"セラヴィ神前","Jusho":"和歌山県和歌山市神前１８２-１","kouzui":"×","gake":"×","takashio":"×","jishin":"×","tsunami":"○","kaji":"×","naisui":"×","kazan":"×"}}
,{"type":"Feature","geometry":{"type":"Point","coordinates":[135.1042657,34.2582652]},"properties":{"Name":"西脇小学校","Jusho":"和歌山県和歌山市西庄１０１２","kouzui":"○","gake":"○","takashio":"×","jishin":"○","tsunami":"○","kaji":"○","naisui":"○","kazan":"×"}}
,{"type":"Feature","geometry":{"type":"Point","coordinates":[135.116519,34.2652086]},"properties":{"Name":"八幡台小学校","Jusho":"和歌山県和歌山市西庄１１１０","kouzui":"○","gake":"○","takashio":"×","jishin":"○","tsunami":"○","kaji":"○","naisui":"○","kazan":"×"}}
,{"type":"Feature","geometry":{"type":"Point","coordinates":[135.1163307,34.2645642]},"properties":{"Name":"西脇中学校","Jusho":"和歌山県和歌山市西庄１１１０-５","kouzui":"○","gake":"○","takashio":"×","jishin":"○","tsunami":"○","kaji":"○","naisui":"○","kazan":"×"}}
,{"type":"Feature","geometry":{"type":"Point","coordinates":[135.1097476,34.2658508]},"properties":{"Name":"和歌山北高等学校西校舎","Jusho":"和歌山県和歌山市西庄１１４８-１","kouzui":"○","gake":"○","takashio":"×","jishin":"○","tsunami":"○","kaji":"○","naisui":"○","kazan":"×"}}
,{"type":"Feature","geometry":{"type":"Point","coordinates":[135.102375,34.2689473]},"properties":{"Name":"つつじが丘テニスコート","Jusho":"和歌山県和歌山市つつじが丘４-４","kouzui":"○","gake":"○","takashio":"×","jishin":"○","tsunami":"○","kaji":"○","naisui":"○","kazan":"×"}}
,{"type":"Feature","geometry":{"type":"Point","coordinates":[135.1163881,34.2599469]},"properties":{"Name":"西庄公園","Jusho":"和歌山県和歌山市西庄２１５","kouzui":"×","gake":"×","takashio":"×","jishin":"○","tsunami":"○","kaji":"○","naisui":"×","kazan":"×"}}
,{"type":"Feature","geometry":{"type":"Point","coordinates":[135.110804,34.2535621]},"properties":{"Name":"元西脇中学校跡","Jusho":"和歌山県和歌山市西庄１０３７","kouzui":"×","gake":"×","takashio":"×","jishin":"○","tsunami":"○","kaji":"○","naisui":"×","kazan":"×"}}
,{"type":"Feature","geometry":{"type":"Point","coordinates":[135.094988,34.2614054]},"properties":{"Name":"磯の浦東部避難場所","Jusho":"和歌山県和歌山市磯の浦","kouzui":"×","gake":"×","takashio":"×","jishin":"×","tsunami":"○","kaji":"×","naisui":"×","kazan":"×"}}
,{"type":"Feature","geometry":{"type":"Point","coordinates":[135.2498714,34.2357527]},"properties":{"Name":"和佐小学校","Jusho":"和歌山県和歌山市禰宜９４９-２","kouzui":"○","gake":"○","takashio":"×","jishin":"○","tsunami":"○","kaji":"○","naisui":"○","kazan":"×"}}
,{"type":"Feature","geometry":{"type":"Point","coordinates":[135.262777,34.2408483]},"properties":{"Name":"高積中学校","Jusho":"和歌山県和歌山市布施屋１１２-２","kouzui":"○","gake":"○","takashio":"×","jishin":"○","tsunami":"○","kaji":"○","naisui":"○","kazan":"×"}}
,{"type":"Feature","geometry":{"type":"Point","coordinates":[135.2600812,34.2416109]},"properties":{"Name":"河南コミュニティセンター","Jusho":"和歌山県和歌山市布施屋４１","kouzui":"○","gake":"○","takashio":"×","jishin":"○","tsunami":"○","kaji":"○","naisui":"○","kazan":"×"}}
,{"type":"Feature","geometry":{"type":"Point","coordinates":[135.2386827,34.2362182]},"properties":{"Name":"河南総合体育館","Jusho":"和歌山県和歌山市和佐中１６５-１","kouzui":"○","gake":"○","takashio":"×","jishin":"○","tsunami":"○","kaji":"○","naisui":"○","kazan":"×"}}
,{"type":"Feature","geometry":{"type":"Point","coordinates":[135.2429655,34.2404187]},"properties":{"Name":"松下公園","Jusho":"和歌山県和歌山市祢宜１２６４","kouzui":"×","gake":"×","takashio":"×","jishin":"○","tsunami":"○","kaji":"○","naisui":"×","kazan":"×"}}
,{"type":"Feature","geometry":{"type":"Point","coordinates":[135.243485,34.2413926]},"properties":{"Name":"和佐児童遊園","Jusho":"和歌山県和歌山市祢宜１２２４-１","kouzui":"×","gake":"×","takashio":"×","jishin":"○","tsunami":"○","kaji":"○","naisui":"×","kazan":"×"}}
,{"type":"Feature","geometry":{"type":"Point","coordinates":[135.224845,34.1921563]},"properties":{"Name":"安原小学校","Jusho":"和歌山県和歌山市江南２３９","kouzui":"○","gake":"○","takashio":"×","jishin":"○","tsunami":"○","kaji":"○","naisui":"○","kazan":"×"}}
,{"type":"Feature","geometry":{"type":"Point","coordinates":[135.2244994,34.2007779]},"properties":{"Name":"東中学校","Jusho":"和歌山県和歌山市松原３３７","kouzui":"○","gake":"○","takashio":"×","jishin":"○","tsunami":"○","kaji":"○","naisui":"○","kazan":"×"}}
,{"type":"Feature","geometry":{"type":"Point","coordinates":[135.2169885,34.1769563]},"properties":{"Name":"本渡公園","Jusho":"和歌山県和歌山市本渡３６９","kouzui":"×","gake":"×","takashio":"×","jishin":"○","tsunami":"○","kaji":"○","naisui":"×","kazan":"×"}}
,{"type":"Feature","geometry":{"type":"Point","coordinates":[135.2156256,34.1909771]},"properties":{"Name":"赤津広場","Jusho":"和歌山県和歌山市冬野１６５-１","kouzui":"×","gake":"×","takashio":"×","jishin":"○","tsunami":"○","kaji":"○","naisui":"×","kazan":"×"}}
,{"type":"Feature","geometry":{"type":"Point","coordinates":[135.211853,34.174316]},"properties":{"Name":"智辯学園和歌山小学・中学・高等学校（グラウンド）","Jusho":"和歌山県和歌山市冬野２０６６-１","kouzui":"×","gake":"×","takashio":"×","jishin":"×","tsunami":"○","kaji":"×","naisui":"×","kazan":"×"}}
,{"type":"Feature","geometry":{"type":"Point","coordinates":[135.2415488,34.2014786]},"properties":{"Name":"山東小学校","Jusho":"和歌山県和歌山市吉礼３２６","kouzui":"○","gake":"○","takashio":"×","jishin":"○","tsunami":"○","kaji":"○","naisui":"○","kazan":"×"}}
,{"type":"Feature","geometry":{"type":"Point","coordinates":[135.2473178,34.2049237]},"properties":{"Name":"口須佐公園","Jusho":"和歌山県和歌山市口須佐５１-４","kouzui":"×","gake":"×","takashio":"×","jishin":"○","tsunami":"○","kaji":"○","naisui":"×","kazan":"×"}}
,{"type":"Feature","geometry":{"type":"Point","coordinates":[135.2595235,34.2032519]},"properties":{"Name":"東山東小学校","Jusho":"和歌山県和歌山市山東中５２-１","kouzui":"○","gake":"○","takashio":"×","jishin":"○","tsunami":"○","kaji":"○","naisui":"○","kazan":"×"}}
,{"type":"Feature","geometry":{"type":"Point","coordinates":[135.1966582,34.2639316]},"properties":{"Name":"有功小学校","Jusho":"和歌山県和歌山市園部１４５３","kouzui":"○","gake":"○","takashio":"×","jishin":"○","tsunami":"○","kaji":"○","naisui":"○","kazan":"×"}}
,{"type":"Feature","geometry":{"type":"Point","coordinates":[135.1869001,34.265792]},"properties":{"Name":"鳴滝小学校","Jusho":"和歌山県和歌山市善明寺６１５-３","kouzui":"○","gake":"○","takashio":"×","jishin":"○","tsunami":"○","kaji":"○","naisui":"○","kazan":"×"}}
,{"type":"Feature","geometry":{"type":"Point","coordinates":[135.2045141,34.2681088]},"properties":{"Name":"有功東小学校","Jusho":"和歌山県和歌山市六十谷８９５","kouzui":"○","gake":"○","takashio":"×","jishin":"○","tsunami":"○","kaji":"○","naisui":"○","kazan":"×"}}
,{"type":"Feature","geometry":{"type":"Point","coordinates":[135.2037781,34.2717718]},"properties":{"Name":"有功中学校","Jusho":"和歌山県和歌山市六十谷１２３８","kouzui":"○","gake":"○","takashio":"×","jishin":"○","tsunami":"○","kaji":"○","naisui":"○","kazan":"×"}}
,{"type":"Feature","geometry":{"type":"Point","coordinates":[135.198082,34.2609301]},"properties":{"Name":"市立和歌山高等学校","Jusho":"和歌山県和歌山市六十谷４５","kouzui":"○","gake":"○","takashio":"×","jishin":"○","tsunami":"○","kaji":"○","naisui":"○","kazan":"×"}}
,{"type":"Feature","geometry":{"type":"Point","coordinates":[135.1947635,34.2655454]},"properties":{"Name":"園部公園","Jusho":"和歌山県和歌山市園部２１２-１","kouzui":"×","gake":"×","takashio":"×","jishin":"○","tsunami":"○","kaji":"○","naisui":"×","kazan":"×"}}
,{"type":"Feature","geometry":{"type":"Point","coordinates":[135.215677,34.2639465]},"properties":{"Name":"直川小学校","Jusho":"和歌山県和歌山市直川１２５３","kouzui":"○","gake":"○","takashio":"×","jishin":"○","tsunami":"○","kaji":"○","naisui":"○","kazan":"×"}}
,{"type":"Feature","geometry":{"type":"Point","coordinates":[135.219934,34.259674]},"properties":{"Name":"北コミュニティセンター","Jusho":"和歌山県和歌山市直川３２６-７","kouzui":"○","gake":"○","takashio":"×","jishin":"○","tsunami":"○","kaji":"○","naisui":"○","kazan":"×"}}
,{"type":"Feature","geometry":{"type":"Point","coordinates":[135.2560058,34.2568664]},"properties":{"Name":"川永小学校","Jusho":"和歌山県和歌山市楠本２８５","kouzui":"○","gake":"○","takashio":"×","jishin":"○","tsunami":"○","kaji":"○","naisui":"○","kazan":"×"}}
,{"type":"Feature","geometry":{"type":"Point","coordinates":[135.253881,34.2615677]},"properties":{"Name":"川永団地公園","Jusho":"和歌山県和歌山市島２６-１０","kouzui":"×","gake":"×","takashio":"×","jishin":"○","tsunami":"○","kaji":"○","naisui":"×","kazan":"×"}}
,{"type":"Feature","geometry":{"type":"Point","coordinates":[135.2874994,34.2435955]},"properties":{"Name":"小倉小学校","Jusho":"和歌山県和歌山市新庄３４８","kouzui":"○","gake":"○","takashio":"×","jishin":"○","tsunami":"○","kaji":"○","naisui":"○","kazan":"×"}}
,{"type":"Feature","geometry":{"type":"Point","coordinates":[135.2896603,34.2373091]},"properties":{"Name":"県立和歌山高等学校","Jusho":"和歌山県和歌山市新庄１８８","kouzui":"○","gake":"○","takashio":"×","jishin":"○","tsunami":"○","kaji":"○","naisui":"○","kazan":"×"}}
,{"type":"Feature","geometry":{"type":"Point","coordinates":[135.2760053,34.2432749]},"properties":{"Name":"大垣内公園","Jusho":"和歌山県和歌山市大垣内７２０-１","kouzui":"×","gake":"×","takashio":"×","jishin":"○","tsunami":"○","kaji":"○","naisui":"×","kazan":"×"}}
,{"type":"Feature","geometry":{"type":"Point","coordinates":[135.2864642,34.237347]},"properties":{"Name":"東田中公園","Jusho":"和歌山県和歌山市東田中１６０","kouzui":"×","gake":"×","takashio":"×","jishin":"○","tsunami":"○","kaji":"○","naisui":"×","kazan":"×"}}
,{"type":"Feature","geometry":{"type":"Point","coordinates":[135.0762646,34.2748363]},"properties":{"Name":"加太小学校","Jusho":"和歌山県和歌山市加太１２１０","kouzui":"○","gake":"○","takashio":"○","jishin":"○","tsunami":"○","kaji":"○","naisui":"○","kazan":"×"}}
,{"type":"Feature","geometry":{"type":"Point","coordinates":[135.0773638,34.2750821]},"properties":{"Name":"加太中学校","Jusho":"和歌山県和歌山市加太２６９２-１","kouzui":"○","gake":"○","takashio":"○","jishin":"○","tsunami":"○","kaji":"○","naisui":"○","kazan":"×"}}
,{"type":"Feature","geometry":{"type":"Point","coordinates":[135.0724703,34.2928015]},"properties":{"Name":"休暇村紀州加太","Jusho":"和歌山県和歌山市深山４８３","kouzui":"○","gake":"○","takashio":"×","jishin":"○","tsunami":"○","kaji":"○","naisui":"○","kazan":"×"}}
,{"type":"Feature","geometry":{"type":"Point","coordinates":[135.0767338,34.2925376]},"properties":{"Name":"休暇村紀州加太芝生園地","Jusho":"和歌山県和歌山市深山１８８-１","kouzui":"×","gake":"×","takashio":"×","jishin":"○","tsunami":"○","kaji":"○","naisui":"×","kazan":"×"}}
,{"type":"Feature","geometry":{"type":"Point","coordinates":[135.2685698,34.2671359]},"properties":{"Name":"山口小学校","Jusho":"和歌山県和歌山市里１４６","kouzui":"○","gake":"○","takashio":"×","jishin":"○","tsunami":"○","kaji":"○","naisui":"○","kazan":"×"}}
,{"type":"Feature","geometry":{"type":"Point","coordinates":[135.2623165,34.2646648]},"properties":{"Name":"山口西公園","Jusho":"和歌山県和歌山市山口西１００-２","kouzui":"×","gake":"×","takashio":"×","jishin":"○","tsunami":"○","kaji":"○","naisui":"×","kazan":"×"}}
,{"type":"Feature","geometry":{"type":"Point","coordinates":[135.2379056,34.2668364]},"properties":{"Name":"紀伊小学校","Jusho":"和歌山県和歌山市弘西３２１","kouzui":"○","gake":"○","takashio":"×","jishin":"○","tsunami":"○","kaji":"○","naisui":"○","kazan":"×"}}
,{"type":"Feature","geometry":{"type":"Point","coordinates":[135.2441437,34.2712263]},"properties":{"Name":"紀伊中学校","Jusho":"和歌山県和歌山市北野５４４-１","kouzui":"○","gake":"○","takashio":"×","jishin":"○","tsunami":"○","kaji":"○","naisui":"○","kazan":"×"}}
,{"type":"Feature","geometry":{"type":"Point","coordinates":[135.2423421,34.2651562]},"properties":{"Name":"弘西公園","Jusho":"和歌山県和歌山市弘西９２０-２","kouzui":"×","gake":"×","takashio":"×","jishin":"○","tsunami":"○","kaji":"○","naisui":"×","kazan":"×"}}
,{"type":"Feature","geometry":{"type":"Point","coordinates":[135.2515198,34.2653675]},"properties":{"Name":"上野公園","Jusho":"和歌山県和歌山市上野８７-３、８８-１","kouzui":"×","gake":"×","takashio":"×","jishin":"○","tsunami":"○","kaji":"○","naisui":"×","kazan":"×"}}
,{"type":"Feature","geometry":{"type":"Point","coordinates":[135.2427705,34.2599569]},"properties":{"Name":"鴨居川団地公園","Jusho":"和歌山県和歌山市北１０１-１７","kouzui":"×","gake":"×","takashio":"×","jishin":"○","tsunami":"○","kaji":"○","naisui":"×","kazan":"×"}}
,{"type":"Feature","geometry":{"type":"Point","coordinates":[135.1652794,34.1993291]},"properties":{"Name":"雑賀小学校","Jusho":"和歌山県和歌山市西浜１-４-４８","kouzui":"○","gake":"○","takashio":"×","jishin":"○","tsunami":"○","kaji":"○","naisui":"○","kazan":"×"}}
,{"type":"Feature","geometry":{"type":"Point","coordinates":[135.1622911,34.2045119]},"properties":{"Name":"西浜中学校","Jusho":"和歌山県和歌山市西小二里１-６-１","kouzui":"○","gake":"○","takashio":"×","jishin":"○","tsunami":"○","kaji":"○","naisui":"○","kazan":"×"}}
,{"type":"Feature","geometry":{"type":"Point","coordinates":[135.1638779,34.1984133]},"properties":{"Name":"星林高等学校","Jusho":"和歌山県和歌山市西浜２-９-９","kouzui":"○","gake":"○","takashio":"×","jishin":"○","tsunami":"○","kaji":"○","naisui":"○","kazan":"×"}}
,{"type":"Feature","geometry":{"type":"Point","coordinates":[135.1606507,34.2016725]},"properties":{"Name":"和歌山工業高等学校","Jusho":"和歌山県和歌山市西浜３-６-１","kouzui":"○","gake":"○","takashio":"×","jishin":"○","tsunami":"○","kaji":"○","naisui":"○","kazan":"×"}}
,{"type":"Feature","geometry":{"type":"Point","coordinates":[135.1584397,34.19505182]},"properties":{"Name":"松下体育館","Jusho":"和歌山県和歌山市西浜１０３７","kouzui":"○","gake":"○","takashio":"○","jishin":"○","tsunami":"×","kaji":"○","naisui":"○","kazan":"×"}}
,{"type":"Feature","geometry":{"type":"Point","coordinates":[135.1725193,34.1993303]},"properties":{"Name":"秋葉山公園","Jusho":"和歌山県和歌山市秋葉町１４","kouzui":"×","gake":"×","takashio":"×","jishin":"○","tsunami":"○","kaji":"○","naisui":"×","kazan":"×"}}
,{"type":"Feature","geometry":{"type":"Point","coordinates":[135.1649019,34.1981962]},"properties":{"Name":"高津公園","Jusho":"和歌山県和歌山市関戸３-７７５-１","kouzui":"×","gake":"×","takashio":"×","jishin":"○","tsunami":"○","kaji":"○","naisui":"×","kazan":"×"}}
,{"type":"Feature","geometry":{"type":"Point","coordinates":[135.1800991,34.1978619]},"properties":{"Name":"和歌川終末処理場(屋外)","Jusho":"和歌山県和歌山市塩屋５-３-４１","kouzui":"×","gake":"×","takashio":"×","jishin":"○","tsunami":"×","kaji":"○","naisui":"×","kazan":"×"}}
,{"type":"Feature","geometry":{"type":"Point","coordinates":[135.179592,34.201562]},"properties":{"Name":"ライオンズマンション和歌山塩屋","Jusho":"和歌山県和歌山市塩屋５-２-３３","kouzui":"×","gake":"×","takashio":"×","jishin":"×","tsunami":"○","kaji":"×","naisui":"×","kazan":"×"}}
,{"type":"Feature","geometry":{"type":"Point","coordinates":[135.165845,34.201906]},"properties":{"Name":"県営住宅西浜団地","Jusho":"和歌山県和歌山市和歌山市西浜１-６-４０","kouzui":"○","gake":"×","takashio":"×","jishin":"×","tsunami":"○","kaji":"×","naisui":"×","kazan":"×"}}
,{"type":"Feature","geometry":{"type":"Point","coordinates":[135.14937702104,34.210126220793]},"properties":{"Name":"中央卸売市場総合食品センター棟「わかやままるしぇ」","Jusho":"和歌山県和歌山市西浜１６６０-４０１","kouzui":"×","gake":"×","takashio":"×","jishin":"×","tsunami":"○","kaji":"×","naisui":"×","kazan":"×"}}
,{"type":"Feature","geometry":{"type":"Point","coordinates":[135.1716752,34.19818869]},"properties":{"Name":"秋葉山公園県民水泳場","Jusho":"和歌山県和歌山市秋葉町４番１１号","kouzui":"○","gake":"○","takashio":"×","jishin":"○","tsunami":"○","kaji":"○","naisui":"○","kazan":"×"}}
,{"type":"Feature","geometry":{"type":"Point","coordinates":[135.152795932418,34.2078576933978]},"properties":{"Name":"水軒堤防公園（水軒交差点より以北部分）","Jusho":"和歌山県和歌山市西浜1664番","kouzui":"×","gake":"×","takashio":"×","jishin":"×","tsunami":"○","kaji":"×","naisui":"×","kazan":"×"}}
,{"type":"Feature","geometry":{"type":"Point","coordinates":[135.1668662,34.191325]},"properties":{"Name":"和歌浦小学校","Jusho":"和歌山県和歌山市和歌浦西２-１-１８","kouzui":"○","gake":"○","takashio":"○","jishin":"○","tsunami":"○","kaji":"○","naisui":"○","kazan":"×"}}
,{"type":"Feature","geometry":{"type":"Point","coordinates":[135.177709,34.1944544]},"properties":{"Name":"和歌川苑","Jusho":"和歌山県和歌山市和歌川町５-４４","kouzui":"×","gake":"×","takashio":"×","jishin":"×","tsunami":"○","kaji":"×","naisui":"×","kazan":"×"}}
,{"type":"Feature","geometry":{"type":"Point","coordinates":[135.175147,34.190686]},"properties":{"Name":"インペリアル和歌浦","Jusho":"和歌山県和歌山市和歌浦東２丁目８-１５","kouzui":"×","gake":"×","takashio":"×","jishin":"×","tsunami":"○","kaji":"×","naisui":"×","kazan":"×"}}
,{"type":"Feature","geometry":{"type":"Point","coordinates":[135.172811,34.19687]},"properties":{"Name":"秋葉山配水池","Jusho":"和歌山県和歌山市和歌浦東1丁目３９３-９","kouzui":"×","gake":"×","takashio":"×","jishin":"×","tsunami":"○","kaji":"×","naisui":"×","kazan":"×"}}
,{"type":"Feature","geometry":{"type":"Point","coordinates":[135.167031,34.1933863]},"properties":{"Name":"和歌公園（権現山）","Jusho":"和歌山県和歌山市和歌浦","kouzui":"×","gake":"×","takashio":"×","jishin":"×","tsunami":"○","kaji":"×","naisui":"×","kazan":"×"}}
,{"type":"Feature","geometry":{"type":"Point","coordinates":[135.17125,34.19072]},"properties":{"Name":"和歌公園（津屋公園・城跡山地区）","Jusho":"和歌山県和歌山市和歌浦","kouzui":"×","gake":"×","takashio":"×","jishin":"×","tsunami":"○","kaji":"×","naisui":"×","kazan":"×"}}
,{"type":"Feature","geometry":{"type":"Point","coordinates":[135.171684,34.18784]},"properties":{"Name":"和歌公園（奠供山地区）","Jusho":"和歌山県和歌山市和歌浦","kouzui":"×","gake":"×","takashio":"×","jishin":"×","tsunami":"○","kaji":"×","naisui":"×","kazan":"×"}}
,{"type":"Feature","geometry":{"type":"Point","coordinates":[135.172987,34.187316]},"properties":{"Name":"和歌公園（鏡山地区）","Jusho":"和歌山県和歌山市和歌浦","kouzui":"×","gake":"×","takashio":"×","jishin":"×","tsunami":"○","kaji":"×","naisui":"×","kazan":"×"}}
,{"type":"Feature","geometry":{"type":"Point","coordinates":[135.156433,34.1853796]},"properties":{"Name":"和歌の浦温泉　萬波　（駐車場）","Jusho":"和歌山県和歌山市新和歌浦２-１０","kouzui":"×","gake":"×","takashio":"×","jishin":"×","tsunami":"○","kaji":"×","naisui":"×","kazan":"×"}}
,{"type":"Feature","geometry":{"type":"Point","coordinates":[135.1907148,34.1787953]},"properties":{"Name":"名草小学校","Jusho":"和歌山県和歌山市紀三井寺２４０","kouzui":"○","gake":"○","takashio":"×","jishin":"○","tsunami":"○","kaji":"○","naisui":"○","kazan":"×"}}
,{"type":"Feature","geometry":{"type":"Point","coordinates":[135.1962093,34.1706047]},"properties":{"Name":"浜宮小学校","Jusho":"和歌山県和歌山市内原７７８-１６","kouzui":"○","gake":"○","takashio":"×","jishin":"○","tsunami":"○","kaji":"○","naisui":"○","kazan":"×"}}
,{"type":"Feature","geometry":{"type":"Point","coordinates":[135.1803216,34.1854788]},"properties":{"Name":"明和中学校","Jusho":"和歌山県和歌山市紀三井寺８３２-１","kouzui":"○","gake":"○","takashio":"×","jishin":"○","tsunami":"×","kaji":"○","naisui":"○","kazan":"×"}}
,{"type":"Feature","geometry":{"type":"Point","coordinates":[135.184909,34.1860769]},"properties":{"Name":"南コミュニティセンター","Jusho":"和歌山県和歌山市紀三井寺８５６","kouzui":"○","gake":"○","takashio":"×","jishin":"○","tsunami":"○","kaji":"○","naisui":"○","kazan":"×"}}
,{"type":"Feature","geometry":{"type":"Point","coordinates":[135.190339,34.1948216]},"properties":{"Name":"県立医科大学保健看護学部（体育館）","Jusho":"和歌山県和歌山市三葛５８０","kouzui":"○","gake":"○","takashio":"×","jishin":"○","tsunami":"×","kaji":"○","naisui":"○","kazan":"×"}}
,{"type":"Feature","geometry":{"type":"Point","coordinates":[135.1989517,34.1698588]},"properties":{"Name":"紀三井寺児童遊園東","Jusho":"和歌山県和歌山市紀三井寺１-５６","kouzui":"×","gake":"×","takashio":"×","jishin":"○","tsunami":"×","kaji":"○","naisui":"×","kazan":"×"}}
,{"type":"Feature","geometry":{"type":"Point","coordinates":[135.1955859,34.1679733]},"properties":{"Name":"紀三井寺児童遊園西","Jusho":"和歌山県和歌山市紀三井寺１-２０４","kouzui":"×","gake":"×","takashio":"×","jishin":"○","tsunami":"×","kaji":"○","naisui":"×","kazan":"×"}}
,{"type":"Feature","geometry":{"type":"Point","coordinates":[135.190736,34.166673]},"properties":{"Name":"紀三井寺公園","Jusho":"和歌山県和歌山市毛見２００","kouzui":"×","gake":"×","takashio":"×","jishin":"○","tsunami":"○","kaji":"○","naisui":"×","kazan":"×"}}
,{"type":"Feature","geometry":{"type":"Point","coordinates":[135.185872,34.157562]},"properties":{"Name":"和歌山県子ども・女性・障害者相談センター","Jusho":"和歌山県和歌山市毛見１４３７-２１８","kouzui":"×","gake":"×","takashio":"×","jishin":"×","tsunami":"○","kaji":"×","naisui":"×","kazan":"×"}}
,{"type":"Feature","geometry":{"type":"Point","coordinates":[135.185128,34.157987]},"properties":{"Name":"琴の浦リハビリテーションセンター","Jusho":"和歌山県和歌山市毛見１４５１","kouzui":"×","gake":"×","takashio":"×","jishin":"×","tsunami":"○","kaji":"×","naisui":"×","kazan":"×"}}
,{"type":"Feature","geometry":{"type":"Point","coordinates":[135.1909555,34.16671052]},"properties":{"Name":"紀三井寺公園陸上競技場","Jusho":"和歌山県和歌山市毛見２００","kouzui":"○","gake":"○","takashio":"×","jishin":"○","tsunami":"○","kaji":"○","naisui":"○","kazan":"×"}}
,{"type":"Feature","geometry":{"type":"Point","coordinates":[135.188011,34.1955371]},"properties":{"Name":"中央終末処理場","Jusho":"和歌山県和歌山市三葛５１０-１","kouzui":"×","gake":"×","takashio":"×","jishin":"×","tsunami":"○","kaji":"×","naisui":"×","kazan":"×"}}
,{"type":"Feature","geometry":{"type":"Point","coordinates":[135.184724,34.18134]},"properties":{"Name":"紀三井寺苑","Jusho":"和歌山県和歌山市紀三井寺５６０-２","kouzui":"×","gake":"×","takashio":"×","jishin":"×","tsunami":"○","kaji":"×","naisui":"×","kazan":"×"}}
,{"type":"Feature","geometry":{"type":"Point","coordinates":[135.1839555,34.17467941]},"properties":{"Name":"紀州技研工業株式会社（インク研究所）","Jusho":"和歌山県和歌山市布引534-2他","kouzui":"○","gake":"×","takashio":"○","jishin":"×","tsunami":"○","kaji":"×","naisui":"×","kazan":"×"}}
,{"type":"Feature","geometry":{"type":"Point","coordinates":[135.18658,34.16382]},"properties":{"Name":"ファシナシオン毛見","Jusho":"和歌山県和歌山市毛見１０-２","kouzui":"×","gake":"×","takashio":"×","jishin":"×","tsunami":"○","kaji":"×","naisui":"×","kazan":"×"}}
,{"type":"Feature","geometry":{"type":"Point","coordinates":[135.186019,34.164072]},"properties":{"Name":"ファシナシオン毛見Ⅱ","Jusho":"和歌山県和歌山市毛見８-１","kouzui":"×","gake":"×","takashio":"×","jishin":"×","tsunami":"○","kaji":"×","naisui":"×","kazan":"×"}}
,{"type":"Feature","geometry":{"type":"Point","coordinates":[135.179586,34.155668]},"properties":{"Name":"和歌山マリーナシティホテル","Jusho":"和歌山県和歌山市毛見１５１７","kouzui":"×","gake":"×","takashio":"×","jishin":"×","tsunami":"○","kaji":"×","naisui":"×","kazan":"×"}}
,{"type":"Feature","geometry":{"type":"Point","coordinates":[135.186602,34.1848481]},"properties":{"Name":"紀三井寺ガーデンホテルはやし","Jusho":"和歌山県和歌山市紀三井寺７５６","kouzui":"×","gake":"×","takashio":"×","jishin":"×","tsunami":"○","kaji":"×","naisui":"×","kazan":"×"}}
,{"type":"Feature","geometry":{"type":"Point","coordinates":[135.185933,34.191624]},"properties":{"Name":"ローパス三葛","Jusho":"和歌山県和歌山市三葛２４７-１","kouzui":"×","gake":"×","takashio":"×","jishin":"×","tsunami":"○","kaji":"×","naisui":"×","kazan":"×"}}
,{"type":"Feature","geometry":{"type":"Point","coordinates":[135.200127,34.170721]},"properties":{"Name":"ビレッジハウス紀三井寺（１～３号棟）","Jusho":"和歌山県和歌山市紀三井寺３４２","kouzui":"○","gake":"×","takashio":"×","jishin":"×","tsunami":"○","kaji":"×","naisui":"×","kazan":"×"}}
,{"type":"Feature","geometry":{"type":"Point","coordinates":[135.199785,34.17084]},"properties":{"Name":"ビレッジハウス紀三井寺（４～６号棟）","Jusho":"和歌山県和歌山市紀三井寺１-２８","kouzui":"○","gake":"×","takashio":"×","jishin":"×","tsunami":"○","kaji":"×","naisui":"×","kazan":"×"}}
,{"type":"Feature","geometry":{"type":"Point","coordinates":[135.187159,34.190067]},"properties":{"Name":"メトロヒルズ（屋上駐車場、立体駐車場）","Jusho":"和歌山県和歌山市三葛１３７-１","kouzui":"×","gake":"×","takashio":"×","jishin":"×","tsunami":"○","kaji":"×","naisui":"×","kazan":"×"}}
,{"type":"Feature","geometry":{"type":"Point","coordinates":[135.202294,34.1699367]},"properties":{"Name":"本久寺","Jusho":"和歌山県和歌山市毛見４２３-１","kouzui":"×","gake":"×","takashio":"×","jishin":"×","tsunami":"○","kaji":"×","naisui":"×","kazan":"×"}}
,{"type":"Feature","geometry":{"type":"Point","coordinates":[135.189885,34.1854239]},"properties":{"Name":"紀三井寺　護国院","Jusho":"和歌山県和歌山市紀三井寺１２０１","kouzui":"×","gake":"×","takashio":"×","jishin":"×","tsunami":"○","kaji":"×","naisui":"×","kazan":"×"}}
,{"type":"Feature","geometry":{"type":"Point","coordinates":[135.189998,34.1825897]},"properties":{"Name":"名草山霊園","Jusho":"和歌山県和歌山市紀三井寺１３０１-１","kouzui":"×","gake":"×","takashio":"×","jishin":"×","tsunami":"○","kaji":"×","naisui":"×","kazan":"×"}}
,{"type":"Feature","geometry":{"type":"Point","coordinates":[135.1506617,34.1925148]},"properties":{"Name":"雑賀崎小学校","Jusho":"和歌山県和歌山市西浜１１４８","kouzui":"○","gake":"○","takashio":"○","jishin":"○","tsunami":"×","kaji":"○","naisui":"○","kazan":"×"}}
,{"type":"Feature","geometry":{"type":"Point","coordinates":[135.148291,34.192582]},"properties":{"Name":"創価学会南和歌山文化会館","Jusho":"和歌山県和歌山市雑賀崎６-４","kouzui":"×","gake":"×","takashio":"×","jishin":"×","tsunami":"○","kaji":"×","naisui":"×","kazan":"×"}}
,{"type":"Feature","geometry":{"type":"Point","coordinates":[135.150213,34.18566]},"properties":{"Name":"わかうら園","Jusho":"和歌山県和歌山市田野１７５","kouzui":"×","gake":"×","takashio":"×","jishin":"×","tsunami":"○","kaji":"×","naisui":"×","kazan":"×"}}
,{"type":"Feature","geometry":{"type":"Point","coordinates":[135.15023,34.1876023]},"properties":{"Name":"漁火の宿　シーサイド観潮（駐車場）","Jusho":"和歌山県和歌山市田野８２","kouzui":"×","gake":"×","takashio":"×","jishin":"×","tsunami":"○","kaji":"×","naisui":"×","kazan":"×"}}
,{"type":"Feature","geometry":{"type":"Point","coordinates":[135.145267,34.1903908]},"properties":{"Name":"沖見の里（旧雑賀崎小学校跡地）","Jusho":"和歌山県和歌山市雑賀崎１６１２番初め１１筆  （1612、1712-2、 1714、 1715、 1716、 1717、 1723、 1724、 1725、 1726、 1727）","kouzui":"×","gake":"×","takashio":"×","jishin":"×","tsunami":"○","kaji":"×","naisui":"×","kazan":"×"}}
,{"type":"Feature","geometry":{"type":"Point","coordinates":[135.252612,34.260161]},"properties":{"Name":"県営住宅川永団地（１～２号棟）","Jusho":"和歌山県和歌山市島５１-２","kouzui":"○","gake":"×","takashio":"×","jishin":"×","tsunami":"○","kaji":"×","naisui":"×","kazan":"×"}}
,{"type":"Feature","geometry":{"type":"Point","coordinates":[135.252511,34.259052]},"properties":{"Name":"県営住宅ニューかわなが団地１号棟","Jusho":"和歌山県和歌山市島１０５-２","kouzui":"○","gake":"×","takashio":"×","jishin":"×","tsunami":"○","kaji":"×","naisui":"×","kazan":"×"}}
,{"type":"Feature","geometry":{"type":"Point","coordinates":[135.251426,34.25951]},"properties":{"Name":"県営住宅ニューかわなが団地２号棟","Jusho":"和歌山県和歌山市島５１-１０","kouzui":"○","gake":"×","takashio":"×","jishin":"×","tsunami":"○","kaji":"×","naisui":"×","kazan":"×"}}
,{"type":"Feature","geometry":{"type":"Point","coordinates":[135.250053,34.259412]},"properties":{"Name":"県営住宅ニューかわなが団地３号棟","Jusho":"和歌山県和歌山市宇田森９-６","kouzui":"○","gake":"×","takashio":"×","jishin":"×","tsunami":"○","kaji":"×","naisui":"×","kazan":"×"}}
,{"type":"Feature","geometry":{"type":"Point","coordinates":[135.249991,34.259756]},"properties":{"Name":"県営住宅ニューかわなが団地４号棟","Jusho":"和歌山県和歌山市宇田森９-５","kouzui":"○","gake":"×","takashio":"×","jishin":"×","tsunami":"○","kaji":"×","naisui":"×","kazan":"×"}}
,{"type":"Feature","geometry":{"type":"Point","coordinates":[135.251255,34.259781]},"properties":{"Name":"県営住宅ニューかわなが団地５号棟","Jusho":"和歌山県和歌山市島５１-２","kouzui":"○","gake":"×","takashio":"×","jishin":"×","tsunami":"○","kaji":"×","naisui":"×","kazan":"×"}}
,{"type":"Feature","geometry":{"type":"Point","coordinates":[135.246645,34.243733]},"properties":{"Name":"県営住宅千旦団地１０号棟","Jusho":"和歌山県和歌山市禰宜１３４１-３","kouzui":"○","gake":"×","takashio":"×","jishin":"×","tsunami":"○","kaji":"×","naisui":"×","kazan":"×"}}
,{"type":"Feature","geometry":{"type":"Point","coordinates":[135.194105,34.227392]},"properties":{"Name":"県営住宅和歌山東団地","Jusho":"和歌山県和歌山市太田１０３-１","kouzui":"○","gake":"×","takashio":"×","jishin":"×","tsunami":"○","kaji":"×","naisui":"×","kazan":"×"}}
,{"type":"Feature","geometry":{"type":"Point","coordinates":[135.18822,34.213579]},"properties":{"Name":"県営住宅宮前駅前団地","Jusho":"和歌山県和歌山市北中島１-４-４","kouzui":"○","gake":"×","takashio":"×","jishin":"×","tsunami":"○","kaji":"×","naisui":"×","kazan":"×"}}
,{"type":"Feature","geometry":{"type":"Point","coordinates":[135.234639,34.264856]},"properties":{"Name":"県営住宅紀伊団地","Jusho":"和歌山県和歌山市弘西１０４２-８","kouzui":"○","gake":"×","takashio":"×","jishin":"×","tsunami":"○","kaji":"×","naisui":"×","kazan":"×"}}
,{"type":"Feature","geometry":{"type":"Point","coordinates":[135.189588,34.197588]},"properties":{"Name":"県営住宅三葛団地２号棟","Jusho":"和歌山県和歌山市三葛４８４","kouzui":"○","gake":"×","takashio":"×","jishin":"×","tsunami":"○","kaji":"×","naisui":"×","kazan":"×"}}
,{"type":"Feature","geometry":{"type":"Point","coordinates":[135.206388,34.172455]},"properties":{"Name":"室山古墳登山道周辺","Jusho":"和歌山県海南市黒江47付近","kouzui":"×","gake":"×","takashio":"×","jishin":"×","tsunami":"○","kaji":"×","naisui":"×","kazan":"×"}}
,{"type":"Feature","geometry":{"type":"Point","coordinates":[135.205548,34.169155]},"properties":{"Name":"室山地区高台","Jusho":"和歌山県海南市黒江127付近","kouzui":"×","gake":"×","takashio":"×","jishin":"×","tsunami":"○","kaji":"×","naisui":"×","kazan":"×"}}
,{"type":"Feature","geometry":{"type":"Point","coordinates":[135.2076538,34.16647305]},"properties":{"Name":"室山配水池周辺","Jusho":"和歌山県海南市黒江265","kouzui":"×","gake":"×","takashio":"×","jishin":"×","tsunami":"○","kaji":"×","naisui":"×","kazan":"×"}}
,{"type":"Feature","geometry":{"type":"Point","coordinates":[135.205934,34.164293]},"properties":{"Name":"中言神社周辺","Jusho":"和歌山県海南市黒江931","kouzui":"×","gake":"×","takashio":"×","jishin":"×","tsunami":"○","kaji":"×","naisui":"×","kazan":"×"}}
,{"type":"Feature","geometry":{"type":"Point","coordinates":[135.204326,34.163486]},"properties":{"Name":"浄國寺周辺","Jusho":"和歌山県海南市黒江976","kouzui":"×","gake":"×","takashio":"×","jishin":"×","tsunami":"○","kaji":"×","naisui":"×","kazan":"×"}}
,{"type":"Feature","geometry":{"type":"Point","coordinates":[135.20757678057,34.168593307905]},"properties":{"Name":"黒江・船尾地区避難所周辺","Jusho":"和歌山県海南市黒江222付近","kouzui":"×","gake":"×","takashio":"×","jishin":"×","tsunami":"○","kaji":"×","naisui":"×","kazan":"×"}}
,{"type":"Feature","geometry":{"type":"Point","coordinates":[135.205359,34.160312]},"properties":{"Name":"池崎山西側周辺","Jusho":"和歌山県海南市黒江1237付近","kouzui":"×","gake":"×","takashio":"×","jishin":"×","tsunami":"○","kaji":"×","naisui":"×","kazan":"×"}}
,{"type":"Feature","geometry":{"type":"Point","coordinates":[135.203107,34.16256]},"properties":{"Name":"招魂山ちびっ子広場周辺","Jusho":"和歌山県海南市船尾19-3","kouzui":"×","gake":"×","takashio":"×","jishin":"×","tsunami":"○","kaji":"×","naisui":"×","kazan":"×"}}
,{"type":"Feature","geometry":{"type":"Point","coordinates":[135.200295,34.155868]},"properties":{"Name":"日本製鉄避難マウンド","Jusho":"和歌山県海南市船尾260-100","kouzui":"×","gake":"×","takashio":"×","jishin":"×","tsunami":"○","kaji":"×","naisui":"×","kazan":"×"}}
,{"type":"Feature","geometry":{"type":"Point","coordinates":[135.19956,34.162267]},"properties":{"Name":"とんだ池周辺","Jusho":"和歌山県海南市船尾297付近","kouzui":"×","gake":"×","takashio":"×","jishin":"×","tsunami":"○","kaji":"×","naisui":"×","kazan":"×"}}
,{"type":"Feature","geometry":{"type":"Point","coordinates":[135.198036,34.161003]},"properties":{"Name":"㈱キンタロー駐車場周辺","Jusho":"和歌山県海南市船尾317-2","kouzui":"×","gake":"×","takashio":"×","jishin":"×","tsunami":"○","kaji":"×","naisui":"×","kazan":"×"}}
,{"type":"Feature","geometry":{"type":"Point","coordinates":[135.195958,34.16189]},"properties":{"Name":"船尾山ハイキングコース周辺","Jusho":"和歌山県海南市船尾342-7付近","kouzui":"×","gake":"×","takashio":"×","jishin":"×","tsunami":"○","kaji":"×","naisui":"×","kazan":"×"}}
,{"type":"Feature","geometry":{"type":"Point","coordinates":[135.193729,34.16054]},"properties":{"Name":"ホテル裏側周辺","Jusho":"和歌山県海南市船尾398-1","kouzui":"×","gake":"×","takashio":"×","jishin":"×","tsunami":"○","kaji":"×","naisui":"×","kazan":"×"}}
,{"type":"Feature","geometry":{"type":"Point","coordinates":[135.201205,34.162837]},"properties":{"Name":"妙覚寺周辺","Jusho":"和歌山県海南市船尾622","kouzui":"×","gake":"×","takashio":"×","jishin":"×","tsunami":"○","kaji":"×","naisui":"×","kazan":"×"}}
,{"type":"Feature","geometry":{"type":"Point","coordinates":[135.20670067453,34.161145057634]},"properties":{"Name":"池崎山津波避難場所","Jusho":"和歌山県海南市日方138付近","kouzui":"×","gake":"×","takashio":"×","jishin":"×","tsunami":"○","kaji":"×","naisui":"×","kazan":"×"}}
,{"type":"Feature","geometry":{"type":"Point","coordinates":[135.2048312,34.15769023]},"properties":{"Name":"城山地区集会所周辺","Jusho":"和歌山県海南市日方149-1","kouzui":"×","gake":"×","takashio":"×","jishin":"×","tsunami":"○","kaji":"×","naisui":"×","kazan":"×"}}
,{"type":"Feature","geometry":{"type":"Point","coordinates":[135.213403,34.159971]},"properties":{"Name":"柿本神社","Jusho":"和歌山県海南市日方600","kouzui":"×","gake":"×","takashio":"×","jishin":"×","tsunami":"○","kaji":"×","naisui":"×","kazan":"×"}}
,{"type":"Feature","geometry":{"type":"Point","coordinates":[135.2178083,34.16183611]},"properties":{"Name":"元火葬場周辺","Jusho":"和歌山県海南市日方788付近","kouzui":"×","gake":"×","takashio":"×","jishin":"×","tsunami":"○","kaji":"×","naisui":"×","kazan":"×"}}
,{"type":"Feature","geometry":{"type":"Point","coordinates":[135.218045,34.160209]},"properties":{"Name":"神田地蔵寺","Jusho":"和歌山県海南市日方828付近","kouzui":"×","gake":"×","takashio":"×","jishin":"×","tsunami":"○","kaji":"×","naisui":"×","kazan":"×"}}
,{"type":"Feature","geometry":{"type":"Point","coordinates":[135.2109942,34.15953144]},"properties":{"Name":"公園地山","Jusho":"和歌山県海南市日方1307","kouzui":"×","gake":"×","takashio":"×","jishin":"×","tsunami":"○","kaji":"×","naisui":"×","kazan":"×"}}
,{"type":"Feature","geometry":{"type":"Point","coordinates":[135.219968,34.160194]},"properties":{"Name":"上神田地区高台周辺","Jusho":"和歌山県海南市日方1397付近","kouzui":"×","gake":"×","takashio":"×","jishin":"×","tsunami":"○","kaji":"×","naisui":"×","kazan":"×"}}
,{"type":"Feature","geometry":{"type":"Point","coordinates":[135.2216,34.160876]},"properties":{"Name":"日方集会所奥高台","Jusho":"和歌山県海南市日方1401付近","kouzui":"×","gake":"×","takashio":"×","jishin":"×","tsunami":"○","kaji":"×","naisui":"×","kazan":"×"}}
,{"type":"Feature","geometry":{"type":"Point","coordinates":[135.215978,34.14826]},"properties":{"Name":"日限地蔵周辺","Jusho":"和歌山県海南市鳥居284","kouzui":"×","gake":"×","takashio":"×","jishin":"×","tsunami":"○","kaji":"×","naisui":"×","kazan":"×"}}
,{"type":"Feature","geometry":{"type":"Point","coordinates":[135.21871,34.146634]},"properties":{"Name":"寶性院周辺","Jusho":"和歌山県海南市鳥居420-3","kouzui":"×","gake":"×","takashio":"×","jishin":"×","tsunami":"○","kaji":"×","naisui":"×","kazan":"×"}}
,{"type":"Feature","geometry":{"type":"Point","coordinates":[135.221178,34.149251]},"properties":{"Name":"小中地蔵周辺","Jusho":"和歌山県海南市鳥居518付近","kouzui":"×","gake":"×","takashio":"×","jishin":"×","tsunami":"○","kaji":"×","naisui":"×","kazan":"×"}}
,{"type":"Feature","geometry":{"type":"Point","coordinates":[135.209395,34.144325]},"properties":{"Name":"藤白神社周辺","Jusho":"和歌山県海南市藤白466","kouzui":"×","gake":"×","takashio":"×","jishin":"×","tsunami":"○","kaji":"×","naisui":"×","kazan":"×"}}
,{"type":"Feature","geometry":{"type":"Point","coordinates":[135.193434,34.141202]},"properties":{"Name":"国道４２号冷水駅前バス停周辺","Jusho":"和歌山県海南市冷水308付近","kouzui":"×","gake":"×","takashio":"×","jishin":"×","tsunami":"○","kaji":"×","naisui":"×","kazan":"×"}}
,{"type":"Feature","geometry":{"type":"Point","coordinates":[135.19164,34.141235]},"properties":{"Name":"国道４２号冷水中バス停周辺","Jusho":"和歌山県海南市冷水379付近","kouzui":"×","gake":"×","takashio":"×","jishin":"×","tsunami":"○","kaji":"×","naisui":"×","kazan":"×"}}
,{"type":"Feature","geometry":{"type":"Point","coordinates":[135.189353,34.141253]},"properties":{"Name":"国道４２号冷水バス停周辺","Jusho":"和歌山県海南市冷水598付近","kouzui":"×","gake":"×","takashio":"×","jishin":"×","tsunami":"○","kaji":"×","naisui":"×","kazan":"×"}}
,{"type":"Feature","geometry":{"type":"Point","coordinates":[135.222138,34.157117]},"properties":{"Name":"井田地蔵寺","Jusho":"和歌山県海南市井田102付近","kouzui":"×","gake":"×","takashio":"×","jishin":"×","tsunami":"○","kaji":"×","naisui":"×","kazan":"×"}}
,{"type":"Feature","geometry":{"type":"Point","coordinates":[135.226792,34.156354]},"properties":{"Name":"春日神社周辺","Jusho":"和歌山県海南市大野中340","kouzui":"×","gake":"×","takashio":"×","jishin":"×","tsunami":"○","kaji":"×","naisui":"×","kazan":"×"}}
,{"type":"Feature","geometry":{"type":"Point","coordinates":[135.232778,34.158003]},"properties":{"Name":"わんぱく公園周辺","Jusho":"和歌山県海南市大野中995-2付近","kouzui":"×","gake":"×","takashio":"×","jishin":"×","tsunami":"○","kaji":"×","naisui":"×","kazan":"×"}}
,{"type":"Feature","geometry":{"type":"Point","coordinates":[135.225792,34.156578]},"properties":{"Name":"春日ふれあい広場","Jusho":"和歌山県海南市大野中1056付近","kouzui":"×","gake":"×","takashio":"×","jishin":"×","tsunami":"○","kaji":"×","naisui":"×","kazan":"×"}}
,{"type":"Feature","geometry":{"type":"Point","coordinates":[135.223645,34.155044]},"properties":{"Name":"井田児童会館周辺","Jusho":"和歌山県海南市大野中1056-6","kouzui":"×","gake":"×","takashio":"×","jishin":"×","tsunami":"○","kaji":"×","naisui":"×","kazan":"×"}}
,{"type":"Feature","geometry":{"type":"Point","coordinates":[135.230566,34.15644457]},"properties":{"Name":"総合体育館周辺","Jusho":"和歌山県海南市大野中1106","kouzui":"×","gake":"×","takashio":"×","jishin":"×","tsunami":"○","kaji":"×","naisui":"×","kazan":"×"}}
,{"type":"Feature","geometry":{"type":"Point","coordinates":[135.228093,34.149337]},"properties":{"Name":"大野小学校","Jusho":"和歌山県海南市山田91-1","kouzui":"○","gake":"○","takashio":"×","jishin":"○","tsunami":"○","kaji":"×","naisui":"×","kazan":"×"}}
,{"type":"Feature","geometry":{"type":"Point","coordinates":[135.240893,34.17116]},"properties":{"Name":"且来八幡神社東参道","Jusho":"和歌山県海南市且来625付近","kouzui":"×","gake":"×","takashio":"×","jishin":"×","tsunami":"○","kaji":"×","naisui":"×","kazan":"×"}}
,{"type":"Feature","geometry":{"type":"Point","coordinates":[135.229801,34.171101]},"properties":{"Name":"且来招魂山周辺","Jusho":"和歌山県海南市且来840付近","kouzui":"×","gake":"×","takashio":"×","jishin":"×","tsunami":"○","kaji":"×","naisui":"×","kazan":"×"}}
,{"type":"Feature","geometry":{"type":"Point","coordinates":[135.2127634,34.16576461]},"properties":{"Name":"永楽寺","Jusho":"和歌山県海南市且来866","kouzui":"×","gake":"×","takashio":"×","jishin":"×","tsunami":"○","kaji":"×","naisui":"×","kazan":"×"}}
,{"type":"Feature","geometry":{"type":"Point","coordinates":[135.226907,34.168871]},"properties":{"Name":"二つ池周辺高台","Jusho":"和歌山県海南市且来922付近","kouzui":"×","gake":"×","takashio":"×","jishin":"×","tsunami":"○","kaji":"×","naisui":"×","kazan":"×"}}
,{"type":"Feature","geometry":{"type":"Point","coordinates":[135.236968,34.165984]},"properties":{"Name":"大明神池周辺","Jusho":"和歌山県海南市且来1028付近","kouzui":"×","gake":"×","takashio":"×","jishin":"×","tsunami":"○","kaji":"×","naisui":"×","kazan":"×"}}
,{"type":"Feature","geometry":{"type":"Point","coordinates":[135.236521,34.167249]},"properties":{"Name":"大明神池東","Jusho":"和歌山県海南市且来1065付近","kouzui":"×","gake":"×","takashio":"×","jishin":"×","tsunami":"○","kaji":"×","naisui":"×","kazan":"×"}}
,{"type":"Feature","geometry":{"type":"Point","coordinates":[135.235792,34.166455]},"properties":{"Name":"大明神池西","Jusho":"和歌山県海南市且来1069-5付近","kouzui":"×","gake":"×","takashio":"×","jishin":"×","tsunami":"○","kaji":"×","naisui":"×","kazan":"×"}}
,{"type":"Feature","geometry":{"type":"Point","coordinates":[135.237649,34.174432]},"properties":{"Name":"松尾寺周辺","Jusho":"和歌山県海南市且来1221","kouzui":"×","gake":"×","takashio":"×","jishin":"×","tsunami":"○","kaji":"×","naisui":"×","kazan":"×"}}
,{"type":"Feature","geometry":{"type":"Point","coordinates":[135.238796,34.170012]},"properties":{"Name":"且来八幡神社西参道","Jusho":"和歌山県海南市且来1316付近","kouzui":"×","gake":"×","takashio":"×","jishin":"×","tsunami":"○","kaji":"×","naisui":"×","kazan":"×"}}
,{"type":"Feature","geometry":{"type":"Point","coordinates":[135.227838,34.163904]},"properties":{"Name":"温水プール周辺","Jusho":"和歌山県海南市且来1387-3付近","kouzui":"×","gake":"×","takashio":"×","jishin":"×","tsunami":"○","kaji":"×","naisui":"×","kazan":"×"}}
,{"type":"Feature","geometry":{"type":"Point","coordinates":[135.233138,34.17395327]},"properties":{"Name":"弁財天山周辺","Jusho":"和歌山県海南市且来1472付近","kouzui":"×","gake":"×","takashio":"×","jishin":"×","tsunami":"○","kaji":"×","naisui":"×","kazan":"×"}}
,{"type":"Feature","geometry":{"type":"Point","coordinates":[135.209739,34.168808]},"properties":{"Name":"元プライスカット駐車場周辺","Jusho":"和歌山県海南市岡田611-1","kouzui":"×","gake":"×","takashio":"×","jishin":"×","tsunami":"○","kaji":"×","naisui":"×","kazan":"×"}}
,{"type":"Feature","geometry":{"type":"Point","coordinates":[135.213646,34.168536]},"properties":{"Name":"教法寺","Jusho":"和歌山県海南市岡田698","kouzui":"×","gake":"×","takashio":"×","jishin":"×","tsunami":"○","kaji":"×","naisui":"×","kazan":"×"}}
,{"type":"Feature","geometry":{"type":"Point","coordinates":[135.219403,34.168905]},"properties":{"Name":"弘誓寺","Jusho":"和歌山県海南市岡田780","kouzui":"×","gake":"×","takashio":"×","jishin":"×","tsunami":"○","kaji":"×","naisui":"×","kazan":"×"}}
,{"type":"Feature","geometry":{"type":"Point","coordinates":[135.215112,34.173166]},"properties":{"Name":"専応寺","Jusho":"和歌山県海南市岡田975-1","kouzui":"×","gake":"×","takashio":"×","jishin":"×","tsunami":"○","kaji":"×","naisui":"×","kazan":"×"}}
,{"type":"Feature","geometry":{"type":"Point","coordinates":[135.2105511,34.19133603]},"properties":{"Name":"地福寺","Jusho":"和歌山県海南市岡田992","kouzui":"×","gake":"×","takashio":"×","jishin":"×","tsunami":"○","kaji":"×","naisui":"×","kazan":"×"}}
,{"type":"Feature","geometry":{"type":"Point","coordinates":[135.2278674,34.18886216]},"properties":{"Name":"岡田八幡宮周辺","Jusho":"和歌山県海南市岡田1181","kouzui":"×","gake":"×","takashio":"×","jishin":"×","tsunami":"○","kaji":"×","naisui":"×","kazan":"×"}}
,{"type":"Feature","geometry":{"type":"Point","coordinates":[135.210364,34.172527]},"properties":{"Name":"山崎団地","Jusho":"和歌山県海南市岡田1233-5付近","kouzui":"×","gake":"×","takashio":"×","jishin":"×","tsunami":"○","kaji":"×","naisui":"×","kazan":"×"}}
,{"type":"Feature","geometry":{"type":"Point","coordinates":[135.240495,34.17785378]},"properties":{"Name":"国主神社周辺","Jusho":"和歌山県海南市多田714","kouzui":"×","gake":"×","takashio":"×","jishin":"×","tsunami":"○","kaji":"×","naisui":"×","kazan":"×"}}
,{"type":"Feature","geometry":{"type":"Point","coordinates":[135.236441,34.175844]},"properties":{"Name":"猪ノ子山周辺","Jusho":"和歌山県海南市多田1404","kouzui":"×","gake":"×","takashio":"×","jishin":"×","tsunami":"○","kaji":"×","naisui":"×","kazan":"×"}}
,{"type":"Feature","geometry":{"type":"Point","coordinates":[135.212672,34.174117]},"properties":{"Name":"智辯学園（体育館、グラウンド）","Jusho":"和歌山県海南市和歌山市冬野2066-1","kouzui":"×","gake":"×","takashio":"×","jishin":"×","tsunami":"○","kaji":"×","naisui":"×","kazan":"×"}}
,{"type":"Feature","geometry":{"type":"Point","coordinates":[135.15284,34.114645]},"properties":{"Name":"方集会所周辺高台","Jusho":"和歌山県海南市下津町上48-7付近","kouzui":"×","gake":"×","takashio":"×","jishin":"×","tsunami":"○","kaji":"×","naisui":"×","kazan":"×"}}
,{"type":"Feature","geometry":{"type":"Point","coordinates":[135.15798947762,34.109054927617]},"properties":{"Name":"上公民館周辺","Jusho":"和歌山県海南市下津町上356-40付近","kouzui":"×","gake":"×","takashio":"×","jishin":"×","tsunami":"○","kaji":"×","naisui":"×","kazan":"×"}}
,{"type":"Feature","geometry":{"type":"Point","coordinates":[135.1512667,34.10695833]},"properties":{"Name":"拝待団地周辺","Jusho":"和歌山県海南市下津町小原1495付近","kouzui":"×","gake":"×","takashio":"×","jishin":"×","tsunami":"○","kaji":"×","naisui":"×","kazan":"×"}}
,{"type":"Feature","geometry":{"type":"Point","coordinates":[135.145814,34.114485]},"properties":{"Name":"港ふれあい公園","Jusho":"和歌山県海南市下津町下津27-3","kouzui":"×","gake":"×","takashio":"×","jishin":"○","tsunami":"○","kaji":"○","naisui":"×","kazan":"×"}}
,{"type":"Feature","geometry":{"type":"Point","coordinates":[135.147243,34.113017]},"properties":{"Name":"楠戸山中腹周辺","Jusho":"和歌山県海南市下津町下津119付近","kouzui":"×","gake":"×","takashio":"×","jishin":"×","tsunami":"○","kaji":"×","naisui":"×","kazan":"×"}}
,{"type":"Feature","geometry":{"type":"Point","coordinates":[135.149018,34.110752]},"properties":{"Name":"市道赤松楠戸線周辺","Jusho":"和歌山県海南市下津町下津341付近","kouzui":"×","gake":"×","takashio":"×","jishin":"×","tsunami":"○","kaji":"×","naisui":"×","kazan":"×"}}
,{"type":"Feature","geometry":{"type":"Point","coordinates":[135.145816,34.108474]},"properties":{"Name":"紀文レストラン駐車場","Jusho":"和歌山県海南市下津町下津705付近","kouzui":"×","gake":"×","takashio":"×","jishin":"×","tsunami":"○","kaji":"×","naisui":"×","kazan":"×"}}
,{"type":"Feature","geometry":{"type":"Point","coordinates":[135.142542,34.107084]},"properties":{"Name":"阿弥陀寺上の道路","Jusho":"和歌山県海南市下津町下津1331付近","kouzui":"×","gake":"×","takashio":"×","jishin":"×","tsunami":"○","kaji":"×","naisui":"×","kazan":"×"}}
,{"type":"Feature","geometry":{"type":"Point","coordinates":[135.140119,34.108782]},"properties":{"Name":"外瀬山周辺","Jusho":"和歌山県海南市下津町下津1514付近","kouzui":"×","gake":"×","takashio":"×","jishin":"×","tsunami":"○","kaji":"×","naisui":"×","kazan":"×"}}
,{"type":"Feature","geometry":{"type":"Point","coordinates":[135.137522,34.106661]},"properties":{"Name":"大正池周辺","Jusho":"和歌山県海南市下津町下津1831付近","kouzui":"×","gake":"×","takashio":"×","jishin":"×","tsunami":"○","kaji":"×","naisui":"×","kazan":"×"}}
,{"type":"Feature","geometry":{"type":"Point","coordinates":[135.135269,34.108699]},"properties":{"Name":"西方寺周辺","Jusho":"和歌山県海南市下津町下津2464付近","kouzui":"×","gake":"×","takashio":"×","jishin":"×","tsunami":"○","kaji":"×","naisui":"×","kazan":"×"}}
,{"type":"Feature","geometry":{"type":"Point","coordinates":[135.128257,34.113557]},"properties":{"Name":"下津最終処分場周辺","Jusho":"和歌山県海南市下津町下津3103付近","kouzui":"×","gake":"×","takashio":"×","jishin":"×","tsunami":"○","kaji":"×","naisui":"×","kazan":"×"}}
,{"type":"Feature","geometry":{"type":"Point","coordinates":[135.152352,34.125534]},"properties":{"Name":"大東小学校周辺農道","Jusho":"和歌山県海南市下津町丸田384付近","kouzui":"×","gake":"×","takashio":"×","jishin":"×","tsunami":"○","kaji":"×","naisui":"×","kazan":"×"}}
,{"type":"Feature","geometry":{"type":"Point","coordinates":[135.157338,34.133827]},"properties":{"Name":"かぐのみ苑周辺","Jusho":"和歌山県海南市下津町丸田1111-1付近","kouzui":"×","gake":"×","takashio":"×","jishin":"×","tsunami":"○","kaji":"×","naisui":"×","kazan":"×"}}
,{"type":"Feature","geometry":{"type":"Point","coordinates":[135.156528,34.135536]},"properties":{"Name":"戸坂峠","Jusho":"和歌山県海南市下津町丸田1158付近","kouzui":"×","gake":"×","takashio":"×","jishin":"×","tsunami":"○","kaji":"×","naisui":"×","kazan":"×"}}
,{"type":"Feature","geometry":{"type":"Point","coordinates":[135.159543,34.122446]},"properties":{"Name":"黒田地区高台","Jusho":"和歌山県海南市下津町黒田186付近","kouzui":"×","gake":"×","takashio":"×","jishin":"×","tsunami":"○","kaji":"×","naisui":"×","kazan":"×"}}
,{"type":"Feature","geometry":{"type":"Point","coordinates":[135.156456,34.122978]},"properties":{"Name":"三郷八幡神社参道","Jusho":"和歌山県海南市下津町丁160付近","kouzui":"×","gake":"×","takashio":"×","jishin":"×","tsunami":"○","kaji":"×","naisui":"×","kazan":"×"}}
,{"type":"Feature","geometry":{"type":"Point","coordinates":[135.16058,34.121327]},"properties":{"Name":"三郷八幡神社","Jusho":"和歌山県海南市下津町丁238","kouzui":"×","gake":"×","takashio":"×","jishin":"×","tsunami":"○","kaji":"×","naisui":"×","kazan":"×"}}
,{"type":"Feature","geometry":{"type":"Point","coordinates":[135.158026,34.118387]},"properties":{"Name":"丁区パイロット農道周辺","Jusho":"和歌山県海南市下津町丁500付近","kouzui":"×","gake":"×","takashio":"×","jishin":"×","tsunami":"○","kaji":"×","naisui":"×","kazan":"×"}}
,{"type":"Feature","geometry":{"type":"Point","coordinates":[135.148435,34.126076]},"properties":{"Name":"方北地区高台③","Jusho":"和歌山県海南市下津町方731付近","kouzui":"×","gake":"×","takashio":"×","jishin":"×","tsunami":"○","kaji":"×","naisui":"×","kazan":"×"}}
,{"type":"Feature","geometry":{"type":"Point","coordinates":[135.149773,34.124809]},"properties":{"Name":"方北地区高台②","Jusho":"和歌山県海南市下津町方793付近","kouzui":"×","gake":"×","takashio":"×","jishin":"×","tsunami":"○","kaji":"×","naisui":"×","kazan":"×"}}
,{"type":"Feature","geometry":{"type":"Point","coordinates":[135.150479,34.123949]},"properties":{"Name":"方北地区高台①","Jusho":"和歌山県海南市下津町方840付近","kouzui":"×","gake":"×","takashio":"×","jishin":"×","tsunami":"○","kaji":"×","naisui":"×","kazan":"×"}}
,{"type":"Feature","geometry":{"type":"Point","coordinates":[135.143624,34.127453]},"properties":{"Name":"横山農道周辺","Jusho":"和歌山県海南市下津町方1665-4付近","kouzui":"×","gake":"×","takashio":"×","jishin":"×","tsunami":"○","kaji":"×","naisui":"×","kazan":"×"}}
,{"type":"Feature","geometry":{"type":"Point","coordinates":[135.154476,34.119197]},"properties":{"Name":"旧街道","Jusho":"和歌山県海南市下津町方867付近","kouzui":"×","gake":"×","takashio":"×","jishin":"×","tsunami":"○","kaji":"×","naisui":"×","kazan":"×"}}
,{"type":"Feature","geometry":{"type":"Point","coordinates":[135.151798,34.115689]},"properties":{"Name":"小島谷農道周辺","Jusho":"和歌山県海南市下津町方976付近","kouzui":"×","gake":"×","takashio":"×","jishin":"×","tsunami":"○","kaji":"×","naisui":"×","kazan":"×"}}
,{"type":"Feature","geometry":{"type":"Point","coordinates":[135.149989,34.118018]},"properties":{"Name":"宮ノ谷地区裏山周辺","Jusho":"和歌山県海南市下津町方1092付近","kouzui":"×","gake":"×","takashio":"×","jishin":"×","tsunami":"○","kaji":"×","naisui":"×","kazan":"×"}}
,{"type":"Feature","geometry":{"type":"Point","coordinates":[135.147318,34.120461]},"properties":{"Name":"禅定寺","Jusho":"和歌山県海南市下津町方1157","kouzui":"×","gake":"×","takashio":"×","jishin":"×","tsunami":"○","kaji":"×","naisui":"×","kazan":"×"}}
,{"type":"Feature","geometry":{"type":"Point","coordinates":[135.144571,34.118768]},"properties":{"Name":"市道硯楠戸線周辺","Jusho":"和歌山県海南市下津町方1334付近","kouzui":"×","gake":"×","takashio":"×","jishin":"×","tsunami":"○","kaji":"×","naisui":"×","kazan":"×"}}
,{"type":"Feature","geometry":{"type":"Point","coordinates":[135.145907,34.122623]},"properties":{"Name":"硯地区裏山周辺","Jusho":"和歌山県海南市下津町方1430付近","kouzui":"×","gake":"×","takashio":"×","jishin":"×","tsunami":"○","kaji":"×","naisui":"×","kazan":"×"}}
,{"type":"Feature","geometry":{"type":"Point","coordinates":[135.134497,34.12773]},"properties":{"Name":"万葉歌碑周辺","Jusho":"和歌山県海南市下津町大崎2付近","kouzui":"×","gake":"×","takashio":"×","jishin":"×","tsunami":"○","kaji":"×","naisui":"×","kazan":"×"}}
,{"type":"Feature","geometry":{"type":"Point","coordinates":[135.13353152091,34.133619768994]},"properties":{"Name":"旧大崎小学校","Jusho":"和歌山県海南市下津町大崎383","kouzui":"○","gake":"×","takashio":"×","jishin":"○","tsunami":"○","kaji":"×","naisui":"×","kazan":"×"}}
,{"type":"Feature","geometry":{"type":"Point","coordinates":[135.132806,34.132921]},"properties":{"Name":"常行寺周辺","Jusho":"和歌山県海南市下津町大崎357","kouzui":"×","gake":"×","takashio":"×","jishin":"×","tsunami":"○","kaji":"×","naisui":"×","kazan":"×"}}
,{"type":"Feature","geometry":{"type":"Point","coordinates":[135.133924,34.132213]},"properties":{"Name":"願称寺周辺","Jusho":"和歌山県海南市下津町大崎398","kouzui":"×","gake":"×","takashio":"×","jishin":"×","tsunami":"○","kaji":"×","naisui":"×","kazan":"×"}}
,{"type":"Feature","geometry":{"type":"Point","coordinates":[135.131208,34.1358956]},"properties":{"Name":"大崎グラウンド","Jusho":"和歌山県海南市下津町大崎884付近","kouzui":"×","gake":"×","takashio":"×","jishin":"×","tsunami":"○","kaji":"×","naisui":"×","kazan":"×"}}
,{"type":"Feature","geometry":{"type":"Point","coordinates":[135.148794,34.132937]},"properties":{"Name":"女良農道周辺","Jusho":"和歌山県海南市下津町大崎1336付近","kouzui":"×","gake":"×","takashio":"×","jishin":"×","tsunami":"○","kaji":"×","naisui":"×","kazan":"×"}}
,{"type":"Feature","geometry":{"type":"Point","coordinates":[135.1462508,34.13077494]},"properties":{"Name":"女良古墳周辺","Jusho":"和歌山県海南市下津町大崎1373-2付近","kouzui":"×","gake":"×","takashio":"×","jishin":"×","tsunami":"○","kaji":"×","naisui":"×","kazan":"×"}}
,{"type":"Feature","geometry":{"type":"Point","coordinates":[135.16536,34.134815]},"properties":{"Name":"教徳寺周辺","Jusho":"和歌山県海南市下津町塩津82","kouzui":"×","gake":"×","takashio":"×","jishin":"×","tsunami":"○","kaji":"×","naisui":"×","kazan":"×"}}
,{"type":"Feature","geometry":{"type":"Point","coordinates":[135.165954,34.132615]},"properties":{"Name":"極楽寺周辺","Jusho":"和歌山県海南市下津町塩津881","kouzui":"×","gake":"×","takashio":"×","jishin":"×","tsunami":"○","kaji":"×","naisui":"×","kazan":"×"}}
,{"type":"Feature","geometry":{"type":"Point","coordinates":[135.165414,34.131978]},"properties":{"Name":"旧塩津小学校（塩津公民館）","Jusho":"和歌山県海南市下津町塩津908","kouzui":"○","gake":"○","takashio":"×","jishin":"○","tsunami":"○","kaji":"×","naisui":"×","kazan":"×"}}
,{"type":"Feature","geometry":{"type":"Point","coordinates":[135.168724,34.130947]},"properties":{"Name":"加茂神社","Jusho":"和歌山県海南市下津町下567付近","kouzui":"×","gake":"×","takashio":"×","jishin":"×","tsunami":"○","kaji":"×","naisui":"×","kazan":"×"}}
,{"type":"Feature","geometry":{"type":"Point","coordinates":[135.2037522,34.16060213]},"properties":{"Name":"黒江防災コミュニティセンター（屋上）","Jusho":"和歌山県海南市船尾222-21","kouzui":"×","gake":"×","takashio":"×","jishin":"×","tsunami":"○","kaji":"×","naisui":"×","kazan":"×"}}
,{"type":"Feature","geometry":{"type":"Point","coordinates":[135.2000048,34.15926685]},"properties":{"Name":"黒江小学校（屋上）","Jusho":"和歌山県海南市船尾236-4","kouzui":"×","gake":"×","takashio":"×","jishin":"×","tsunami":"○","kaji":"×","naisui":"×","kazan":"×"}}
,{"type":"Feature","geometry":{"type":"Point","coordinates":[135.198791,34.15826856]},"properties":{"Name":"海南スポーツセンター（屋上）","Jusho":"和歌山県海南市船尾260-3","kouzui":"×","gake":"×","takashio":"×","jishin":"×","tsunami":"○","kaji":"×","naisui":"×","kazan":"×"}}
,{"type":"Feature","geometry":{"type":"Point","coordinates":[135.199274,34.159093]},"properties":{"Name":"恵友病院（6階）","Jusho":"和歌山県海南市船尾264-2","kouzui":"×","gake":"×","takashio":"×","jishin":"×","tsunami":"○","kaji":"×","naisui":"×","kazan":"×"}}
,{"type":"Feature","geometry":{"type":"Point","coordinates":[135.195433,34.15926]},"properties":{"Name":"石本病院（屋上）","Jusho":"和歌山県海南市船尾365","kouzui":"×","gake":"×","takashio":"×","jishin":"×","tsunami":"○","kaji":"×","naisui":"×","kazan":"×"}}
,{"type":"Feature","geometry":{"type":"Point","coordinates":[135.20888165194,34.158079972493]},"properties":{"Name":"谷口病院（6階）","Jusho":"和歌山県海南市日方327-11","kouzui":"×","gake":"×","takashio":"×","jishin":"×","tsunami":"○","kaji":"×","naisui":"×","kazan":"×"}}
,{"type":"Feature","geometry":{"type":"Point","coordinates":[135.2213233,34.15860541]},"properties":{"Name":"海南中学校（屋上）","Jusho":"和歌山県海南市日方962-2","kouzui":"×","gake":"×","takashio":"×","jishin":"×","tsunami":"○","kaji":"×","naisui":"×","kazan":"×"}}
,{"type":"Feature","geometry":{"type":"Point","coordinates":[135.2104157,34.15734439]},"properties":{"Name":"日方小学校（屋上）","Jusho":"和歌山県海南市日方1257","kouzui":"×","gake":"×","takashio":"×","jishin":"×","tsunami":"○","kaji":"×","naisui":"×","kazan":"×"}}
,{"type":"Feature","geometry":{"type":"Point","coordinates":[135.209113,34.155899]},"properties":{"Name":"クレンツ海南（屋上）","Jusho":"和歌山県海南市日方1271-99","kouzui":"×","gake":"×","takashio":"×","jishin":"×","tsunami":"○","kaji":"×","naisui":"×","kazan":"×"}}
,{"type":"Feature","geometry":{"type":"Point","coordinates":[135.208326,34.157164]},"properties":{"Name":"パル・シャトー海南（4階以上）","Jusho":"和歌山県海南市日方1272-1","kouzui":"×","gake":"×","takashio":"×","jishin":"×","tsunami":"○","kaji":"×","naisui":"×","kazan":"×"}}
,{"type":"Feature","geometry":{"type":"Point","coordinates":[135.2062377,34.1559356]},"properties":{"Name":"海南合同宿舎１号棟（5階以上）","Jusho":"和歌山県海南市日方1274-3","kouzui":"×","gake":"×","takashio":"×","jishin":"×","tsunami":"○","kaji":"×","naisui":"×","kazan":"×"}}
,{"type":"Feature","geometry":{"type":"Point","coordinates":[135.2061302,34.15610204]},"properties":{"Name":"海南合同宿舎２号棟（5階以上）","Jusho":"和歌山県海南市日方1274-3","kouzui":"×","gake":"×","takashio":"×","jishin":"×","tsunami":"○","kaji":"×","naisui":"×","kazan":"×"}}
,{"type":"Feature","geometry":{"type":"Point","coordinates":[135.208432,34.153917]},"properties":{"Name":"マンションニューハマ（屋上）","Jusho":"和歌山県海南市日方1289-27","kouzui":"×","gake":"×","takashio":"×","jishin":"×","tsunami":"○","kaji":"×","naisui":"×","kazan":"×"}}
,{"type":"Feature","geometry":{"type":"Point","coordinates":[135.2051894,34.15675765]},"properties":{"Name":"防災センター（3階）","Jusho":"和歌山県海南市日方1294-13","kouzui":"×","gake":"×","takashio":"×","jishin":"×","tsunami":"○","kaji":"×","naisui":"×","kazan":"×"}}
,{"type":"Feature","geometry":{"type":"Point","coordinates":[135.213942,34.155824]},"properties":{"Name":"県営駅前団地（4階以上）","Jusho":"和歌山県海南市日方1500-6","kouzui":"×","gake":"×","takashio":"×","jishin":"×","tsunami":"○","kaji":"×","naisui":"×","kazan":"×"}}
,{"type":"Feature","geometry":{"type":"Point","coordinates":[135.2102089,34.15543596]},"properties":{"Name":"海南保健福祉センター（３階）","Jusho":"和歌山県海南市日方1519-10","kouzui":"×","gake":"×","takashio":"×","jishin":"×","tsunami":"○","kaji":"×","naisui":"×","kazan":"×"}}
,{"type":"Feature","geometry":{"type":"Point","coordinates":[135.211075,34.154388]},"properties":{"Name":"和歌山プリンスイン海南（4階以上）","Jusho":"和歌山県海南市日方1521-1","kouzui":"×","gake":"×","takashio":"×","jishin":"×","tsunami":"○","kaji":"×","naisui":"×","kazan":"×"}}
,{"type":"Feature","geometry":{"type":"Point","coordinates":[135.2104685,34.15382035]},"properties":{"Name":"海南医療センター（屋上）","Jusho":"和歌山県海南市日方1522-１","kouzui":"×","gake":"×","takashio":"×","jishin":"×","tsunami":"○","kaji":"×","naisui":"×","kazan":"×"}}
,{"type":"Feature","geometry":{"type":"Point","coordinates":[135.214337,34.154359]},"properties":{"Name":"ＪＲ海南駅（プラットホーム）","Jusho":"和歌山県海南市名高187-8","kouzui":"×","gake":"×","takashio":"×","jishin":"×","tsunami":"○","kaji":"×","naisui":"×","kazan":"×"}}
,{"type":"Feature","geometry":{"type":"Point","coordinates":[135.2185838,34.15237005]},"properties":{"Name":"第三中学校（4階）","Jusho":"和歌山県海南市鳥居15-3","kouzui":"×","gake":"×","takashio":"×","jishin":"×","tsunami":"○","kaji":"×","naisui":"×","kazan":"×"}}
,{"type":"Feature","geometry":{"type":"Point","coordinates":[135.2138544,34.14953288]},"properties":{"Name":"内海小学校（屋上）","Jusho":"和歌山県海南市鳥居190","kouzui":"×","gake":"×","takashio":"×","jishin":"×","tsunami":"○","kaji":"×","naisui":"×","kazan":"×"}}
,{"type":"Feature","geometry":{"type":"Point","coordinates":[135.1540582,34.11646256]},"properties":{"Name":"下津保健福祉センター（屋上）","Jusho":"和歌山県海南市下津町上14-6","kouzui":"×","gake":"×","takashio":"×","jishin":"×","tsunami":"○","kaji":"×","naisui":"×","kazan":"×"}}
,{"type":"Feature","geometry":{"type":"Point","coordinates":[135.1522754,34.10928527]},"properties":{"Name":"下津小学校（3階）","Jusho":"和歌山県海南市下津町下津477","kouzui":"×","gake":"×","takashio":"×","jishin":"×","tsunami":"○","kaji":"×","naisui":"×","kazan":"×"}}
,{"type":"Feature","geometry":{"type":"Point","coordinates":[135.1509252,34.1088396]},"properties":{"Name":"海南市民交流センター（3階）","Jusho":"和歌山県海南市下津町下津500-1","kouzui":"×","gake":"×","takashio":"×","jishin":"×","tsunami":"○","kaji":"×","naisui":"×","kazan":"×"}}
,{"type":"Feature","geometry":{"type":"Point","coordinates":[135.150404,34.109373]},"properties":{"Name":"海南市民交流センター立体駐車場（最上段）","Jusho":"和歌山県海南市下津町下津500-1","kouzui":"×","gake":"×","takashio":"×","jishin":"×","tsunami":"○","kaji":"×","naisui":"×","kazan":"×"}}
,{"type":"Feature","geometry":{"type":"Point","coordinates":[135.149725,34.109344]},"properties":{"Name":"下津消防署（屋上）","Jusho":"和歌山県海南市下津町下津518-6","kouzui":"×","gake":"×","takashio":"×","jishin":"×","tsunami":"○","kaji":"×","naisui":"×","kazan":"×"}}
,{"type":"Feature","geometry":{"type":"Point","coordinates":[135.1575751,34.1275835]},"properties":{"Name":"海南下津高等学校（3階）","Jusho":"和歌山県海南市下津町丸田87","kouzui":"×","gake":"×","takashio":"×","jishin":"×","tsunami":"○","kaji":"×","naisui":"×","kazan":"×"}}
,{"type":"Feature","geometry":{"type":"Point","coordinates":[135.1558994,34.12528684]},"properties":{"Name":"下津防災コミュニティセンター（屋上）","Jusho":"和歌山県海南市下津町丸田217-1","kouzui":"×","gake":"×","takashio":"×","jishin":"×","tsunami":"○","kaji":"×","naisui":"×","kazan":"×"}}
,{"type":"Feature","geometry":{"type":"Point","coordinates":[135.1521802,34.12336224]},"properties":{"Name":"大東小学校（屋上）","Jusho":"和歌山県海南市下津町方1","kouzui":"×","gake":"×","takashio":"×","jishin":"×","tsunami":"○","kaji":"×","naisui":"×","kazan":"×"}}
,{"type":"Feature","geometry":{"type":"Point","coordinates":[135.1644711,34.12815251]},"properties":{"Name":"下津第二中学校（3階）","Jusho":"和歌山県海南市下津町下287-2","kouzui":"×","gake":"×","takashio":"×","jishin":"×","tsunami":"○","kaji":"×","naisui":"×","kazan":"×"}}
,{"type":"Feature","geometry":{"type":"Point","coordinates":[135.1491332,34.12303045]},"properties":{"Name":"高田機工（株）高友寮（屋上）","Jusho":"和歌山県海南市下津町方389","kouzui":"×","gake":"×","takashio":"×","jishin":"×","tsunami":"○","kaji":"×","naisui":"×","kazan":"×"}}
,{"type":"Feature","geometry":{"type":"Point","coordinates":[135.20765325972,34.152225008131]},"properties":{"Name":"スーパーセンターオークワ海南店（屋上駐車場）","Jusho":"和歌山県海南市築港1-1","kouzui":"×","gake":"×","takashio":"×","jishin":"×","tsunami":"○","kaji":"×","naisui":"×","kazan":"×"}}
,{"type":"Feature","geometry":{"type":"Point","coordinates":[135.203753,34.16066]},"properties":{"Name":"黒江防災コミュニティセンター","Jusho":"和歌山県海南市船尾222-21","kouzui":"○","gake":"○","takashio":"×","jishin":"○","tsunami":"×","kaji":"×","naisui":"×","kazan":"×"}}
,{"type":"Feature","geometry":{"type":"Point","coordinates":[135.2004853,34.1593289]},"properties":{"Name":"黒江小学校","Jusho":"和歌山県海南市船尾236-4","kouzui":"○","gake":"○","takashio":"×","jishin":"○","tsunami":"×","kaji":"×","naisui":"×","kazan":"×"}}
,{"type":"Feature","geometry":{"type":"Point","coordinates":[135.198656,34.15830794]},"properties":{"Name":"海南スポーツセンター","Jusho":"和歌山県海南市船尾260-3","kouzui":"○","gake":"○","takashio":"×","jishin":"○","tsunami":"×","kaji":"×","naisui":"×","kazan":"×"}}
,{"type":"Feature","geometry":{"type":"Point","coordinates":[135.2189838,34.1598067]},"properties":{"Name":"日方公民館","Jusho":"和歌山県海南市日方839","kouzui":"○","gake":"○","takashio":"×","jishin":"○","tsunami":"×","kaji":"×","naisui":"×","kazan":"×"}}
,{"type":"Feature","geometry":{"type":"Point","coordinates":[135.221198,34.158545]},"properties":{"Name":"海南中学校","Jusho":"和歌山県海南市日方962-2","kouzui":"○","gake":"○","takashio":"×","jishin":"○","tsunami":"×","kaji":"×","naisui":"×","kazan":"×"}}
,{"type":"Feature","geometry":{"type":"Point","coordinates":[135.210305,34.157255]},"properties":{"Name":"日方小学校","Jusho":"和歌山県海南市日方1257","kouzui":"○","gake":"○","takashio":"×","jishin":"○","tsunami":"×","kaji":"×","naisui":"×","kazan":"×"}}
,{"type":"Feature","geometry":{"type":"Point","coordinates":[135.20522,34.156596]},"properties":{"Name":"防災センター（海南市消防本部）","Jusho":"和歌山県海南市日方1294-13","kouzui":"○","gake":"○","takashio":"×","jishin":"○","tsunami":"×","kaji":"×","naisui":"×","kazan":"×"}}
,{"type":"Feature","geometry":{"type":"Point","coordinates":[135.210198,34.155533]},"properties":{"Name":"海南保健福祉センター","Jusho":"和歌山県海南市日方1519-10","kouzui":"○","gake":"○","takashio":"×","jishin":"○","tsunami":"×","kaji":"×","naisui":"×","kazan":"×"}}
,{"type":"Feature","geometry":{"type":"Point","coordinates":[135.2187126,34.15242332]},